{"protocolSection":{"identificationModule":{"nctId":"NCT02511106","orgStudyIdInfo":{"id":"D5164C00001"},"secondaryIdInfos":[{"id":"2023-506524-82-00","type":"REGISTRY","domain":"CTIS"},{"id":"2015-000662-65","type":"EUDRACT_NUMBER"}],"organization":{"fullName":"AstraZeneca","class":"INDUSTRY"},"briefTitle":"AZD9291 Versus Placebo in Patients With Stage IB-IIIA Non-small Cell Lung Carcinoma, Following Complete Tumour Resection With or Without Adjuvant Chemotherapy.","officialTitle":"A Phase III, Double-blind, Randomized, Placebo-controlled Multi-centre, Study to Assess the Efficacy and Safety of AZD9291 Versus Placebo, in Patients With Epidermal Growth Factor Receptor Mutation Positive Stage IB-IIIA Non-small Cell Lung Carcinoma, Following Complete Tumour Resection With or Without Adjuvant Chemotherapy (ADAURA).","acronym":"ADAURA"},"statusModule":{"statusVerifiedDate":"2025-08","overallStatus":"ACTIVE_NOT_RECRUITING","expandedAccessInfo":{"hasExpandedAccess":false},"startDateStruct":{"date":"2015-10-21","type":"ACTUAL"},"primaryCompletionDateStruct":{"date":"2022-04-11","type":"ACTUAL"},"completionDateStruct":{"date":"2029-01-31","type":"ESTIMATED"},"studyFirstSubmitDate":"2015-07-28","studyFirstSubmitQcDate":"2015-07-28","studyFirstPostDateStruct":{"date":"2015-07-29","type":"ESTIMATED"},"resultsFirstSubmitDate":"2021-01-15","resultsFirstSubmitQcDate":"2021-07-06","resultsFirstPostDateStruct":{"date":"2021-07-27","type":"ACTUAL"},"lastUpdateSubmitDate":"2025-08-27","lastUpdatePostDateStruct":{"date":"2025-08-28","type":"ESTIMATED"}},"sponsorCollaboratorsModule":{"responsibleParty":{"type":"SPONSOR"},"leadSponsor":{"name":"AstraZeneca","class":"INDUSTRY"}},"oversightModule":{"oversightHasDmc":true},"descriptionModule":{"briefSummary":"To assess the efficacy and safety of AZD9291 versus Placebo, in patients with Epidermal Growth Factor Receptor Mutation Positive stage IB-IIIA non-small cell lung carcinoma, following complete tumour resection with or without adjuvant chemotherapy","detailedDescription":"This is a phase 3 double-blind, randomized, placebo-controlled, study to assess the efficacy and safety of AZD9291 versus placebo in patients with stage IB-IIIA non-small cell lung cancer (NSCLC) with centrally confirmed, most common sensitising EGFR mutations (Ex19Del and L858R) either alone or in combination with other EGFR mutations as confirmed by a central test, who have had complete tumour resection, with or without postoperative adjuvant chemotherapy. Adjuvant chemotherapy should have consisted of a platinum based doublet given for a maximum of 4 cycles."},"conditionsModule":{"conditions":["Stage IB-IIIA Non-small Cell Lung Carcinoma"],"keywords":["Stage IB-IIA-IIIA Non-Small Cell Lung Cancer; EGFRm+; Ex19Del; L858R; AZD9291; Phase III, adjuvant chemotherapy; complete tumour resection; EGFR-TKI"]},"designModule":{"studyType":"INTERVENTIONAL","phases":["PHASE3"],"designInfo":{"allocation":"RANDOMIZED","interventionModel":"PARALLEL","primaryPurpose":"TREATMENT","maskingInfo":{"masking":"TRIPLE","whoMasked":["PARTICIPANT","INVESTIGATOR","OUTCOMES_ASSESSOR"]}},"enrollmentInfo":{"count":682,"type":"ACTUAL"}},"armsInterventionsModule":{"armGroups":[{"label":"AZD9291","type":"EXPERIMENTAL","description":"AZD9291 (80 mg or 40 mg orally, once daily), in accordance with the randomization schedule.","interventionNames":["Drug: AZD9291 80 mg/40 mg","Drug: Open-label AZD9291 80 mg/40 mg"]},{"label":"Placebo AZD9291","type":"PLACEBO_COMPARATOR","description":"Matching placebo for AZD9291 (80 mg or 40 mg orally, once daily), in accordance with the randomization schedule.","interventionNames":["Drug: Placebo AZD9291 80 mg/40 mg"]}],"interventions":[{"type":"DRUG","name":"AZD9291 80 mg/40 mg","description":"The initial dose of AZD9291 80 mg once daily can be reduced to 40 mg once daily.","armGroupLabels":["AZD9291"]},{"type":"DRUG","name":"Placebo AZD9291 80 mg/40 mg","description":"The initial dose of Placebo AZD9291 80 mg once daily can be reduced to 40 mg once daily.","armGroupLabels":["Placebo AZD9291"]},{"type":"DRUG","name":"Open-label AZD9291 80 mg/40 mg","description":"Eligible patients will be offered open-label osimertinib upon recurrence and in the absence of intervening systemic anti-cancer therapy.","armGroupLabels":["AZD9291"]}]},"outcomesModule":{"primaryOutcomes":[{"measure":"Assess the Efficacy of AZD9291 Compared to Placebo as Measured by Disease Free Survival (DFS).","description":"Defined as the time from the date of randomization until the date of disease recurrence or death (by any cause in the absence of recurrence).","timeFrame":"Up to approximately 5 years after the first patient is randomized (maximum follow up of 70 months)"}],"secondaryOutcomes":[{"measure":"Disease Free Survival (DFS) Rate at 2, 3 and 5 Years","description":"Defined as the percentage of patients alive and disease free at 2, 3 and 5 years, respectively, estimated from Kaplan Meier plots of the primary endpoint of DFS.","timeFrame":"Up to approximately 5 years after the first patient is randomized (maximum follow up of 70 months). DFS rate at 2 years (%), 3 years (%) and 5 years (%) are presented."},{"measure":"Overall Survival (OS)","description":"Defined as the time from the date of randomization until date of death due to any cause.","timeFrame":"Up to approximately 7 years after the first patient is randomized (maximum follow up of 86 months)"},{"measure":"Overall Survival Rate at 2, 3 and 5 Years","description":"Defined as the percentage of patients alive at 2, 3 and 5 years, respectively, estimated from a Kaplan Meier plot of OS.","timeFrame":"Up to approximately 7 years after the first patient is randomized (maximum follow up of 86 months). OS rate at 2 years (%), 3 years (%) and 5 years (%) are presented."},{"measure":"Patient Health-related Quality of Life and Symptoms (HRQoL) by SF-36v2 Health Survey.","description":"Change from baseline will be calculated for each domain and summary scale at each scheduled post-baseline assessment. The SF-36 includes eight domains: Physical Functioning (PF); Role Limitations-Physical (RP), Vitality (VT), General Health Perceptions (GH), Bodily Pain (BP), Social Function (SF), Role Limitations-Emotional (RE), and Mental Health (MH) and two summary scores: The Physical Component Summary (PCS) and Mental Component Summary (MCS). Final scores for each scale range from 0-100 with higher scores indicating better health.","timeFrame":"Measured by SF-36 Questionnaire at baseline, 12 week, 24 week and then every 24 weeks until study complete, disease recurrence or other discontinuation criteria met, up to 3 years."},{"measure":"Plasma Concentrations of AZD9291","description":"The pharmacokinetics exposure parameters derived from plasma concentrations of AZD9291","timeFrame":"Collected at pre-dose, 0.5-1.5hours and 2-4hours post-dose up to 96 weeks (approximately 24 months)"},{"measure":"Plasma Concentrations of AZ5104 Metabolites","description":"The pharmacokinetics exposure parameters derived from plasma concentrations of AZ5104 metabolites","timeFrame":"From date of dosing to week 96 (approximately 24 months)"},{"measure":"Plasma Concentrations of AZ7550 Metabolites","description":"The pharmacokinetics exposure parameters derived from plasma concentrations of AZ7550 metabolites","timeFrame":"From date of dosing to week 96 (approximately 24 months)"}]},"eligibilityModule":{"eligibilityCriteria":"Inclusion Criteria:\n\n1. Male or female, aged at least 18 years.\n2. Histologically confirmed diagnosis of primary non small lung cancer (NSCLC) on predominantly non-squamous histology\n3. MRI or CT scan of the brain must be done prior to surgery as it is considered standard of care.\n4. Patients must be classified post-operatively as Stage IB, II or IIIA on the basis of pathologic criteria.\n5. Confirmation by the central laboratory that the tumour harbours one of the 2 common EGFR mutations known to be associated with EGFR-TKI sensitivity (Ex19del, L858R), either alone or in combination with other EGFR mutations including T790M.\n6. Complete surgical resection of the primary NSCLC is mandatory. All gross disease must have been removed at the end of surgery. All surgical margins of resection must be negative for tumour.\n7. Complete recovery from surgery and standard post-operative therapy (if applicable) at the time of randomization.\n8. World Health Organization Performance Status of 0 to 1.\n9. Female patients should be using adequate contraceptive measures, should not be breast feeding, and must have a negative pregnancy test prior to first dose of study drug; or female patients must have an evidence of non-child-bearing potential.\n\nExclusion Criteria:\n\n1. Treatment with any of the following:\n\n   * Pre-operative or post-operative or planned radiation therapy for the current lung cancer\n   * Pre-operative (neo-adjuvant) platinum based or other chemotherapy\n   * Any prior anticancer therapy\n   * Prior treatment with neoadjuvant or adjuvant EGFR-TKI at any time\n   * Major surgery (including primary tumour surgery, excluding placement of vascular access) within 4 weeks of the first dose of study drug\n   * Patients currently receiving medications or herbal supplements known to be potent inducers of cytochrome P450 (CYP) 3A4\n   * Treatment with an investigational drug within five half-lives of the compound or any of its related material.\n2. Patients who have had only segmentectomies or wedge resections\n3. History of other malignancies, except: adequately treated non-melanoma skin cancer, curatively treated in-situ cancer, or other solid tumours curatively treated with no evidence of disease for \\> 5 years following the end of treatment.\n4. Any unresolved toxicities from prior therapy greater than CTCAE Grade 1 at the time of starting study treatment with the exception of alopecia and Grade 2, prior platinum-therapy related neuropathy.\n5. Any evidence of severe or uncontrolled systemic diseases, including uncontrolled hypertension and active bleeding diatheses; or active infection including hepatitis B, hepatitis C and human immunodeficiency virus (HIV).\n6. Refractory nausea and vomiting, chronic gastrointestinal diseases, inability to swallow the formulated product, or previous significant bowel resection that would preclude adequate absorption of AZD9291.\n7. Any of the following cardiac criteria:\n\n   * Mean resting corrected QT interval (QTc) \\>470 msec, obtained from 3 ECGs, using the screening clinic ECG machine-derived QTc value.\n   * Any clinically important abnormalities in rhythm, conduction, or morphology of resting ECG.\n   * Any factors that increase the risk of QTc prolongation or risk of arrhythmic events, or unexplained sudden death under 40 years of age in first-degree relatives or any concomitant medication known to prolong the QT interval.\n8. Past medical history of ILD, drug-induced ILD, radiation pneumonitis which required steroid treatment, or any evidence of clinically active ILD.\n9. Inadequate bone marrow reserve or organ function.","healthyVolunteers":false,"sex":"ALL","minimumAge":"18 Years","maximumAge":"130 Years","stdAges":["ADULT","OLDER_ADULT"]},"contactsLocationsModule":{"locations":[{"facility":"Research Site","city":"Los Angeles","state":"California","zip":"90048","country":"United States","geoPoint":{"lat":34.05223,"lon":-118.24368}},{"facility":"Research Site","city":"Santa Monica","state":"California","zip":"90404","country":"United States","geoPoint":{"lat":34.01949,"lon":-118.49138}},{"facility":"Research Site","city":"Santa Rosa","state":"California","zip":"95403","country":"United States","geoPoint":{"lat":38.44047,"lon":-122.71443}},{"facility":"Research Site","city":"Torrance","state":"California","zip":"90505","country":"United States","geoPoint":{"lat":33.83585,"lon":-118.34063}},{"facility":"Research Site","city":"Grand Junction","state":"Colorado","zip":"81501","country":"United States","geoPoint":{"lat":39.06387,"lon":-108.55065}},{"facility":"Research Site","city":"New Haven","state":"Connecticut","zip":"06520","country":"United States","geoPoint":{"lat":41.30815,"lon":-72.92816}},{"facility":"Research Site","city":"Norwalk","state":"Connecticut","zip":"06856","country":"United States","geoPoint":{"lat":41.1176,"lon":-73.4079}},{"facility":"Research Site","city":"Fort Myers","state":"Florida","zip":"33901","country":"United States","geoPoint":{"lat":26.62168,"lon":-81.84059}},{"facility":"Research Site","city":"Pembroke Pines","state":"Florida","zip":"33028","country":"United States","geoPoint":{"lat":26.00315,"lon":-80.22394}},{"facility":"Research Site","city":"St. Petersburg","state":"Florida","zip":"33705","country":"United States","geoPoint":{"lat":27.77086,"lon":-82.67927}},{"facility":"Research Site","city":"Athens","state":"Georgia","zip":"30607","country":"United States","geoPoint":{"lat":33.96095,"lon":-83.37794}},{"facility":"Research Site","city":"Honolulu","state":"Hawaii","zip":"96819","country":"United States","geoPoint":{"lat":21.30694,"lon":-157.85833}},{"facility":"Research Site","city":"Chicago","state":"Illinois","zip":"60612","country":"United States","geoPoint":{"lat":41.85003,"lon":-87.65005}},{"facility":"Research Site","city":"Elk Grove Village","state":"Illinois","zip":"60007","country":"United States","geoPoint":{"lat":42.00392,"lon":-87.97035}},{"facility":"Research Site","city":"Bethesda","state":"Maryland","zip":"20817","country":"United States","geoPoint":{"lat":38.98067,"lon":-77.10026}},{"facility":"Research Site","city":"Brick","state":"New Jersey","zip":"08724","country":"United States","geoPoint":{"lat":40.05928,"lon":-74.13708}},{"facility":"Research Site","city":"Florham Park","state":"New Jersey","zip":"07932","country":"United States","geoPoint":{"lat":40.78788,"lon":-74.38821}},{"facility":"Research Site","city":"Mineola","state":"New York","zip":"11501","country":"United States","geoPoint":{"lat":40.74927,"lon":-73.64068}},{"facility":"Research Site","city":"Pawtucket","state":"Rhode Island","zip":"02860","country":"United States","geoPoint":{"lat":41.87871,"lon":-71.38256}},{"facility":"Research Site","city":"Chattanooga","state":"Tennessee","zip":"37404","country":"United States","geoPoint":{"lat":35.04563,"lon":-85.30968}},{"facility":"Research Site","city":"Nashville","state":"Tennessee","zip":"37203","country":"United States","geoPoint":{"lat":36.16589,"lon":-86.78444}},{"facility":"Research Site","city":"San Antonio","state":"Texas","zip":"78229","country":"United States","geoPoint":{"lat":29.42412,"lon":-98.49363}},{"facility":"Research Site","city":"Fort Belvoir","state":"Virginia","zip":"22060","country":"United States","geoPoint":{"lat":38.7119,"lon":-77.14589}},{"facility":"Research Site","city":"Bedford Park","zip":"5042","country":"Australia","geoPoint":{"lat":-35.02204,"lon":138.56815}},{"facility":"Research Site","city":"Camperdown","zip":"2050","country":"Australia","geoPoint":{"lat":-33.88965,"lon":151.17642}},{"facility":"Research Site","city":"Darlinghurst","zip":"2010","country":"Australia","geoPoint":{"lat":-33.87939,"lon":151.21925}},{"facility":"Research Site","city":"Heidelberg","zip":"3084","country":"Australia","geoPoint":{"lat":-37.75,"lon":145.06667}},{"facility":"Research Site","city":"Kogarah","zip":"2217","country":"Australia","geoPoint":{"lat":-33.9681,"lon":151.13564}},{"facility":"Research Site","city":"Kurralta Park","zip":"5037","country":"Australia","geoPoint":{"lat":-34.95142,"lon":138.56702}},{"facility":"Research Site","city":"Woolloongabba","zip":"4102","country":"Australia","geoPoint":{"lat":-27.48855,"lon":153.03655}},{"facility":"Research Site","city":"Brussels","zip":"1090","country":"Belgium","geoPoint":{"lat":50.85045,"lon":4.34878}},{"facility":"Research Site","city":"Brussels","zip":"1200","country":"Belgium","geoPoint":{"lat":50.85045,"lon":4.34878}},{"facility":"Research Site","city":"Ghent","zip":"9000","country":"Belgium","geoPoint":{"lat":51.05,"lon":3.71667}},{"facility":"Research Site","city":"Kortrijk","zip":"8500","country":"Belgium","geoPoint":{"lat":50.82803,"lon":3.26487}},{"facility":"Research Site","city":"Barretos","zip":"14784-400","country":"Brazil","geoPoint":{"lat":-20.55722,"lon":-48.56778}},{"facility":"Research Site","city":"Cachoeira de Itapemirim","zip":"29308-055","country":"Brazil"},{"facility":"Research Site","city":"Curitiba","zip":"81520-060","country":"Brazil","geoPoint":{"lat":-25.42778,"lon":-49.27306}},{"facility":"Research Site","city":"Florianópolis","zip":"88034-000","country":"Brazil","geoPoint":{"lat":-27.59667,"lon":-48.54917}},{"facility":"Research Site","city":"Fortaleza","zip":"60810-180","country":"Brazil","geoPoint":{"lat":-3.71722,"lon":-38.54306}},{"facility":"Research Site","city":"Lajeado","zip":"95900000","country":"Brazil","geoPoint":{"lat":-23.53361,"lon":-46.40866}},{"facility":"Research Site","city":"Porto Alegre","zip":"90619-900","country":"Brazil","geoPoint":{"lat":-30.03283,"lon":-51.23019}},{"facility":"Research Site","city":"Rio de Janeiro","zip":"22793-080","country":"Brazil","geoPoint":{"lat":-22.90642,"lon":-43.18223}},{"facility":"Research Site","city":"Salvador","zip":"40170-110","country":"Brazil","geoPoint":{"lat":-12.97563,"lon":-38.49096}},{"facility":"Research Site","city":"São José do Rio Preto","zip":"15025-100","country":"Brazil","geoPoint":{"lat":-20.81972,"lon":-49.37944}},{"facility":"Research Site","city":"São Paulo","zip":"01321-001","country":"Brazil","geoPoint":{"lat":-23.5475,"lon":-46.63611}},{"facility":"Research Site","city":"Toronto","state":"Ontario","zip":"M5G 2M9","country":"Canada","geoPoint":{"lat":43.70643,"lon":-79.39864}},{"facility":"Research Site","city":"Beijing","zip":"100029","country":"China","geoPoint":{"lat":39.9075,"lon":116.39723}},{"facility":"Research Site","city":"Beijing","zip":"100142","country":"China","geoPoint":{"lat":39.9075,"lon":116.39723}},{"facility":"Research Site","city":"Beijing","zip":"100210","country":"China","geoPoint":{"lat":39.9075,"lon":116.39723}},{"facility":"Research Site","city":"Beijing","zip":"100730","country":"China","geoPoint":{"lat":39.9075,"lon":116.39723}},{"facility":"Research Site","city":"Changchun","zip":"130012","country":"China","geoPoint":{"lat":43.88,"lon":125.32278}},{"facility":"Research Site","city":"Changchun","zip":"130021","country":"China","geoPoint":{"lat":43.88,"lon":125.32278}},{"facility":"Research Site","city":"Dalian","zip":"116027","country":"China","geoPoint":{"lat":38.91222,"lon":121.60222}},{"facility":"Research Site","city":"Guangzhou","zip":"510060","country":"China","geoPoint":{"lat":23.11667,"lon":113.25}},{"facility":"Research Site","city":"Guangzhou","zip":"510120","country":"China","geoPoint":{"lat":23.11667,"lon":113.25}},{"facility":"Research Site","city":"Guangzhou","zip":"510180","country":"China","geoPoint":{"lat":23.11667,"lon":113.25}},{"facility":"Research Site","city":"Hangzhou","zip":"310003","country":"China","geoPoint":{"lat":30.29365,"lon":120.16142}},{"facility":"Research Site","city":"Hangzhou","zip":"310009","country":"China","geoPoint":{"lat":30.29365,"lon":120.16142}},{"facility":"Research Site","city":"Hangzhou","zip":"310022","country":"China","geoPoint":{"lat":30.29365,"lon":120.16142}},{"facility":"Research Site","city":"Kunming","zip":"650118","country":"China","geoPoint":{"lat":25.03889,"lon":102.71833}},{"facility":"Research Site","city":"Nanjing","zip":"210029","country":"China","geoPoint":{"lat":32.06167,"lon":118.77778}},{"facility":"Research Site","city":"Nanning","zip":"530021","country":"China","geoPoint":{"lat":22.81667,"lon":108.31667}},{"facility":"Research Site","city":"Shanghai","zip":"200030","country":"China","geoPoint":{"lat":31.22222,"lon":121.45806}},{"facility":"Research Site","city":"Shanghai","zip":"200032","country":"China","geoPoint":{"lat":31.22222,"lon":121.45806}},{"facility":"Research Site","city":"Shanghai","zip":"200072","country":"China","geoPoint":{"lat":31.22222,"lon":121.45806}},{"facility":"Research Site","city":"Shenyang","zip":"110001","country":"China","geoPoint":{"lat":41.79222,"lon":123.43278}},{"facility":"Research Site","city":"Suzhou","zip":"215006","country":"China","geoPoint":{"lat":31.30408,"lon":120.59538}},{"facility":"Research Site","city":"Tianjin","zip":"300050","country":"China","geoPoint":{"lat":39.14222,"lon":117.17667}},{"facility":"Research Site","city":"Tianjin","zip":"300051","country":"China","geoPoint":{"lat":39.14222,"lon":117.17667}},{"facility":"Research Site","city":"Tianjin","zip":"300060","country":"China","geoPoint":{"lat":39.14222,"lon":117.17667}},{"facility":"Research Site","city":"Ürümqi","zip":"830000","country":"China","geoPoint":{"lat":43.80096,"lon":87.60046}},{"facility":"Research Site","city":"Xi'an","zip":"710061","country":"China","geoPoint":{"lat":34.25833,"lon":108.92861}},{"facility":"Research Site","city":"Xiamen","zip":"361004","country":"China","geoPoint":{"lat":24.47979,"lon":118.08187}},{"facility":"Research Site","city":"Yangzhou","zip":"225001","country":"China","geoPoint":{"lat":32.39722,"lon":119.43583}},{"facility":"Research Site","city":"Zhengzhou","zip":"450008","country":"China","geoPoint":{"lat":34.75778,"lon":113.64861}},{"facility":"Research Site","city":"Bron","zip":"69677","country":"France","geoPoint":{"lat":45.73865,"lon":4.91303}},{"facility":"Research Site","city":"Lille","zip":"59000","country":"France","geoPoint":{"lat":50.63391,"lon":3.05512}},{"facility":"Research Site","city":"Limoges","zip":"87042","country":"France","geoPoint":{"lat":45.83362,"lon":1.24759}},{"facility":"Research Site","city":"Lyon","zip":"69008","country":"France","geoPoint":{"lat":45.74906,"lon":4.84789}},{"facility":"Research Site","city":"Paris","zip":"75020","country":"France","geoPoint":{"lat":48.85341,"lon":2.3488}},{"facility":"Research Site","city":"Aachen","zip":"52074","country":"Germany","geoPoint":{"lat":50.77664,"lon":6.08342}},{"facility":"Research Site","city":"Berlin","zip":"12351","country":"Germany","geoPoint":{"lat":52.52437,"lon":13.41053}},{"facility":"Research Site","city":"Berlin","zip":"13125","country":"Germany","geoPoint":{"lat":52.52437,"lon":13.41053}},{"facility":"Research Site","city":"Berlin","zip":"13359","country":"Germany","geoPoint":{"lat":52.52437,"lon":13.41053}},{"facility":"Research Site","city":"Cologne","zip":"51109","country":"Germany","geoPoint":{"lat":50.93333,"lon":6.95}},{"facility":"Research Site","city":"Coswig","zip":"01640","country":"Germany","geoPoint":{"lat":51.13204,"lon":13.58312}},{"facility":"Research Site","city":"Gauting","zip":"82131","country":"Germany","geoPoint":{"lat":48.06919,"lon":11.37703}},{"facility":"Research Site","city":"Gerlingen","zip":"70839","country":"Germany","geoPoint":{"lat":48.79954,"lon":9.06316}},{"facility":"Research Site","city":"Großhansdorf","zip":"22927","country":"Germany","geoPoint":{"lat":53.66528,"lon":10.28552}},{"facility":"Research Site","city":"Halle","zip":"06120","country":"Germany","geoPoint":{"lat":51.48158,"lon":11.97947}},{"facility":"Research Site","city":"Hamburg","zip":"20251","country":"Germany","geoPoint":{"lat":53.55073,"lon":9.99302}},{"facility":"Research Site","city":"Homburg","zip":"66421","country":"Germany","geoPoint":{"lat":49.32637,"lon":7.33867}},{"facility":"Research Site","city":"Immenhausen","zip":"34376","country":"Germany","geoPoint":{"lat":51.42763,"lon":9.48017}},{"facility":"Research Site","city":"Kassel","zip":"34125","country":"Germany","geoPoint":{"lat":51.31667,"lon":9.5}},{"facility":"Research Site","city":"Lübeck","zip":"23538","country":"Germany","geoPoint":{"lat":53.86893,"lon":10.68729}},{"facility":"Research Site","city":"Würzburg","zip":"97074","country":"Germany","geoPoint":{"lat":49.79391,"lon":9.95121}},{"facility":"Research Site","city":"Hong Kong","zip":"150001","country":"Hong Kong","geoPoint":{"lat":22.27832,"lon":114.17469}},{"facility":"Research Site","city":"Hong Kong","country":"Hong Kong","geoPoint":{"lat":22.27832,"lon":114.17469}},{"facility":"Research Site","city":"King's Park","zip":"150001","country":"Hong Kong"},{"facility":"Research Site","city":"Budapest","zip":"1083","country":"Hungary","geoPoint":{"lat":47.49835,"lon":19.04045}},{"facility":"Research Site","city":"Budapest","zip":"1121","country":"Hungary","geoPoint":{"lat":47.49835,"lon":19.04045}},{"facility":"Research Site","city":"Deszk","zip":"6772","country":"Hungary","geoPoint":{"lat":46.21802,"lon":20.24322}},{"facility":"Research Site","city":"Székesfehérvár","zip":"8000","country":"Hungary","geoPoint":{"lat":47.18995,"lon":18.41034}},{"facility":"Research Site","city":"Törökbálint","zip":"2045","country":"Hungary","geoPoint":{"lat":47.42931,"lon":18.91356}},{"facility":"Research Site","city":"Beersheba","zip":"8410101","country":"Israel","geoPoint":{"lat":31.25181,"lon":34.7913}},{"facility":"Research Site","city":"Haifa","zip":"31999","country":"Israel","geoPoint":{"lat":32.81303,"lon":34.99928}},{"facility":"Research Site","city":"Jerusalem","zip":"91120","country":"Israel","geoPoint":{"lat":31.76904,"lon":35.21633}},{"facility":"Research Site","city":"Kfar Saba","zip":"4428164","country":"Israel","geoPoint":{"lat":32.175,"lon":34.90694}},{"facility":"Research Site","city":"Petah Tikva","zip":"4941492","country":"Israel","geoPoint":{"lat":32.08707,"lon":34.88747}},{"facility":"Research Site","city":"Ramat Gan","zip":"5262000","country":"Israel","geoPoint":{"lat":32.08227,"lon":34.81065}},{"facility":"Research Site","city":"Tel Aviv","zip":"6423906","country":"Israel","geoPoint":{"lat":32.08088,"lon":34.78057}},{"facility":"Research Site","city":"Bari","zip":"70124","country":"Italy","geoPoint":{"lat":41.12066,"lon":16.86982}},{"facility":"Research Site","city":"Bergamo","zip":"24127","country":"Italy","geoPoint":{"lat":45.69601,"lon":9.66721}},{"facility":"Research Site","city":"Bologna","zip":"40138","country":"Italy","geoPoint":{"lat":44.49381,"lon":11.33875}},{"facility":"Research Site","city":"Cremona","zip":"26100","country":"Italy","geoPoint":{"lat":45.13325,"lon":10.02129}},{"facility":"Research Site","city":"Florence","zip":"50134","country":"Italy","geoPoint":{"lat":43.77925,"lon":11.24626}},{"facility":"Research Site","city":"Lucca","zip":"55100","country":"Italy","geoPoint":{"lat":43.84369,"lon":10.50447}},{"facility":"Research Site","city":"Meldola","zip":"47014","country":"Italy","geoPoint":{"lat":44.12775,"lon":12.0626}},{"facility":"Research Site","city":"Milan","zip":"20132","country":"Italy","geoPoint":{"lat":42.78235,"lon":12.59836}},{"facility":"Research Site","city":"Milan","zip":"20141","country":"Italy","geoPoint":{"lat":42.78235,"lon":12.59836}},{"facility":"Research Site","city":"Milan","zip":"20162","country":"Italy","geoPoint":{"lat":42.78235,"lon":12.59836}},{"facility":"Research Site","city":"Novara","zip":"28100","country":"Italy","geoPoint":{"lat":45.44694,"lon":8.62118}},{"facility":"Research Site","city":"Orbassano","zip":"10043","country":"Italy","geoPoint":{"lat":45.00547,"lon":7.53813}},{"facility":"Research Site","city":"Padua","zip":"35128","country":"Italy","geoPoint":{"lat":45.40797,"lon":11.88586}},{"facility":"Research Site","city":"Parma","zip":"43126","country":"Italy","geoPoint":{"lat":44.79935,"lon":10.32618}},{"facility":"Research Site","city":"Roma","zip":"00152","country":"Italy","geoPoint":{"lat":44.99364,"lon":11.10642}},{"facility":"Research Site","city":"Bunkyō City","zip":"113-8431","country":"Japan","geoPoint":{"lat":35.5331,"lon":139.4217}},{"facility":"Research Site","city":"Fukuoka","zip":"812-8582","country":"Japan","geoPoint":{"lat":33.6,"lon":130.41667}},{"facility":"Research Site","city":"Hirakata-shi","zip":"573-1191","country":"Japan"},{"facility":"Research Site","city":"Hiroshima","zip":"730-8518","country":"Japan","geoPoint":{"lat":34.4,"lon":132.45}},{"facility":"Research Site","city":"Hiroshima","zip":"734-8551","country":"Japan","geoPoint":{"lat":34.4,"lon":132.45}},{"facility":"Research Site","city":"Kanazawa","zip":"920-8641","country":"Japan","geoPoint":{"lat":36.6,"lon":136.61667}},{"facility":"Research Site","city":"Kashiwa","zip":"277-8577","country":"Japan","geoPoint":{"lat":35.86224,"lon":139.97732}},{"facility":"Research Site","city":"Kitakyushu-shi","zip":"807-8555","country":"Japan"},{"facility":"Research Site","city":"Kobe","zip":"650-0047","country":"Japan","geoPoint":{"lat":34.6913,"lon":135.183}},{"facility":"Research Site","city":"Kurume-shi","zip":"830-0011","country":"Japan"},{"facility":"Research Site","city":"Matsuyama","zip":"791-0280","country":"Japan","geoPoint":{"lat":33.83916,"lon":132.76574}},{"facility":"Research Site","city":"Nagoya","zip":"453-8511","country":"Japan","geoPoint":{"lat":35.18147,"lon":136.90641}},{"facility":"Research Site","city":"Niigata","zip":"951-8566","country":"Japan","geoPoint":{"lat":37.92259,"lon":139.04125}},{"facility":"Research Site","city":"Osakasayama-shi","zip":"589-8511","country":"Japan"},{"facility":"Research Site","city":"Sagamihara-shi","zip":"252-0375","country":"Japan"},{"facility":"Research Site","city":"Sakaishi","zip":"591-8555","country":"Japan","geoPoint":{"lat":33.41239,"lon":132.71218}},{"facility":"Research Site","city":"Sasebo-shi","zip":"857-8511","country":"Japan"},{"facility":"Research Site","city":"Sendai","zip":"980-0873","country":"Japan","geoPoint":{"lat":38.26667,"lon":140.86667}},{"facility":"Research Site","city":"Shinjuku-ku","zip":"160-0023","country":"Japan"},{"facility":"Research Site","city":"Sunto-gun","zip":"411-8777","country":"Japan"},{"facility":"Research Site","city":"Ube-shi","zip":"755-0241","country":"Japan"},{"facility":"Research Site","city":"Yokohama","zip":"240-8555","country":"Japan","geoPoint":{"lat":35.43333,"lon":139.65}},{"facility":"Research Site","city":"Yokohama","zip":"241-8515","country":"Japan","geoPoint":{"lat":35.43333,"lon":139.65}},{"facility":"Research Site","city":"Yonago-shi","zip":"683-8504","country":"Japan"},{"facility":"Research Site","city":"Amsterdam","zip":"1081 HV","country":"Netherlands","geoPoint":{"lat":52.37403,"lon":4.88969}},{"facility":"Research Site","city":"Arnhem","zip":"6815 AD","country":"Netherlands","geoPoint":{"lat":51.98,"lon":5.91111}},{"facility":"Research Site","city":"Hoofddorp","zip":"2134 TM","country":"Netherlands","geoPoint":{"lat":52.3025,"lon":4.68889}},{"facility":"Research Site","city":"Zwolle","zip":"8025 AB","country":"Netherlands","geoPoint":{"lat":52.5125,"lon":6.09444}},{"facility":"Research Site","city":"Krakow","zip":"31-202","country":"Poland","geoPoint":{"lat":50.06143,"lon":19.93658}},{"facility":"Research Site","city":"Lodz","zip":"90-302","country":"Poland","geoPoint":{"lat":51.77058,"lon":19.47395}},{"facility":"Research Site","city":"Otwock","zip":"05-400","country":"Poland","geoPoint":{"lat":52.10577,"lon":21.26129}},{"facility":"Research Site","city":"Poznan","zip":"60-569","country":"Poland","geoPoint":{"lat":52.40692,"lon":16.92993}},{"facility":"Research Site","city":"Racibórz","zip":"47-400","country":"Poland","geoPoint":{"lat":50.09195,"lon":18.21928}},{"facility":"Research Site","city":"Warsaw","zip":"02-781","country":"Poland","geoPoint":{"lat":52.22977,"lon":21.01178}},{"facility":"Research Site","city":"Wieliszew","zip":"05-135","country":"Poland","geoPoint":{"lat":52.4513,"lon":20.96827}},{"facility":"Research Site","city":"Bucharest","zip":"031422","country":"Romania","geoPoint":{"lat":44.43225,"lon":26.10626}},{"facility":"Research Site","city":"Bucharest","zip":"050098","country":"Romania","geoPoint":{"lat":44.43225,"lon":26.10626}},{"facility":"Research Site","city":"Cluj-Napoca","zip":"400015","country":"Romania","geoPoint":{"lat":46.76667,"lon":23.6}},{"facility":"Research Site","city":"Craiova","zip":"200385","country":"Romania","geoPoint":{"lat":44.31667,"lon":23.8}},{"facility":"Research Site","city":"Focşani","zip":"620165","country":"Romania","geoPoint":{"lat":45.7,"lon":27.18333}},{"facility":"Research Site","city":"Iași","zip":"700483","country":"Romania","geoPoint":{"lat":47.16667,"lon":27.6}},{"facility":"Research Site","city":"Timișoara","zip":"300210","country":"Romania","geoPoint":{"lat":45.75372,"lon":21.22571}},{"facility":"Research Site","city":"Arkhangelsk","zip":"163045","country":"Russia","geoPoint":{"lat":64.5461,"lon":40.55183}},{"facility":"Research Site","city":"Kazan'","zip":"420029","country":"Russia","geoPoint":{"lat":55.78874,"lon":49.12214}},{"facility":"Research Site","city":"Moscow","zip":"115478","country":"Russia","geoPoint":{"lat":55.75204,"lon":37.61781}},{"facility":"Research Site","city":"Moscow","zip":"143423","country":"Russia","geoPoint":{"lat":55.75204,"lon":37.61781}},{"facility":"Research Site","city":"Obninsk","zip":"249036","country":"Russia","geoPoint":{"lat":55.10993,"lon":36.61238}},{"facility":"Research Site","city":"Omsk","zip":"644013","country":"Russia","geoPoint":{"lat":54.99244,"lon":73.36859}},{"facility":"Research Site","city":"Pyatigorsk","zip":"357502","country":"Russia","geoPoint":{"lat":44.05,"lon":43.05036}},{"facility":"Research Site","city":"Rostov-on-Don","zip":"344037","country":"Russia","geoPoint":{"lat":47.21997,"lon":39.70769}},{"facility":"Research Site","city":"Ryazan","zip":"390011","country":"Russia","geoPoint":{"lat":54.62696,"lon":39.70415}},{"facility":"Research Site","city":"Saint Petersburg","zip":"194291","country":"Russia","geoPoint":{"lat":59.93863,"lon":30.31413}},{"facility":"Research Site","city":"Saint Petersburg","zip":"195271","country":"Russia","geoPoint":{"lat":59.93863,"lon":30.31413}},{"facility":"Research Site","city":"Saint Petersburg","zip":"197022","country":"Russia","geoPoint":{"lat":59.93863,"lon":30.31413}},{"facility":"Research Site","city":"Saint Petersburg","zip":"197758","country":"Russia","geoPoint":{"lat":59.93863,"lon":30.31413}},{"facility":"Research Site","city":"Saint Petersburg","zip":"198255","country":"Russia","geoPoint":{"lat":59.93863,"lon":30.31413}},{"facility":"Research Site","city":"Cheongju-si","zip":"28644","country":"South Korea","geoPoint":{"lat":36.63722,"lon":127.48972}},{"facility":"Research Site","city":"Seoul","zip":"02841","country":"South Korea","geoPoint":{"lat":37.566,"lon":126.9784}},{"facility":"Research Site","city":"Seoul","zip":"05030","country":"South Korea","geoPoint":{"lat":37.566,"lon":126.9784}},{"facility":"Research Site","city":"Seoul","zip":"138-736","country":"South Korea","geoPoint":{"lat":37.566,"lon":126.9784}},{"facility":"Research Site","city":"Seoul","zip":"156-707","country":"South Korea","geoPoint":{"lat":37.566,"lon":126.9784}},{"facility":"Research Site","city":"Seoul","zip":"6351","country":"South Korea","geoPoint":{"lat":37.566,"lon":126.9784}},{"facility":"Research Site","city":"Suwon","zip":"16247","country":"South Korea","geoPoint":{"lat":37.29111,"lon":127.00889}},{"facility":"Research Site","city":"Suwon","zip":"16499","country":"South Korea","geoPoint":{"lat":37.29111,"lon":127.00889}},{"facility":"Research Site","city":"A Coruña","zip":"15006","country":"Spain","geoPoint":{"lat":43.37135,"lon":-8.396}},{"facility":"Research Site","city":"Barcelona","zip":"08041","country":"Spain","geoPoint":{"lat":41.38879,"lon":2.15899}},{"facility":"Research Site","city":"Donostia / San Sebastian","zip":"20014","country":"Spain","geoPoint":{"lat":43.31283,"lon":-1.97499}},{"facility":"Research Site","city":"Elche","zip":"03203","country":"Spain","geoPoint":{"lat":38.26218,"lon":-0.70107}},{"facility":"Research Site","city":"Las Palmas de Gran Canaria","zip":"35016","country":"Spain","geoPoint":{"lat":28.10178,"lon":-15.41573}},{"facility":"Research Site","city":"Madrid","zip":"08035","country":"Spain","geoPoint":{"lat":40.4165,"lon":-3.70256}},{"facility":"Research Site","city":"Madrid","zip":"28007","country":"Spain","geoPoint":{"lat":40.4165,"lon":-3.70256}},{"facility":"Research Site","city":"Madrid","zip":"28040","country":"Spain","geoPoint":{"lat":40.4165,"lon":-3.70256}},{"facility":"Research Site","city":"Madrid","zip":"28046","country":"Spain","geoPoint":{"lat":40.4165,"lon":-3.70256}},{"facility":"Research Site","city":"Majadahonda","zip":"28222","country":"Spain","geoPoint":{"lat":40.47353,"lon":-3.87182}},{"facility":"Research Site","city":"Málaga","zip":"29010","country":"Spain","geoPoint":{"lat":36.72016,"lon":-4.42034}},{"facility":"Research Site","city":"Valencia","zip":"46010","country":"Spain","geoPoint":{"lat":39.47391,"lon":-0.37966}},{"facility":"Research Site","city":"Valencia","zip":"46026","country":"Spain","geoPoint":{"lat":39.47391,"lon":-0.37966}},{"facility":"Research Site","city":"Zaragoza","zip":"50009","country":"Spain","geoPoint":{"lat":41.65606,"lon":-0.87734}},{"facility":"Research Site","city":"Linköping","zip":"581 85","country":"Sweden","geoPoint":{"lat":58.41086,"lon":15.62157}},{"facility":"Research Site","city":"Changhua","zip":"50006","country":"Taiwan","geoPoint":{"lat":24.0692,"lon":120.5512}},{"facility":"Research Site","city":"Putzu City","zip":"0613","country":"Taiwan"},{"facility":"Research Site","city":"Taichung","zip":"402","country":"Taiwan","geoPoint":{"lat":24.1469,"lon":120.6839}},{"facility":"Research Site","city":"Taichung","zip":"40705","country":"Taiwan","geoPoint":{"lat":24.1469,"lon":120.6839}},{"facility":"Research Site","city":"Tainan","zip":"70403","country":"Taiwan","geoPoint":{"lat":22.99083,"lon":120.21333}},{"facility":"Research Site","city":"Tainan","zip":"73657","country":"Taiwan","geoPoint":{"lat":22.99083,"lon":120.21333}},{"facility":"Research Site","city":"Taipei","zip":"10002","country":"Taiwan","geoPoint":{"lat":25.05306,"lon":121.52639}},{"facility":"Research Site","city":"Taipei","zip":"112","country":"Taiwan","geoPoint":{"lat":25.05306,"lon":121.52639}},{"facility":"Research Site","city":"Taoyuan District","zip":"333","country":"Taiwan","geoPoint":{"lat":24.9896,"lon":121.3187}},{"facility":"Research Site","city":"Bangkok","zip":"10330","country":"Thailand","geoPoint":{"lat":13.75398,"lon":100.50144}},{"facility":"Research Site","city":"Bangkok","zip":"10700","country":"Thailand","geoPoint":{"lat":13.75398,"lon":100.50144}},{"facility":"Research Site","city":"Chiang Rai","zip":"57000","country":"Thailand","geoPoint":{"lat":19.90858,"lon":99.8325}},{"facility":"Research Site","city":"Khon Kaen","zip":"40002","country":"Thailand","geoPoint":{"lat":16.44671,"lon":102.833}},{"facility":"Research Site","city":"Mueang","zip":"50200","country":"Thailand"},{"facility":"Research Site","city":"Phitsanulok","zip":"65000","country":"Thailand","geoPoint":{"lat":16.82481,"lon":100.25858}},{"facility":"Research Site","city":"Songkhla","zip":"90110","country":"Thailand","geoPoint":{"lat":7.19882,"lon":100.5951}},{"facility":"Research Site","city":"Ankara","zip":"06280","country":"Turkey (Türkiye)","geoPoint":{"lat":39.91987,"lon":32.85427}},{"facility":"Research Site","city":"Ankara","zip":"6500","country":"Turkey (Türkiye)","geoPoint":{"lat":39.91987,"lon":32.85427}},{"facility":"Research Site","city":"Bursa","zip":"16059","country":"Turkey (Türkiye)","geoPoint":{"lat":40.19559,"lon":29.06013}},{"facility":"Research Site","city":"Istanbul","zip":"34069","country":"Turkey (Türkiye)","geoPoint":{"lat":41.01384,"lon":28.94966}},{"facility":"Research Site","city":"Istanbul","zip":"34093","country":"Turkey (Türkiye)","geoPoint":{"lat":41.01384,"lon":28.94966}},{"facility":"Research Site","city":"Istanbul","zip":"34098","country":"Turkey (Türkiye)","geoPoint":{"lat":41.01384,"lon":28.94966}},{"facility":"Research Site","city":"Istanbul","zip":"34722","country":"Turkey (Türkiye)","geoPoint":{"lat":41.01384,"lon":28.94966}},{"facility":"Research Site","city":"Izmir","zip":"35100","country":"Turkey (Türkiye)","geoPoint":{"lat":38.41273,"lon":27.13838}},{"facility":"Research Site","city":"Dnipro","zip":"49102","country":"Ukraine","geoPoint":{"lat":48.46664,"lon":35.04066}},{"facility":"Research Site","city":"Lviv","zip":"79031","country":"Ukraine","geoPoint":{"lat":49.83826,"lon":24.02324}},{"facility":"Research Site","city":"Sumy","zip":"40022","country":"Ukraine","geoPoint":{"lat":50.91741,"lon":34.79906}},{"facility":"Research Site","city":"Uzhhorod","zip":"88000","country":"Ukraine","geoPoint":{"lat":48.6242,"lon":22.2947}},{"facility":"Research Site","city":"Vinnytsia","zip":"21029","country":"Ukraine","geoPoint":{"lat":49.2322,"lon":28.46871}},{"facility":"Research Site","city":"Zaporizhzhia","zip":"69040","country":"Ukraine","geoPoint":{"lat":47.15214,"lon":35.74246}},{"facility":"Research Site","city":"Hanoi","zip":"100000","country":"Vietnam","geoPoint":{"lat":21.0245,"lon":105.84117}},{"facility":"Research Site","city":"Hanoi","zip":"10000","country":"Vietnam","geoPoint":{"lat":21.0245,"lon":105.84117}},{"facility":"Research Site","city":"Ho Chi Minh City","zip":"70000","country":"Vietnam","geoPoint":{"lat":10.82302,"lon":106.62965}}]},"referencesModule":{"references":[{"pmid":"33596365","type":"RESULT","citation":"Herbst RS, Wu YL, Tsuboi M. Osimertinib in EGFR-Mutated Lung Cancer. Reply. N Engl J Med. 2021 Feb 18;384(7):675-676. doi: 10.1056/NEJMc2033951. No abstract available."},{"pmid":"40311309","type":"DERIVED","citation":"Murat-Onana ML, Ramalingam SS, Janne PA, Gray JE, Ahn MJ, John T, Yatabe Y, Huang X, Rukazenkov Y, Javey M, Brown H, Li-Sucholeiki X. EGFR mutation testing across the osimertinib clinical program. Lung Cancer. 2025 Jun;204:108549. doi: 10.1016/j.lungcan.2025.108549. Epub 2025 Apr 18."},{"pmid":"40097663","type":"DERIVED","citation":"Herbst RS, John T, Grohe C, Goldman JW, Kato T, Laktionov K, Bonanno L, Tiseo M, Majem M, Domine M, Ahn MJ, Kowalski DM, Perol M, Sriuranpong V, Ozguroglu M, Bhetariya P, Markovets A, Rukazenkov Y, Muldoon C, Robichaux J, Hartmaier R, Tsuboi M, Wu YL. Molecular residual disease analysis of adjuvant osimertinib in resected EGFR-mutated stage IB-IIIA non-small-cell lung cancer. Nat Med. 2025 Jun;31(6):1958-1968. doi: 10.1038/s41591-025-03577-y. Epub 2025 Mar 17."},{"pmid":"37390376","type":"DERIVED","citation":"Wu D, Li GF. Improving Report of the ADAURA Trial by Distinguishing Treatment-Related Adverse Events From Treatment-Emergent Adverse Events and Assessing Independence of Censoring in Final Disease-Free Survival Analyses. J Clin Oncol. 2023 Sep 10;41(26):4317-4318. doi: 10.1200/JCO.23.00604. Epub 2023 Jun 30. No abstract available."},{"pmid":"37272535","type":"DERIVED","citation":"Tsuboi M, Herbst RS, John T, Kato T, Majem M, Grohe C, Wang J, Goldman JW, Lu S, Su WC, de Marinis F, Shepherd FA, Lee KH, Le NT, Dechaphunkul A, Kowalski D, Poole L, Bolanos A, Rukazenkov Y, Wu YL; ADAURA Investigators. Overall Survival with Osimertinib in Resected EGFR-Mutated NSCLC. N Engl J Med. 2023 Jul 13;389(2):137-147. doi: 10.1056/NEJMoa2304594. Epub 2023 Jun 4."},{"pmid":"37236398","type":"DERIVED","citation":"John T, Grohe C, Goldman JW, Shepherd FA, de Marinis F, Kato T, Wang Q, Su WC, Choi JH, Sriuranpong V, Melotti B, Fidler MJ, Chen J, Albayaty M, Stachowiak M, Taggart S, Wu YL, Tsuboi M, Herbst RS, Majem M. Three-Year Safety, Tolerability, and Health-Related Quality of Life Outcomes of Adjuvant Osimertinib in Patients With Resected Stage IB to IIIA EGFR-Mutated NSCLC: Updated Analysis From the Phase 3 ADAURA Trial. J Thorac Oncol. 2023 Sep;18(9):1209-1221. doi: 10.1016/j.jtho.2023.05.015. Epub 2023 May 24."},{"pmid":"36720083","type":"DERIVED","citation":"Herbst RS, Wu YL, John T, Grohe C, Majem M, Wang J, Kato T, Goldman JW, Laktionov K, Kim SW, Yu CJ, Vu HV, Lu S, Lee KY, Mukhametshina G, Akewanlop C, de Marinis F, Bonanno L, Domine M, Shepherd FA, Urban D, Huang X, Bolanos A, Stachowiak M, Tsuboi M. Adjuvant Osimertinib for Resected EGFR-Mutated Stage IB-IIIA Non-Small-Cell Lung Cancer: Updated Results From the Phase III Randomized ADAURA Trial. J Clin Oncol. 2023 Apr 1;41(10):1830-1840. doi: 10.1200/JCO.22.02186. Epub 2023 Jan 31."},{"pmid":"36534268","type":"DERIVED","citation":"John T, Majem M, Legg D, Goldman J. Current and Future Perspectives of Health-Related Quality of Life in Resectable EGFR-Mutated Non-Small Cell Lung Cancer: A Podcast. Target Oncol. 2023 Jan;18(1):1-8. doi: 10.1007/s11523-022-00927-5. Epub 2022 Dec 19. No abstract available."},{"pmid":"35012927","type":"DERIVED","citation":"Majem M, Goldman JW, John T, Grohe C, Laktionov K, Kim SW, Kato T, Vu HV, Lu S, Li S, Lee KY, Akewanlop C, Yu CJ, de Marinis F, Bonanno L, Domine M, Shepherd FA, Atagi S, Zeng L, Kulkarni D, Medic N, Tsuboi M, Herbst RS, Wu YL. Health-Related Quality of Life Outcomes in Patients with Resected Epidermal Growth Factor Receptor-Mutated Non-Small Cell Lung Cancer Who Received Adjuvant Osimertinib in the Phase III ADAURA Trial. Clin Cancer Res. 2022 Jun 1;28(11):2286-2296. doi: 10.1158/1078-0432.CCR-21-3530."},{"pmid":"34740861","type":"DERIVED","citation":"Wu YL, John T, Grohe C, Majem M, Goldman JW, Kim SW, Kato T, Laktionov K, Vu HV, Wang Z, Lu S, Lee KY, Akewanlop C, Yu CJ, de Marinis F, Bonanno L, Domine M, Shepherd FA, Zeng L, Atasoy A, Herbst RS, Tsuboi M. Postoperative Chemotherapy Use and Outcomes From ADAURA: Osimertinib as Adjuvant Therapy for Resected EGFR-Mutated NSCLC. J Thorac Oncol. 2022 Mar;17(3):423-433. doi: 10.1016/j.jtho.2021.10.014. Epub 2021 Nov 2."},{"pmid":"34723634","type":"DERIVED","citation":"Wu YL, Tsuboi M, John T, Grohe C, Majem M, Goldman JW, Laktionov K, Kim SW, Kato T, Vu HV, Lu S, Lee KY, Akewanlop C, Yu CJ, de Marinis F, Bonanno L, Domine M, Shepherd FA, Zeng L, Hodge R, Atasoy A, Rukazenkov Y, Herbst RS. A plain language summary of results from the ADAURA study: osimertinib after surgery for patients who have early-stage EGFR-mutated non-small cell lung cancer. Future Oncol. 2021 Dec 1;17(35):4827-4835. doi: 10.2217/fon-2021-0752. Epub 2021 Nov 1."},{"pmid":"32955177","type":"DERIVED","citation":"Wu YL, Tsuboi M, He J, John T, Grohe C, Majem M, Goldman JW, Laktionov K, Kim SW, Kato T, Vu HV, Lu S, Lee KY, Akewanlop C, Yu CJ, de Marinis F, Bonanno L, Domine M, Shepherd FA, Zeng L, Hodge R, Atasoy A, Rukazenkov Y, Herbst RS; ADAURA Investigators. Osimertinib in Resected EGFR-Mutated Non-Small-Cell Lung Cancer. N Engl J Med. 2020 Oct 29;383(18):1711-1723. doi: 10.1056/NEJMoa2027071. Epub 2020 Sep 19."},{"pmid":"29789220","type":"DERIVED","citation":"Wu YL, Herbst RS, Mann H, Rukazenkov Y, Marotti M, Tsuboi M. ADAURA: Phase III, Double-blind, Randomized Study of Osimertinib Versus Placebo in EGFR Mutation-positive Early-stage NSCLC After Complete Surgical Resection. Clin Lung Cancer. 2018 Jul;19(4):e533-e536. doi: 10.1016/j.cllc.2018.04.004. Epub 2018 May 1."}],"seeAlsoLinks":[{"label":"Cancer","url":"http://www.nlm.nih.gov/medlineplus/cancer.html"},{"label":"Lung Cancer","url":"http://www.nlm.nih.gov/medlineplus/lungcancer.html"},{"label":"EGFR mutation","url":"http://vsearch.nlm.nih.gov/vivisimo/cgi-bin/query-meta?v%3Aproject=medlineplus&query=EGFR+mutation&x=20&y=19"},{"label":"Stage IB non-small cell lung cancer","url":"http://vsearch.nlm.nih.gov/vivisimo/cgi-bin/query-meta?v%3Aproject=medlineplus&v%3Asources=medlineplus-bundle&query=stage+IB+non-small+cell+lung+cancer"},{"label":"Stage II non-small cell lung cancer","url":"http://vsearch.nlm.nih.gov/vivisimo/cgi-bin/query-meta?v%3Aproject=medlineplus&v%3Asources=medlineplus-bundle&query=Stage+II+non-small+cell+lung+cancer"},{"label":"Stage IIIA non-small cell lung cancer","url":"http://vsearch.nlm.nih.gov/vivisimo/cgi-bin/query-meta?v%3Aproject=medlineplus&v%3Asources=medlineplus-bundle&query=Stage+IIIA+non-small+cell+lung+cancer"},{"label":"Adjuvant chemotherapy in non-small cancer","url":"http://vsearch.nlm.nih.gov/vivisimo/cgi-bin/query-meta?v%3Aproject=medlineplus&v%3Asources=medlineplus-bundle&query=adjuvant+chemotherapy+in+non-small+cancer"},{"label":"Complete tumour resection in non-small cancer","url":"http://vsearch.nlm.nih.gov/vivisimo/cgi-bin/query-meta?v%3Aproject=medlineplus&v%3Asources=medlineplus-bundle&query=complete+tumour+resection+in+non-small+cancer"},{"label":"EGFR sensitivity","url":"http://vsearch.nlm.nih.gov/vivisimo/cgi-bin/query-meta?v%3Aproject=medlineplus&v%3Asources=medlineplus-bundle&query=EGFR+sensitivity"},{"label":"EGFR inhibitors","url":"http://vsearch.nlm.nih.gov/vivisimo/cgi-bin/query-meta?v%3Aproject=medlineplus&v%3Asources=medlineplus-bundle&query=EGFR+inhibitors"},{"label":"FDA Drug and Device Resources","url":"http://clinicaltrials.gov/ct2/info/fdalinks"},{"label":"Redacted SAP","url":"https://filehosting-v2.pharmacm.com/api/Attachment/Download?tenantId=80217111&parentIdentifier=D5164C00001&attachmentIdentifier=bb565084-81da-44b1-b70c-083b742cd562&fileName=SAP_redacted_D5164C00001.pdf&versionIdentifier="},{"label":"CSR Synopsis","url":"https://filehosting-v2.pharmacm.com/api/Attachment/Download?tenantId=80217111&amp;parentIdentifier=D5164C00001&amp;attachmentIdentifier=e85e833e-fe2c-45c1-a278-7c9b023fd78e&amp;fileName=D5164C00001_CSR-Synopsis.pdf&amp;versionIdentifier="},{"label":"CSR Synopsis add 1","url":"https://filehosting-v2.pharmacm.com/api/Attachment/Download?tenantId=80217111&amp;parentIdentifier=D5164C00001&amp;attachmentIdentifier=fe73ecf5-8e7e-4f5e-9118-e6a825cdffda&amp;fileName=D5164C00001-CSR-addendum1-Synopsis.pdf&amp;versionIdentifier="},{"label":"CSR Synopsis add 2","url":"https://filehosting-v2.pharmacm.com/api/Attachment/Download?tenantId=80217111&amp;parentIdentifier=D5164C00001&amp;attachmentIdentifier=b88104d0-90ec-4a97-a0fe-f01222d612af&amp;fileName=D5164C00001-CSR-addendum-2-Synopsis.pdf&amp;versionIdentifier="}]},"ipdSharingStatementModule":{"ipdSharing":"YES","description":"Qualified researchers can request access to anonymized individual patient-level data from AstraZeneca group of companies sponsored clinical trials via the request portal. All request will be evaluated as per the AZ disclosure commitment:\n\nhttps://astrazenecagrouptrials.pharmacm.com/ST/Submission/Disclosure. Yes, indicates that AZ are accepting requests for IPD, but this does not mean all requests will be shared.","infoTypes":["STUDY_PROTOCOL","SAP"],"timeFrame":"AstraZeneca will meet or exceed data availability as per the commitments made to the EFPIA Pharma Data Sharing Principles. For details of our timelines, please rerefer to our disclosure commitment at https://astrazenecagrouptrials.pharmacm.com/ST/Submission/Disclosure","accessCriteria":"When a request has been approved AstraZeneca will provide access to the deidentified individual patient-level data in an approved sponsored tool . Signed Data Sharing Agreement (non-negotiable contract for data accessors) must be in place before accessing requested information. Additionally, all users will need to accept the terms and conditions of the SAS MSE to gain access. For additional details, please review the Disclosure Statements at https://astrazenecagrouptrials.pharmacm.com/ST/Submission/Disclosure","url":"https://astrazenecagroup-dt.pharmacm.com/DT/Home"}},"resultsSection":{"participantFlowModule":{"preAssignmentDetails":"During the 28 day screening period, participants were enrolled based on the presence of at least 1 of the 2 most frequent Epidermal growth factor receptor (EGFR) mutations in their tumor. At the time of enrolment, all participant were required to have central confirmation of EGFR mutation status per eligibility criteria (Exon 19 deletion or L858R mutation).","recruitmentDetails":"A total of 682 Patients were randomized to treatment at 245 Centers in 25 Countries.","groups":[{"id":"FG000","title":"AZD9291","description":"Taken once daily"},{"id":"FG001","title":"Placebo","description":"Taken once daily"}],"periods":[{"title":"Overall Study","milestones":[{"type":"STARTED","achievements":[{"groupId":"FG000","numSubjects":"339"},{"groupId":"FG001","numSubjects":"343"}]},{"type":"Received Treatment","achievements":[{"groupId":"FG000","numSubjects":"337"},{"groupId":"FG001","numSubjects":"343"}]},{"type":"COMPLETED","comment":"(Study)","achievements":[{"groupId":"FG000","numSubjects":"261"},{"groupId":"FG001","numSubjects":"234"}]},{"type":"NOT COMPLETED","achievements":[{"groupId":"FG000","numSubjects":"78"},{"groupId":"FG001","numSubjects":"109"}]}],"dropWithdraws":[{"type":"Lost to Follow-up","reasons":[{"groupId":"FG000","numSubjects":"6"},{"groupId":"FG001","numSubjects":"4"}]},{"type":"Withdrawal by Subject","reasons":[{"groupId":"FG000","numSubjects":"24"},{"groupId":"FG001","numSubjects":"21"}]},{"type":"Death","reasons":[{"groupId":"FG000","numSubjects":"42"},{"groupId":"FG001","numSubjects":"82"}]},{"type":"Ongoing study at data cut-off","reasons":[{"groupId":"FG000","numSubjects":"3"},{"groupId":"FG001","numSubjects":"2"}]},{"type":"Without specified reason","reasons":[{"groupId":"FG000","numSubjects":"3"},{"groupId":"FG001","numSubjects":"0"}]}]}]},"baselineCharacteristicsModule":{"groups":[{"id":"BG000","title":"AZD9291","description":"Taken once daily"},{"id":"BG001","title":"Placebo","description":"Taken once daily"},{"id":"BG002","title":"Total","description":"Total of all reporting groups"}],"denoms":[{"units":"Participants","counts":[{"groupId":"BG000","value":"339"},{"groupId":"BG001","value":"343"},{"groupId":"BG002","value":"682"}]}],"measures":[{"title":"Age, Continuous","paramType":"MEAN","dispersionType":"STANDARD_DEVIATION","unitOfMeasure":"Years","classes":[{"categories":[{"measurements":[{"groupId":"BG000","value":"62.5","spread":"10.3"},{"groupId":"BG001","value":"61.6","spread":"10.5"},{"groupId":"BG002","value":"62.1","spread":"10.4"}]}]}]},{"title":"Sex: Female, Male","paramType":"COUNT_OF_PARTICIPANTS","unitOfMeasure":"Participants","classes":[{"categories":[{"title":"Female","measurements":[{"groupId":"BG000","value":"230"},{"groupId":"BG001","value":"248"},{"groupId":"BG002","value":"478"}]},{"title":"Male","measurements":[{"groupId":"BG000","value":"109"},{"groupId":"BG001","value":"95"},{"groupId":"BG002","value":"204"}]}]}]},{"title":"Race/Ethnicity, Customized","paramType":"NUMBER","unitOfMeasure":"Participants","classes":[{"title":"ASIAN (OTHER THAN CHINESE AND JAPANESE)","categories":[{"measurements":[{"groupId":"BG000","value":"77"},{"groupId":"BG001","value":"65"},{"groupId":"BG002","value":"142"}]}]},{"title":"CHINESE","categories":[{"measurements":[{"groupId":"BG000","value":"95"},{"groupId":"BG001","value":"100"},{"groupId":"BG002","value":"195"}]}]},{"title":"HISPANIC OR LATINO","categories":[{"measurements":[{"groupId":"BG000","value":"12"},{"groupId":"BG001","value":"9"},{"groupId":"BG002","value":"21"}]}]},{"title":"JAPANESE","categories":[{"measurements":[{"groupId":"BG000","value":"47"},{"groupId":"BG001","value":"53"},{"groupId":"BG002","value":"100"}]}]},{"title":"OTHER","categories":[{"measurements":[{"groupId":"BG000","value":"108"},{"groupId":"BG001","value":"116"},{"groupId":"BG002","value":"224"}]}]}]},{"title":"Race/Ethnicity, Customized","paramType":"NUMBER","unitOfMeasure":"Participants","classes":[{"title":"AMERICAN INDIAN OR ALASKA NATIVE","categories":[{"measurements":[{"groupId":"BG000","value":"0"},{"groupId":"BG001","value":"0"},{"groupId":"BG002","value":"0"}]}]},{"title":"ASIAN","categories":[{"measurements":[{"groupId":"BG000","value":"216"},{"groupId":"BG001","value":"218"},{"groupId":"BG002","value":"434"}]}]},{"title":"BLACK OR AFRICAN AMERICAN","categories":[{"measurements":[{"groupId":"BG000","value":"0"},{"groupId":"BG001","value":"0"},{"groupId":"BG002","value":"0"}]}]},{"title":"UNKNOWN OR NOT REPORTED","categories":[{"measurements":[{"groupId":"BG000","value":"0"},{"groupId":"BG001","value":"1"},{"groupId":"BG002","value":"1"}]}]},{"title":"NATIVE HAWAIIAN OR OTHER PACIFIC ISLANDER","categories":[{"measurements":[{"groupId":"BG000","value":"0"},{"groupId":"BG001","value":"0"},{"groupId":"BG002","value":"0"}]}]},{"title":"OTHER","categories":[{"measurements":[{"groupId":"BG000","value":"1"},{"groupId":"BG001","value":"2"},{"groupId":"BG002","value":"3"}]}]},{"title":"WHITE","categories":[{"measurements":[{"groupId":"BG000","value":"122"},{"groupId":"BG001","value":"122"},{"groupId":"BG002","value":"244"}]}]}]},{"title":"Region of Enrollment","paramType":"NUMBER","unitOfMeasure":"Participants","classes":[{"title":"Australia","categories":[{"measurements":[{"groupId":"BG000","value":"7"},{"groupId":"BG001","value":"9"},{"groupId":"BG002","value":"16"}]}]},{"title":"Belgium","categories":[{"measurements":[{"groupId":"BG000","value":"0"},{"groupId":"BG001","value":"1"},{"groupId":"BG002","value":"1"}]}]},{"title":"Brazil","categories":[{"measurements":[{"groupId":"BG000","value":"8"},{"groupId":"BG001","value":"6"},{"groupId":"BG002","value":"14"}]}]},{"title":"Canada","categories":[{"measurements":[{"groupId":"BG000","value":"1"},{"groupId":"BG001","value":"3"},{"groupId":"BG002","value":"4"}]}]},{"title":"China","categories":[{"measurements":[{"groupId":"BG000","value":"77"},{"groupId":"BG001","value":"82"},{"groupId":"BG002","value":"159"}]}]},{"title":"Germany","categories":[{"measurements":[{"groupId":"BG000","value":"7"},{"groupId":"BG001","value":"5"},{"groupId":"BG002","value":"12"}]}]},{"title":"Spain","categories":[{"measurements":[{"groupId":"BG000","value":"14"},{"groupId":"BG001","value":"16"},{"groupId":"BG002","value":"30"}]}]},{"title":"France","categories":[{"measurements":[{"groupId":"BG000","value":"4"},{"groupId":"BG001","value":"5"},{"groupId":"BG002","value":"9"}]}]},{"title":"Hong Kong, S.A.R., China","categories":[{"measurements":[{"groupId":"BG000","value":"4"},{"groupId":"BG001","value":"4"},{"groupId":"BG002","value":"8"}]}]},{"title":"Hungary","categories":[{"measurements":[{"groupId":"BG000","value":"1"},{"groupId":"BG001","value":"1"},{"groupId":"BG002","value":"2"}]}]},{"title":"Israel","categories":[{"measurements":[{"groupId":"BG000","value":"9"},{"groupId":"BG001","value":"3"},{"groupId":"BG002","value":"12"}]}]},{"title":"Italy","categories":[{"measurements":[{"groupId":"BG000","value":"15"},{"groupId":"BG001","value":"17"},{"groupId":"BG002","value":"32"}]}]},{"title":"Japan","categories":[{"measurements":[{"groupId":"BG000","value":"46"},{"groupId":"BG001","value":"53"},{"groupId":"BG002","value":"99"}]}]},{"title":"Poland","categories":[{"measurements":[{"groupId":"BG000","value":"4"},{"groupId":"BG001","value":"9"},{"groupId":"BG002","value":"13"}]}]},{"title":"Romania","categories":[{"measurements":[{"groupId":"BG000","value":"2"},{"groupId":"BG001","value":"2"},{"groupId":"BG002","value":"4"}]}]},{"title":"Russia","categories":[{"measurements":[{"groupId":"BG000","value":"43"},{"groupId":"BG001","value":"39"},{"groupId":"BG002","value":"82"}]}]},{"title":"Sweden","categories":[{"measurements":[{"groupId":"BG000","value":"1"},{"groupId":"BG001","value":"1"},{"groupId":"BG002","value":"2"}]}]},{"title":"Thailand","categories":[{"measurements":[{"groupId":"BG000","value":"16"},{"groupId":"BG001","value":"17"},{"groupId":"BG002","value":"33"}]}]},{"title":"Turkey","categories":[{"measurements":[{"groupId":"BG000","value":"3"},{"groupId":"BG001","value":"8"},{"groupId":"BG002","value":"11"}]}]},{"title":"Taiwan, China","categories":[{"measurements":[{"groupId":"BG000","value":"24"},{"groupId":"BG001","value":"22"},{"groupId":"BG002","value":"46"}]}]},{"title":"Ukraine","categories":[{"measurements":[{"groupId":"BG000","value":"2"},{"groupId":"BG001","value":"1"},{"groupId":"BG002","value":"3"}]}]},{"title":"United States","categories":[{"measurements":[{"groupId":"BG000","value":"13"},{"groupId":"BG001","value":"8"},{"groupId":"BG002","value":"21"}]}]},{"title":"Viet Nam","categories":[{"measurements":[{"groupId":"BG000","value":"11"},{"groupId":"BG001","value":"13"},{"groupId":"BG002","value":"24"}]}]},{"title":"Korea, Republic Of","categories":[{"measurements":[{"groupId":"BG000","value":"27"},{"groupId":"BG001","value":"18"},{"groupId":"BG002","value":"45"}]}]}]}]},"outcomeMeasuresModule":{"outcomeMeasures":[{"type":"PRIMARY","title":"Assess the Efficacy of AZD9291 Compared to Placebo as Measured by Disease Free Survival (DFS).","description":"Defined as the time from the date of randomization until the date of disease recurrence or death (by any cause in the absence of recurrence).","populationDescription":"Full Analysis Set (FAS) stage IIA-IIIA patients","reportingStatus":"POSTED","paramType":"MEDIAN","dispersionType":"95% Confidence Interval","unitOfMeasure":"Months","timeFrame":"Up to approximately 5 years after the first patient is randomized (maximum follow up of 70 months)","groups":[{"id":"OG000","title":"AZD9291 80mg Tablet","description":"Taken once daily"},{"id":"OG001","title":"Placebo Tablet","description":"Taken once daily"}],"denoms":[{"units":"Participants","counts":[{"groupId":"OG000","value":"233"},{"groupId":"OG001","value":"237"}]}],"classes":[{"categories":[{"measurements":[{"groupId":"OG000","value":"65.8","lowerLimit":"54.4","upperLimit":"NA","comment":"Insufficient DFS events to estimate upper 95% confidence interval (Kaplan Meier analysis)"},{"groupId":"OG001","value":"21.9","lowerLimit":"16.6","upperLimit":"27.5"}]}]}],"analyses":[{"groupIds":["OG000","OG001"],"nonInferiorityType":"SUPERIORITY","pValue":"<0.0001","statisticalMethod":"Log Rank","statisticalComment":"Determined using a log rank test stratified by stage, race and mutation type.","paramType":"Hazard Ratio (HR)","paramValue":"0.23","ciPctValue":"95","ciNumSides":"TWO_SIDED","ciLowerLimit":"0.18","ciUpperLimit":"0.30","estimateComment":"A hazard ratio \\<1 favours AZD9291."}]},{"type":"PRIMARY","title":"Assess the Efficacy of AZD9291 Compared to Placebo as Measured by Disease Free Survival (DFS).","description":"Defined as the time from the date of randomization until the date of disease recurrence or death (by any cause in the absence of recurrence).","populationDescription":"Full Analysis Set (FAS) stage IB-IIIA patients","reportingStatus":"POSTED","paramType":"MEDIAN","dispersionType":"95% Confidence Interval","unitOfMeasure":"Months","timeFrame":"Up to approximately 5 years after the first patient is randomized (maximum follow up of 70 months)","groups":[{"id":"OG000","title":"AZD9291 80mg Tablet","description":"Taken once daily"},{"id":"OG001","title":"Placebo Tablet","description":"Taken once daily"}],"denoms":[{"units":"Participants","counts":[{"groupId":"OG000","value":"339"},{"groupId":"OG001","value":"343"}]}],"classes":[{"categories":[{"measurements":[{"groupId":"OG000","value":"65.8","lowerLimit":"61.7","upperLimit":"NA","comment":"Insufficient DFS events to estimate upper 95% confidence interval (Kaplan Meier analysis)"},{"groupId":"OG001","value":"28.1","lowerLimit":"22.1","upperLimit":"35.0"}]}]}],"analyses":[{"groupIds":["OG000","OG001"],"nonInferiorityType":"SUPERIORITY","pValue":"<0.0001","statisticalMethod":"Log Rank","statisticalComment":"Determined using a log rank test stratified by stage, race and mutation type.","paramType":"Hazard Ratio (HR)","paramValue":"0.27","ciPctValue":"95","ciNumSides":"TWO_SIDED","ciLowerLimit":"0.21","ciUpperLimit":"0.34","estimateComment":"A hazard ratio \\<1 favours AZD9291."}]},{"type":"SECONDARY","title":"Disease Free Survival (DFS) Rate at 2, 3 and 5 Years","description":"Defined as the percentage of patients alive and disease free at 2, 3 and 5 years, respectively, estimated from Kaplan Meier plots of the primary endpoint of DFS.","populationDescription":"Full analysis set (FAS) stage IIA-IIIA patients","reportingStatus":"POSTED","paramType":"NUMBER","dispersionType":"95% Confidence Interval","unitOfMeasure":"Percentage of participants","timeFrame":"Up to approximately 5 years after the first patient is randomized (maximum follow up of 70 months). DFS rate at 2 years (%), 3 years (%) and 5 years (%) are presented.","groups":[{"id":"OG000","title":"AZD9291 80mg Tablet","description":"Taken once daily"},{"id":"OG001","title":"Placebo Tablet","description":"Taken once daily"}],"denoms":[{"units":"Participants","counts":[{"groupId":"OG000","value":"233"},{"groupId":"OG001","value":"237"}]}],"classes":[{"title":"DFS rate at 2 years (%)","categories":[{"measurements":[{"groupId":"OG000","value":"90.0","lowerLimit":"85.2","upperLimit":"93.3"},{"groupId":"OG001","value":"46.1","lowerLimit":"39.6","upperLimit":"52.4"}]}]},{"title":"DFS rate at 3 years (%)","categories":[{"measurements":[{"groupId":"OG000","value":"83.5","lowerLimit":"77.8","upperLimit":"87.8"},{"groupId":"OG001","value":"33.8","lowerLimit":"27.8","upperLimit":"40.0"}]}]},{"title":"DFS rate at 5 years (%)","categories":[{"measurements":[{"groupId":"OG000","value":"53.0","lowerLimit":"43.0","upperLimit":"62.1"},{"groupId":"OG001","value":"24.9","lowerLimit":"19.0","upperLimit":"31.2"}]}]}]},{"type":"SECONDARY","title":"Disease Free Survival (DFS) Rate at 2, 3 and 5 Years","description":"Defined as the percentage of patients alive and disease free at 2, 3 and 5 years, respectively, estimated from Kaplan Meier plots of the primary endpoint of DFS.","populationDescription":"Full analysis set (FAS) stage IB-IIIA patients","reportingStatus":"POSTED","paramType":"NUMBER","dispersionType":"95% Confidence Interval","unitOfMeasure":"Percentage of participants","timeFrame":"Up to approximately 5 years after the first patient is randomized (maximum follow up of 70 months). DFS rate at 2 years (%), 3 years (%) and 5 years (%) are presented.","groups":[{"id":"OG000","title":"AZD9291 80mg Tablet","description":"Taken once daily"},{"id":"OG001","title":"Placebo Tablet","description":"Taken once daily"}],"denoms":[{"units":"Participants","counts":[{"groupId":"OG000","value":"339"},{"groupId":"OG001","value":"343"}]}],"classes":[{"title":"DFS rate at 2 years (%)","categories":[{"measurements":[{"groupId":"OG000","value":"90.1","lowerLimit":"86.2","upperLimit":"92.9"},{"groupId":"OG001","value":"54.5","lowerLimit":"49.0","upperLimit":"59.7"}]}]},{"title":"DFS rate at 3 years (%)","categories":[{"measurements":[{"groupId":"OG000","value":"84.5","lowerLimit":"79.9","upperLimit":"88.1"},{"groupId":"OG001","value":"44.4","lowerLimit":"39.0","upperLimit":"49.7"}]}]},{"title":"DFS rate at 5 years (%)","categories":[{"measurements":[{"groupId":"OG000","value":"60.9","lowerLimit":"53.1","upperLimit":"67.8"},{"groupId":"OG001","value":"33.6","lowerLimit":"28.0","upperLimit":"39.2"}]}]}]},{"type":"SECONDARY","title":"Overall Survival (OS)","description":"Defined as the time from the date of randomization until date of death due to any cause.","populationDescription":"Full Analysis Set (FAS) stage IIA-IIIA patients","reportingStatus":"POSTED","paramType":"MEDIAN","dispersionType":"95% Confidence Interval","unitOfMeasure":"Months","timeFrame":"Up to approximately 7 years after the first patient is randomized (maximum follow up of 86 months)","groups":[{"id":"OG000","title":"AZD9291 80mg Tablet","description":"Taken once daily"},{"id":"OG001","title":"Placebo Tablet","description":"Taken once daily"}],"denoms":[{"units":"Participants","counts":[{"groupId":"OG000","value":"233"},{"groupId":"OG001","value":"237"}]}],"classes":[{"categories":[{"measurements":[{"groupId":"OG000","value":"NA","lowerLimit":"NA","upperLimit":"NA","comment":"Insufficient OS events to estimate median and 95% confidence interval (Kaplan Meier analysis)"},{"groupId":"OG001","value":"NA","lowerLimit":"NA","upperLimit":"NA","comment":"Insufficient OS events to estimate median and 95% confidence interval (Kaplan Meier analysis)"}]}]}],"analyses":[{"groupIds":["OG000","OG001"],"nonInferiorityType":"SUPERIORITY","pValue":"0.0004","statisticalMethod":"Log Rank","statisticalComment":"Determined using a log rank test stratified by stage, race and mutation type.","paramType":"Hazard Ratio (HR)","paramValue":"0.4913","ciPctValue":"95.03","ciNumSides":"TWO_SIDED","ciLowerLimit":"0.3307","ciUpperLimit":"0.7299","estimateComment":"A hazard ratio \\<1 favours AZD9291."}]},{"type":"SECONDARY","title":"Overall Survival (OS)","description":"Defined as the time from the date of randomization until date of death due to any cause.","populationDescription":"Full Analysis Set (FAS) stage IB-IIIA patients","reportingStatus":"POSTED","paramType":"MEDIAN","dispersionType":"95% Confidence Interval","unitOfMeasure":"Months","timeFrame":"Up to approximately 7 years after the first patient is randomized (maximum follow up of 86 months)","groups":[{"id":"OG000","title":"AZD9291 80mg Tablet","description":"Taken once daily"},{"id":"OG001","title":"Placebo Tablet","description":"Taken once daily"}],"denoms":[{"units":"Participants","counts":[{"groupId":"OG000","value":"339"},{"groupId":"OG001","value":"343"}]}],"classes":[{"categories":[{"measurements":[{"groupId":"OG000","value":"NA","lowerLimit":"NA","upperLimit":"NA","comment":"Insufficient OS events to estimate median and 95% confidence interval (Kaplan Meier analysis)"},{"groupId":"OG001","value":"NA","lowerLimit":"NA","upperLimit":"NA","comment":"Insufficient OS events to estimate median and 95% confidence interval (Kaplan Meier analysis)"}]}]}],"analyses":[{"groupIds":["OG000","OG001"],"nonInferiorityType":"SUPERIORITY","pValue":"<0.0001","statisticalMethod":"Log Rank","statisticalComment":"Determined using a log rank test stratified by stage, race and mutation type.","paramType":"Hazard Ratio (HR)","paramValue":"0.4912","ciPctValue":"95.03","ciNumSides":"TWO_SIDED","ciLowerLimit":"0.3439","ciUpperLimit":"0.7017","estimateComment":"A hazard ratio \\<1 favours AZD9291."}]},{"type":"SECONDARY","title":"Overall Survival Rate at 2, 3 and 5 Years","description":"Defined as the percentage of patients alive at 2, 3 and 5 years, respectively, estimated from a Kaplan Meier plot of OS.","populationDescription":"Full Analysis Set (FAS) stage IIA-IIIA patients","reportingStatus":"POSTED","paramType":"NUMBER","dispersionType":"95% Confidence Interval","unitOfMeasure":"Percentage of participants","timeFrame":"Up to approximately 7 years after the first patient is randomized (maximum follow up of 86 months). OS rate at 2 years (%), 3 years (%) and 5 years (%) are presented.","groups":[{"id":"OG000","title":"AZD9291 80mg Tablet","description":"Taken once daily"},{"id":"OG001","title":"Placebo Tablet","description":"Taken once daily"}],"denoms":[{"units":"Participants","counts":[{"groupId":"OG000","value":"233"},{"groupId":"OG001","value":"237"}]}],"classes":[{"title":"OS rate at 2 years (%)","categories":[{"measurements":[{"groupId":"OG000","value":"99.5","lowerLimit":"96.8","upperLimit":"99.9"},{"groupId":"OG001","value":"92.6","lowerLimit":"88.3","upperLimit":"95.3"}]}]},{"title":"OS rate at 3 years (%)","categories":[{"measurements":[{"groupId":"OG000","value":"94.1","lowerLimit":"90.1","upperLimit":"96.5"},{"groupId":"OG001","value":"85.9","lowerLimit":"80.6","upperLimit":"89.8"}]}]},{"title":"OS rate at 5 years (%)","categories":[{"measurements":[{"groupId":"OG000","value":"85.0","lowerLimit":"79.3","upperLimit":"89.2"},{"groupId":"OG001","value":"72.6","lowerLimit":"66.0","upperLimit":"78.1"}]}]}]},{"type":"SECONDARY","title":"Overall Survival Rate at 2, 3 and 5 Years","description":"Defined as the percentage of patients alive at 2, 3 and 5 years, respectively, estimated from a Kaplan Meier plot of OS.","populationDescription":"Full Analysis Set (FAS) stage IB-IIIA patients","reportingStatus":"POSTED","paramType":"NUMBER","dispersionType":"95% Confidence Interval","unitOfMeasure":"Percentage of participants","timeFrame":"Up to approximately 7 years after the first patient is randomized (maximum follow up of 86 months). OS rate at 2 years (%), 3 years (%) and 5 years (%) are presented.","groups":[{"id":"OG000","title":"AZD9291 80mg Tablet","description":"Taken once daily"},{"id":"OG001","title":"Placebo Tablet","description":"Taken once daily"}],"denoms":[{"units":"Participants","counts":[{"groupId":"OG000","value":"339"},{"groupId":"OG001","value":"343"}]}],"classes":[{"title":"OS rate at 2 years (%)","categories":[{"measurements":[{"groupId":"OG000","value":"99.4","lowerLimit":"97.5","upperLimit":"99.8"},{"groupId":"OG001","value":"94.3","lowerLimit":"91.2","upperLimit":"96.3"}]}]},{"title":"OS rate at 3 years (%)","categories":[{"measurements":[{"groupId":"OG000","value":"95.3","lowerLimit":"92.3","upperLimit":"97.1"},{"groupId":"OG001","value":"88.8","lowerLimit":"84.9","upperLimit":"91.8"}]}]},{"title":"OS rate at 5 years (%)","categories":[{"measurements":[{"groupId":"OG000","value":"87.6","lowerLimit":"83.3","upperLimit":"90.9"},{"groupId":"OG001","value":"77.7","lowerLimit":"72.7","upperLimit":"81.9"}]}]}]},{"type":"SECONDARY","title":"Patient Health-related Quality of Life and Symptoms (HRQoL) by SF-36v2 Health Survey.","description":"Change from baseline will be calculated for each domain and summary scale at each scheduled post-baseline assessment. The SF-36 includes eight domains: Physical Functioning (PF); Role Limitations-Physical (RP), Vitality (VT), General Health Perceptions (GH), Bodily Pain (BP), Social Function (SF), Role Limitations-Emotional (RE), and Mental Health (MH) and two summary scores: The Physical Component Summary (PCS) and Mental Component Summary (MCS). Final scores for each scale range from 0-100 with higher scores indicating better health.","populationDescription":"Full Analysis Set (FAS)","reportingStatus":"POSTED","paramType":"MEAN","dispersionType":"Standard Deviation","unitOfMeasure":"Unit on a scale","timeFrame":"Measured by SF-36 Questionnaire at baseline, 12 week, 24 week and then every 24 weeks until study complete, disease recurrence or other discontinuation criteria met, up to 3 years.","groups":[{"id":"OG000","title":"AZD9291 80mg Tablet","description":"Taken once daily"},{"id":"OG001","title":"Placebo Tablet","description":"Taken once daily"}],"denoms":[{"units":"Participants","counts":[{"groupId":"OG000","value":"339"},{"groupId":"OG001","value":"343"}]}],"classes":[{"title":"Week 12 - Bodily Pain","denoms":[{"units":"Participants","counts":[{"groupId":"OG000","value":"292"},{"groupId":"OG001","value":"300"}]}],"categories":[{"measurements":[{"groupId":"OG000","value":"1.026","spread":"9.448"},{"groupId":"OG001","value":"1.442","spread":"8.854"}]}]},{"title":"Week 24 - Bodily Pain","denoms":[{"units":"Participants","counts":[{"groupId":"OG000","value":"274"},{"groupId":"OG001","value":"276"}]}],"categories":[{"measurements":[{"groupId":"OG000","value":"1.521","spread":"9.171"},{"groupId":"OG001","value":"1.462","spread":"9.279"}]}]},{"title":"Week 48 - Bodily Pain","denoms":[{"units":"Participants","counts":[{"groupId":"OG000","value":"261"},{"groupId":"OG001","value":"219"}]}],"categories":[{"measurements":[{"groupId":"OG000","value":"2.032","spread":"10.226"},{"groupId":"OG001","value":"2.438","spread":"10.077"}]}]},{"title":"Week 72 - Bodily Pain","denoms":[{"units":"Participants","counts":[{"groupId":"OG000","value":"236"},{"groupId":"OG001","value":"190"}]}],"categories":[{"measurements":[{"groupId":"OG000","value":"2.471","spread":"9.787"},{"groupId":"OG001","value":"2.335","spread":"9.566"}]}]},{"title":"Week 96 - Bodily Pain","denoms":[{"units":"Participants","counts":[{"groupId":"OG000","value":"227"},{"groupId":"OG001","value":"165"}]}],"categories":[{"measurements":[{"groupId":"OG000","value":"2.326","spread":"10.865"},{"groupId":"OG001","value":"2.921","spread":"10.153"}]}]},{"title":"Week 120 - Bodily Pain","denoms":[{"units":"Participants","counts":[{"groupId":"OG000","value":"218"},{"groupId":"OG001","value":"152"}]}],"categories":[{"measurements":[{"groupId":"OG000","value":"2.906","spread":"10.181"},{"groupId":"OG001","value":"2.778","spread":"11.295"}]}]},{"title":"Week 144 - Bodily Pain","denoms":[{"units":"Participants","counts":[{"groupId":"OG000","value":"200"},{"groupId":"OG001","value":"132"}]}],"categories":[{"measurements":[{"groupId":"OG000","value":"3.045","spread":"11.410"},{"groupId":"OG001","value":"3.324","spread":"10.258"}]}]},{"title":"Week 156 - Bodily Pain","denoms":[{"units":"Participants","counts":[{"groupId":"OG000","value":"179"},{"groupId":"OG001","value":"106"}]}],"categories":[{"measurements":[{"groupId":"OG000","value":"2.552","spread":"11.994"},{"groupId":"OG001","value":"3.116","spread":"10.692"}]}]},{"title":"Week 12 - General Health Perceptions","denoms":[{"units":"Participants","counts":[{"groupId":"OG000","value":"294"},{"groupId":"OG001","value":"303"}]}],"categories":[{"measurements":[{"groupId":"OG000","value":"-0.597","spread":"8.319"},{"groupId":"OG001","value":"0.343","spread":"7.497"}]}]},{"title":"Week 24 - General Health Perceptions","denoms":[{"units":"Participants","counts":[{"groupId":"OG000","value":"279"},{"groupId":"OG001","value":"277"}]}],"categories":[{"measurements":[{"groupId":"OG000","value":"-0.079","spread":"8.910"},{"groupId":"OG001","value":"0.763","spread":"8.122"}]}]},{"title":"Week 48 - General Health Perceptions","denoms":[{"units":"Participants","counts":[{"groupId":"OG000","value":"264"},{"groupId":"OG001","value":"220"}]}],"categories":[{"measurements":[{"groupId":"OG000","value":"0.103","spread":"8.029"},{"groupId":"OG001","value":"1.042","spread":"8.416"}]}]},{"title":"Week 72 - General Health Perceptions","denoms":[{"units":"Participants","counts":[{"groupId":"OG000","value":"239"},{"groupId":"OG001","value":"191"}]}],"categories":[{"measurements":[{"groupId":"OG000","value":"0.275","spread":"7.958"},{"groupId":"OG001","value":"2.339","spread":"8.197"}]}]},{"title":"Week 96 - General Health Perceptions","denoms":[{"units":"Participants","counts":[{"groupId":"OG000","value":"230"},{"groupId":"OG001","value":"165"}]}],"categories":[{"measurements":[{"groupId":"OG000","value":"-0.119","spread":"8.195"},{"groupId":"OG001","value":"1.818","spread":"7.903"}]}]},{"title":"Week 120 - General Health Perceptions","denoms":[{"units":"Participants","counts":[{"groupId":"OG000","value":"221"},{"groupId":"OG001","value":"152"}]}],"categories":[{"measurements":[{"groupId":"OG000","value":"-0.368","spread":"8.461"},{"groupId":"OG001","value":"0.964","spread":"8.518"}]}]},{"title":"Week 144 - General Health Perceptions","denoms":[{"units":"Participants","counts":[{"groupId":"OG000","value":"202"},{"groupId":"OG001","value":"132"}]}],"categories":[{"measurements":[{"groupId":"OG000","value":"0.209","spread":"8.671"},{"groupId":"OG001","value":"1.342","spread":"8.789"}]}]},{"title":"Week 156 - General Health Perceptions","denoms":[{"units":"Participants","counts":[{"groupId":"OG000","value":"183"},{"groupId":"OG001","value":"106"}]}],"categories":[{"measurements":[{"groupId":"OG000","value":"-0.128","spread":"8.987"},{"groupId":"OG001","value":"2.166","spread":"8.670"}]}]},{"title":"Week 12 - Mental Health","denoms":[{"units":"Participants","counts":[{"groupId":"OG000","value":"291"},{"groupId":"OG001","value":"302"}]}],"categories":[{"measurements":[{"groupId":"OG000","value":"0.928","spread":"8.538"},{"groupId":"OG001","value":"1.892","spread":"8.497"}]}]},{"title":"Week 24 - Mental Health","denoms":[{"units":"Participants","counts":[{"groupId":"OG000","value":"276"},{"groupId":"OG001","value":"277"}]}],"categories":[{"measurements":[{"groupId":"OG000","value":"1.249","spread":"8.780"},{"groupId":"OG001","value":"1.275","spread":"9.660"}]}]},{"title":"Week 48 - Mental Health","denoms":[{"units":"Participants","counts":[{"groupId":"OG000","value":"262"},{"groupId":"OG001","value":"219"}]}],"categories":[{"measurements":[{"groupId":"OG000","value":"2.456","spread":"8.920"},{"groupId":"OG001","value":"2.234","spread":"8.676"}]}]},{"title":"Week 72 - Mental Health","denoms":[{"units":"Participants","counts":[{"groupId":"OG000","value":"237"},{"groupId":"OG001","value":"190"}]}],"categories":[{"measurements":[{"groupId":"OG000","value":"1.540","spread":"9.029"},{"groupId":"OG001","value":"2.011","spread":"8.954"}]}]},{"title":"Week 96 - Mental Health","denoms":[{"units":"Participants","counts":[{"groupId":"OG000","value":"228"},{"groupId":"OG001","value":"165"}]}],"categories":[{"measurements":[{"groupId":"OG000","value":"1.352","spread":"8.560"},{"groupId":"OG001","value":"2.101","spread":"8.986"}]}]},{"title":"Week 120 - Mental Health","denoms":[{"units":"Participants","counts":[{"groupId":"OG000","value":"219"},{"groupId":"OG001","value":"152"}]}],"categories":[{"measurements":[{"groupId":"OG000","value":"0.723","spread":"9.738"},{"groupId":"OG001","value":"2.307","spread":"10.139"}]}]},{"title":"Week 144 - Mental Health","denoms":[{"units":"Participants","counts":[{"groupId":"OG000","value":"200"},{"groupId":"OG001","value":"132"}]}],"categories":[{"measurements":[{"groupId":"OG000","value":"0.517","spread":"9.609"},{"groupId":"OG001","value":"1.428","spread":"8.914"}]}]},{"title":"Week 156 - Mental Health","denoms":[{"units":"Participants","counts":[{"groupId":"OG000","value":"180"},{"groupId":"OG001","value":"106"}]}],"categories":[{"measurements":[{"groupId":"OG000","value":"0.386","spread":"10.215"},{"groupId":"OG001","value":"2.000","spread":"9.651"}]}]},{"title":"Week 12 - Physical functioning","denoms":[{"units":"Participants","counts":[{"groupId":"OG000","value":"294"},{"groupId":"OG001","value":"302"}]}],"categories":[{"measurements":[{"groupId":"OG000","value":"-0.314","spread":"6.762"},{"groupId":"OG001","value":"0.898","spread":"6.646"}]}]},{"title":"Week 24 - Physical functioning","denoms":[{"units":"Participants","counts":[{"groupId":"OG000","value":"277"},{"groupId":"OG001","value":"275"}]}],"categories":[{"measurements":[{"groupId":"OG000","value":"0.494","spread":"6.783"},{"groupId":"OG001","value":"0.923","spread":"7.014"}]}]},{"title":"Week 48 - Physical functioning","denoms":[{"units":"Participants","counts":[{"groupId":"OG000","value":"263"},{"groupId":"OG001","value":"220"}]}],"categories":[{"measurements":[{"groupId":"OG000","value":"0.940","spread":"7.595"},{"groupId":"OG001","value":"1.914","spread":"7.899"}]}]},{"title":"Week 72 - Physical functioning","denoms":[{"units":"Participants","counts":[{"groupId":"OG000","value":"238"},{"groupId":"OG001","value":"191"}]}],"categories":[{"measurements":[{"groupId":"OG000","value":"1.079","spread":"6.725"},{"groupId":"OG001","value":"2.042","spread":"7.283"}]}]},{"title":"Week 96 - Physical functioning","denoms":[{"units":"Participants","counts":[{"groupId":"OG000","value":"229"},{"groupId":"OG001","value":"165"}]}],"categories":[{"measurements":[{"groupId":"OG000","value":"0.637","spread":"8.220"},{"groupId":"OG001","value":"2.016","spread":"7.048"}]}]},{"title":"Week 120 - Physical functioning","denoms":[{"units":"Participants","counts":[{"groupId":"OG000","value":"220"},{"groupId":"OG001","value":"152"}]}],"categories":[{"measurements":[{"groupId":"OG000","value":"1.449","spread":"7.207"},{"groupId":"OG001","value":"2.540","spread":"7.424"}]}]},{"title":"Week 144 - Physical functioning","denoms":[{"units":"Participants","counts":[{"groupId":"OG000","value":"202"},{"groupId":"OG001","value":"132"}]}],"categories":[{"measurements":[{"groupId":"OG000","value":"1.869","spread":"6.767"},{"groupId":"OG001","value":"1.939","spread":"8.238"}]}]},{"title":"Week 156 - Physical functioning","denoms":[{"units":"Participants","counts":[{"groupId":"OG000","value":"182"},{"groupId":"OG001","value":"105"}]}],"categories":[{"measurements":[{"groupId":"OG000","value":"0.997","spread":"7.537"},{"groupId":"OG001","value":"2.187","spread":"8.293"}]}]},{"title":"Week 12 - Role Limitations - Emotional","denoms":[{"units":"Participants","counts":[{"groupId":"OG000","value":"292"},{"groupId":"OG001","value":"303"}]}],"categories":[{"measurements":[{"groupId":"OG000","value":"0.381","spread":"10.413"},{"groupId":"OG001","value":"2.333","spread":"11.168"}]}]},{"title":"Week 24 - Role Limitations - Emotional","denoms":[{"units":"Participants","counts":[{"groupId":"OG000","value":"276"},{"groupId":"OG001","value":"276"}]}],"categories":[{"measurements":[{"groupId":"OG000","value":"0.858","spread":"11.317"},{"groupId":"OG001","value":"1.678","spread":"11.571"}]}]},{"title":"Week 48 - Role Limitations - Emotional","denoms":[{"units":"Participants","counts":[{"groupId":"OG000","value":"262"},{"groupId":"OG001","value":"220"}]}],"categories":[{"measurements":[{"groupId":"OG000","value":"2.179","spread":"11.131"},{"groupId":"OG001","value":"2.628","spread":"10.952"}]}]},{"title":"Week 72 - Role Limitations - Emotional","denoms":[{"units":"Participants","counts":[{"groupId":"OG000","value":"237"},{"groupId":"OG001","value":"191"}]}],"categories":[{"measurements":[{"groupId":"OG000","value":"1.410","spread":"11.861"},{"groupId":"OG001","value":"1.860","spread":"11.424"}]}]},{"title":"Week 96 - Role Limitations - Emotional","denoms":[{"units":"Participants","counts":[{"groupId":"OG000","value":"227"},{"groupId":"OG001","value":"165"}]}],"categories":[{"measurements":[{"groupId":"OG000","value":"1.657","spread":"12.405"},{"groupId":"OG001","value":"1.899","spread":"12.379"}]}]},{"title":"Week 120 - Role Limitations - Emotional","denoms":[{"units":"Participants","counts":[{"groupId":"OG000","value":"219"},{"groupId":"OG001","value":"152"}]}],"categories":[{"measurements":[{"groupId":"OG000","value":"1.765","spread":"11.966"},{"groupId":"OG001","value":"2.360","spread":"12.663"}]}]},{"title":"Week 144 - Role Limitations - Emotional","denoms":[{"units":"Participants","counts":[{"groupId":"OG000","value":"200"},{"groupId":"OG001","value":"132"}]}],"categories":[{"measurements":[{"groupId":"OG000","value":"1.654","spread":"12.081"},{"groupId":"OG001","value":"2.532","spread":"13.113"}]}]},{"title":"Week 156 - Role Limitations - Emotional","denoms":[{"units":"Participants","counts":[{"groupId":"OG000","value":"181"},{"groupId":"OG001","value":"106"}]}],"categories":[{"measurements":[{"groupId":"OG000","value":"0.519","spread":"12.351"},{"groupId":"OG001","value":"2.201","spread":"13.022"}]}]},{"title":"Week 12 - Role Limitations - Physical","denoms":[{"units":"Participants","counts":[{"groupId":"OG000","value":"292"},{"groupId":"OG001","value":"303"}]}],"categories":[{"measurements":[{"groupId":"OG000","value":"1.056","spread":"9.263"},{"groupId":"OG001","value":"2.915","spread":"8.977"}]}]},{"title":"Week 24 - Role Limitations - Physical","denoms":[{"units":"Participants","counts":[{"groupId":"OG000","value":"277"},{"groupId":"OG001","value":"276"}]}],"categories":[{"measurements":[{"groupId":"OG000","value":"1.727","spread":"10.265"},{"groupId":"OG001","value":"4.063","spread":"9.295"}]}]},{"title":"Week 48 - Role Limitations - Physical","denoms":[{"units":"Participants","counts":[{"groupId":"OG000","value":"262"},{"groupId":"OG001","value":"220"}]}],"categories":[{"measurements":[{"groupId":"OG000","value":"3.437","spread":"10.592"},{"groupId":"OG001","value":"5.332","spread":"9.663"}]}]},{"title":"Week 72 - Role Limitations - Physical","denoms":[{"units":"Participants","counts":[{"groupId":"OG000","value":"237"},{"groupId":"OG001","value":"191"}]}],"categories":[{"measurements":[{"groupId":"OG000","value":"3.581","spread":"11.037"},{"groupId":"OG001","value":"5.424","spread":"9.670"}]}]},{"title":"Week 96 - Role Limitations - Physical","denoms":[{"units":"Participants","counts":[{"groupId":"OG000","value":"228"},{"groupId":"OG001","value":"165"}]}],"categories":[{"measurements":[{"groupId":"OG000","value":"3.240","spread":"10.807"},{"groupId":"OG001","value":"5.321","spread":"9.997"}]}]},{"title":"Week 120 - Role Limitations - Physical","denoms":[{"units":"Participants","counts":[{"groupId":"OG000","value":"219"},{"groupId":"OG001","value":"152"}]}],"categories":[{"measurements":[{"groupId":"OG000","value":"4.717","spread":"11.238"},{"groupId":"OG001","value":"5.348","spread":"11.395"}]}]},{"title":"Week 144 - Role Limitations - Physical","denoms":[{"units":"Participants","counts":[{"groupId":"OG000","value":"200"},{"groupId":"OG001","value":"132"}]}],"categories":[{"measurements":[{"groupId":"OG000","value":"3.525","spread":"10.860"},{"groupId":"OG001","value":"5.444","spread":"10.547"}]}]},{"title":"Week 156 - Role Limitations - Physical","denoms":[{"units":"Participants","counts":[{"groupId":"OG000","value":"181"},{"groupId":"OG001","value":"106"}]}],"categories":[{"measurements":[{"groupId":"OG000","value":"3.151","spread":"11.378"},{"groupId":"OG001","value":"5.572","spread":"10.954"}]}]},{"title":"Week 12 - Social Function","denoms":[{"units":"Participants","counts":[{"groupId":"OG000","value":"292"},{"groupId":"OG001","value":"301"}]}],"categories":[{"measurements":[{"groupId":"OG000","value":"1.391","spread":"9.615"},{"groupId":"OG001","value":"3.164","spread":"9.171"}]}]},{"title":"Week 24 - Social Function","denoms":[{"units":"Participants","counts":[{"groupId":"OG000","value":"276"},{"groupId":"OG001","value":"276"}]}],"categories":[{"measurements":[{"groupId":"OG000","value":"2.634","spread":"9.526"},{"groupId":"OG001","value":"3.433","spread":"10.348"}]}]},{"title":"Week 48 - Social Function","denoms":[{"units":"Participants","counts":[{"groupId":"OG000","value":"262"},{"groupId":"OG001","value":"220"}]}],"categories":[{"measurements":[{"groupId":"OG000","value":"3.731","spread":"9.919"},{"groupId":"OG001","value":"4.170","spread":"10.156"}]}]},{"title":"Week 72 - Social Function","denoms":[{"units":"Participants","counts":[{"groupId":"OG000","value":"237"},{"groupId":"OG001","value":"190"}]}],"categories":[{"measurements":[{"groupId":"OG000","value":"3.025","spread":"10.094"},{"groupId":"OG001","value":"4.802","spread":"10.351"}]}]},{"title":"Week 96 - Social Function","denoms":[{"units":"Participants","counts":[{"groupId":"OG000","value":"228"},{"groupId":"OG001","value":"165"}]}],"categories":[{"measurements":[{"groupId":"OG000","value":"3.651","spread":"10.011"},{"groupId":"OG001","value":"4.405","spread":"10.790"}]}]},{"title":"Week 120 - Social Function","denoms":[{"units":"Participants","counts":[{"groupId":"OG000","value":"219"},{"groupId":"OG001","value":"152"}]}],"categories":[{"measurements":[{"groupId":"OG000","value":"3.297","spread":"10.723"},{"groupId":"OG001","value":"4.386","spread":"11.355"}]}]},{"title":"Week 144 - Social Function","denoms":[{"units":"Participants","counts":[{"groupId":"OG000","value":"200"},{"groupId":"OG001","value":"132"}]}],"categories":[{"measurements":[{"groupId":"OG000","value":"2.582","spread":"10.638"},{"groupId":"OG001","value":"3.912","spread":"10.929"}]}]},{"title":"Week 156 - Social Function","denoms":[{"units":"Participants","counts":[{"groupId":"OG000","value":"180"},{"groupId":"OG001","value":"106"}]}],"categories":[{"measurements":[{"groupId":"OG000","value":"2.423","spread":"10.658"},{"groupId":"OG001","value":"4.351","spread":"12.144"}]}]},{"title":"Week 12 - Vitality","denoms":[{"units":"Participants","counts":[{"groupId":"OG000","value":"290"},{"groupId":"OG001","value":"302"}]}],"categories":[{"measurements":[{"groupId":"OG000","value":"0.570","spread":"7.987"},{"groupId":"OG001","value":"2.344","spread":"8.207"}]}]},{"title":"Week 24 - Vitality","denoms":[{"units":"Participants","counts":[{"groupId":"OG000","value":"275"},{"groupId":"OG001","value":"277"}]}],"categories":[{"measurements":[{"groupId":"OG000","value":"0.630","spread":"8.996"},{"groupId":"OG001","value":"2.463","spread":"9.461"}]}]},{"title":"Week 48 - Vitality","denoms":[{"units":"Participants","counts":[{"groupId":"OG000","value":"261"},{"groupId":"OG001","value":"219"}]}],"categories":[{"measurements":[{"groupId":"OG000","value":"2.231","spread":"9.209"},{"groupId":"OG001","value":"3.029","spread":"8.972"}]}]},{"title":"Week 72 - Vitality","denoms":[{"units":"Participants","counts":[{"groupId":"OG000","value":"236"},{"groupId":"OG001","value":"190"}]}],"categories":[{"measurements":[{"groupId":"OG000","value":"1.082","spread":"9.387"},{"groupId":"OG001","value":"3.815","spread":"8.869"}]}]},{"title":"Week 96 - Vitality","denoms":[{"units":"Participants","counts":[{"groupId":"OG000","value":"228"},{"groupId":"OG001","value":"165"}]}],"categories":[{"measurements":[{"groupId":"OG000","value":"1.147","spread":"9.052"},{"groupId":"OG001","value":"3.474","spread":"9.071"}]}]},{"title":"Week 120 - Vitality","denoms":[{"units":"Participants","counts":[{"groupId":"OG000","value":"219"},{"groupId":"OG001","value":"152"}]}],"categories":[{"measurements":[{"groupId":"OG000","value":"1.139","spread":"9.458"},{"groupId":"OG001","value":"3.224","spread":"9.122"}]}]},{"title":"Week 144 - Vitality","denoms":[{"units":"Participants","counts":[{"groupId":"OG000","value":"200"},{"groupId":"OG001","value":"132"}]}],"categories":[{"measurements":[{"groupId":"OG000","value":"0.386","spread":"9.724"},{"groupId":"OG001","value":"2.070","spread":"9.285"}]}]},{"title":"Week 156 - Vitality","denoms":[{"units":"Participants","counts":[{"groupId":"OG000","value":"180"},{"groupId":"OG001","value":"106"}]}],"categories":[{"measurements":[{"groupId":"OG000","value":"0.825","spread":"9.342"},{"groupId":"OG001","value":"2.970","spread":"8.831"}]}]},{"title":"Week 12 - Mental Component Summary","denoms":[{"units":"Participants","counts":[{"groupId":"OG000","value":"291"},{"groupId":"OG001","value":"301"}]}],"categories":[{"measurements":[{"groupId":"OG000","value":"0.986","spread":"8.068"},{"groupId":"OG001","value":"2.603","spread":"8.965"}]}]},{"title":"Week 24 - Mental Component Summary","denoms":[{"units":"Participants","counts":[{"groupId":"OG000","value":"274"},{"groupId":"OG001","value":"275"}]}],"categories":[{"measurements":[{"groupId":"OG000","value":"1.333","spread":"8.919"},{"groupId":"OG001","value":"1.936","spread":"10.152"}]}]},{"title":"Week 48 - Mental Component Summary","denoms":[{"units":"Participants","counts":[{"groupId":"OG000","value":"261"},{"groupId":"OG001","value":"219"}]}],"categories":[{"measurements":[{"groupId":"OG000","value":"2.788","spread":"9.301"},{"groupId":"OG001","value":"2.757","spread":"9.141"}]}]},{"title":"Week 72 - Mental Component Summary","denoms":[{"units":"Participants","counts":[{"groupId":"OG000","value":"236"},{"groupId":"OG001","value":"190"}]}],"categories":[{"measurements":[{"groupId":"OG000","value":"1.434","spread":"9.635"},{"groupId":"OG001","value":"2.577","spread":"9.116"}]}]},{"title":"Week 96 - Mental Component Summary","denoms":[{"units":"Participants","counts":[{"groupId":"OG000","value":"227"},{"groupId":"OG001","value":"165"}]}],"categories":[{"measurements":[{"groupId":"OG000","value":"1.823","spread":"9.439"},{"groupId":"OG001","value":"2.415","spread":"10.023"}]}]},{"title":"Week 120 - Mental Component Summary","denoms":[{"units":"Participants","counts":[{"groupId":"OG000","value":"218"},{"groupId":"OG001","value":"152"}]}],"categories":[{"measurements":[{"groupId":"OG000","value":"1.027","spread":"10.286"},{"groupId":"OG001","value":"2.554","spread":"10.548"}]}]},{"title":"Week 144 - Mental Component Summary","denoms":[{"units":"Participants","counts":[{"groupId":"OG000","value":"200"},{"groupId":"OG001","value":"132"}]}],"categories":[{"measurements":[{"groupId":"OG000","value":"0.580","spread":"9.994"},{"groupId":"OG001","value":"1.870","spread":"9.857"}]}]},{"title":"Week 156 - Mental Component Summary","denoms":[{"units":"Participants","counts":[{"groupId":"OG000","value":"179"},{"groupId":"OG001","value":"106"}]}],"categories":[{"measurements":[{"groupId":"OG000","value":"0.322","spread":"10.077"},{"groupId":"OG001","value":"2.269","spread":"10.647"}]}]},{"title":"Week 12 - Physical Component Summary","denoms":[{"units":"Participants","counts":[{"groupId":"OG000","value":"291"},{"groupId":"OG001","value":"301"}]}],"categories":[{"measurements":[{"groupId":"OG000","value":"0.161","spread":"6.341"},{"groupId":"OG001","value":"1.144","spread":"6.078"}]}]},{"title":"Week 24 - Physical Component Summary","denoms":[{"units":"Participants","counts":[{"groupId":"OG000","value":"274"},{"groupId":"OG001","value":"275"}]}],"categories":[{"measurements":[{"groupId":"OG000","value":"0.878","spread":"7.009"},{"groupId":"OG001","value":"1.938","spread":"6.643"}]}]},{"title":"Week 48 - Physical Component Summary","denoms":[{"units":"Participants","counts":[{"groupId":"OG000","value":"261"},{"groupId":"OG001","value":"219"}]}],"categories":[{"measurements":[{"groupId":"OG000","value":"1.356","spread":"6.800"},{"groupId":"OG001","value":"2.797","spread":"7.497"}]}]},{"title":"Week 72 - Physical Component Summary","denoms":[{"units":"Participants","counts":[{"groupId":"OG000","value":"236"},{"groupId":"OG001","value":"190"}]}],"categories":[{"measurements":[{"groupId":"OG000","value":"1.989","spread":"6.941"},{"groupId":"OG001","value":"3.360","spread":"6.985"}]}]},{"title":"Week 96 - Physical Component Summary","denoms":[{"units":"Participants","counts":[{"groupId":"OG000","value":"227"},{"groupId":"OG001","value":"165"}]}],"categories":[{"measurements":[{"groupId":"OG000","value":"1.497","spread":"7.591"},{"groupId":"OG001","value":"3.343","spread":"6.792"}]}]},{"title":"Week 120 - Physical Component Summary","denoms":[{"units":"Participants","counts":[{"groupId":"OG000","value":"218"},{"groupId":"OG001","value":"152"}]}],"categories":[{"measurements":[{"groupId":"OG000","value":"2.611","spread":"7.291"},{"groupId":"OG001","value":"3.175","spread":"8.210"}]}]},{"title":"Week 144 - Physical Component Summary","denoms":[{"units":"Participants","counts":[{"groupId":"OG000","value":"200"},{"groupId":"OG001","value":"132"}]}],"categories":[{"measurements":[{"groupId":"OG000","value":"2.635","spread":"7.374"},{"groupId":"OG001","value":"3.353","spread":"8.042"}]}]},{"title":"Week 156 - Physical Component Summary","denoms":[{"units":"Participants","counts":[{"groupId":"OG000","value":"179"},{"groupId":"OG001","value":"105"}]}],"categories":[{"measurements":[{"groupId":"OG000","value":"2.133","spread":"7.909"},{"groupId":"OG001","value":"3.644","spread":"8.731"}]}]}]},{"type":"SECONDARY","title":"Plasma Concentrations of AZD9291","description":"The pharmacokinetics exposure parameters derived from plasma concentrations of AZD9291","populationDescription":"Pharmacokinetic analysis set","reportingStatus":"POSTED","paramType":"GEOMETRIC_MEAN","dispersionType":"Geometric Coefficient of Variation","unitOfMeasure":"nM","timeFrame":"Collected at pre-dose, 0.5-1.5hours and 2-4hours post-dose up to 96 weeks (approximately 24 months)","groups":[{"id":"OG000","title":"AZD9291 80mg Tablet","description":"Taken once daily"}],"denoms":[{"units":"Participants","counts":[{"groupId":"OG000","value":"325"}]}],"classes":[{"title":"Week 4 - Pre-dose","denoms":[{"units":"Participants","counts":[{"groupId":"OG000","value":"247"}]}],"categories":[{"measurements":[{"groupId":"OG000","value":"380.2563","spread":"60.4465"}]}]},{"title":"Week 4 - 0.5-1.5 hours","denoms":[{"units":"Participants","counts":[{"groupId":"OG000","value":"246"}]}],"categories":[{"measurements":[{"groupId":"OG000","value":"383.9142","spread":"74.3191"}]}]},{"title":"Week 4 - 2-4 hours","denoms":[{"units":"Participants","counts":[{"groupId":"OG000","value":"246"}]}],"categories":[{"measurements":[{"groupId":"OG000","value":"463.0098","spread":"56.3562"}]}]},{"title":"Week 24- Pre-dose","denoms":[{"units":"Participants","counts":[{"groupId":"OG000","value":"213"}]}],"categories":[{"measurements":[{"groupId":"OG000","value":"288.8266","spread":"181.8255"}]}]},{"title":"Week 24 - 0.5-1.5 hours","denoms":[{"units":"Participants","counts":[{"groupId":"OG000","value":"212"}]}],"categories":[{"measurements":[{"groupId":"OG000","value":"303.8269","spread":"116.9411"}]}]},{"title":"Week 24 - 2-4 hours","denoms":[{"units":"Participants","counts":[{"groupId":"OG000","value":"211"}]}],"categories":[{"measurements":[{"groupId":"OG000","value":"358.831","spread":"116.0567"}]}]},{"title":"Week 48- Pre-dose","denoms":[{"units":"Participants","counts":[{"groupId":"OG000","value":"198"}]}],"categories":[{"measurements":[{"groupId":"OG000","value":"301.7346","spread":"125.4901"}]}]},