{"protocolSection":{"identificationModule":{"nctId":"NCT04533451","orgStudyIdInfo":{"id":"A171901"},"secondaryIdInfos":[{"id":"NCI-2020-00544","type":"REGISTRY","domain":"NCI Clinical Trial Reporting Program"},{"id":"UG1CA189823","type":"NIH","link":"https://reporter.nih.gov/quickSearch/UG1CA189823"}],"organization":{"fullName":"Alliance for Clinical Trials in Oncology","class":"OTHER"},"briefTitle":"Testing the Effects of MK-3475 (Pembrolizumab) With or Without the Usual Chemotherapy Treatment for Patients 70 Years of Age and Older With Advanced Non-small Cell Lung Cancer","officialTitle":"Older Non-Small Cell Lung Cancer Patients (>/= 70 Years of Age) Treated With First-Line MK-3475 (Pembrolizumab)+/- Chemotherapy (Oncologist's/Patient's Choice)"},"statusModule":{"statusVerifiedDate":"2025-06","overallStatus":"ACTIVE_NOT_RECRUITING","expandedAccessInfo":{"hasExpandedAccess":false},"startDateStruct":{"date":"2020-11-16","type":"ACTUAL"},"primaryCompletionDateStruct":{"date":"2023-10-31","type":"ACTUAL"},"completionDateStruct":{"date":"2027-05-31","type":"ESTIMATED"},"studyFirstSubmitDate":"2020-08-19","studyFirstSubmitQcDate":"2020-08-28","studyFirstPostDateStruct":{"date":"2020-08-31","type":"ACTUAL"},"resultsFirstSubmitDate":"2024-10-21","resultsFirstSubmitQcDate":"2025-01-24","resultsFirstPostDateStruct":{"date":"2025-01-27","type":"ACTUAL"},"lastUpdateSubmitDate":"2025-06-04","lastUpdatePostDateStruct":{"date":"2025-06-13","type":"ACTUAL"}},"sponsorCollaboratorsModule":{"responsibleParty":{"type":"SPONSOR"},"leadSponsor":{"name":"Alliance for Clinical Trials in Oncology","class":"OTHER"},"collaborators":[{"name":"National Cancer Institute (NCI)","class":"NIH"}]},"oversightModule":{"oversightHasDmc":false,"isFdaRegulatedDrug":true,"isFdaRegulatedDevice":false,"isUsExport":true},"descriptionModule":{"briefSummary":"This trial studies the side effects of pembrolizumab with or without chemotherapy in treating patients with stage IV non-small cell lung cancer that has come back (recurrent) and has spread to other places in the body (advanced). Immunotherapy with monoclonal antibodies, such as pembrolizumab, may help the body's immune system attack the cancer, and may interfere with the ability of tumor cells to grow and spread. Drugs used in chemotherapy, such as pemetrexed and carboplatin, work in different ways to stop the growth of tumor cells, either by killing the cells, by stopping them from dividing, or by stopping them from spreading. Giving pembrolizumab with or without chemotherapy may shrink the tumor in older patients with non-small cell lung cancer.","detailedDescription":"The primary and secondary objectives of the study:\n\nPRIMARY OBJECTIVE:\n\nI. To estimate the adverse event profile of MK-3475 (pembrolizumab) in non-small cell lung cancer patients who are age 70 years of age or older and who are treated with MK-3475 (pembrolizumab) +/- chemotherapy in a first-line setting.\n\nSECONDARY OBJECTIVES:\n\nI. To estimate overall survival. II. To describe patient quality of life during the treatment using the Linear Analogue Self-Assessment (LASA) questionnaire.\n\nIII. To explore whether Comprehensive Geriatric Assessment (CGA) -derived risk score is able to predict rates of severe adverse events in older cancer patients who receive MK-3475 (pembrolizumab) or MK-3475 (pembrolizumab) + chemotherapy.\n\nOUTLINE: Patients are assigned to 1 of 2 groups.\n\nGROUP A: Patients receive pembrolizumab intravenously (IV) over 30 minutes on day 1. Cycles repeat every 21 days in the absence of disease progression or unacceptable toxicity.\n\nGROUP B: Patients receive pembrolizumab IV over 30 minutes, pemetrexed IV over 10 minutes, and carboplatin IV per institutional guidelines on day 1. Cycles repeat every 21 days in the absence of disease progression or unacceptable toxicity.\n\nAfter completion of study treatment, patients are followed up annually for up to 5 years after registration."},"conditionsModule":{"conditions":["Metastatic Lung Adenocarcinoma","Metastatic Lung Non-Small Cell Carcinoma","Recurrent Lung Adenocarcinoma","Recurrent Lung Non-Small Cell Carcinoma","Stage IV Lung Cancer AJCC v8","Stage IVA Lung Cancer AJCC v8","Stage IVB Lung Cancer AJCC v8"]},"designModule":{"studyType":"INTERVENTIONAL","phases":["PHASE2"],"designInfo":{"allocation":"NON_RANDOMIZED","interventionModel":"PARALLEL","primaryPurpose":"TREATMENT","maskingInfo":{"masking":"NONE"}},"enrollmentInfo":{"count":101,"type":"ACTUAL"}},"armsInterventionsModule":{"armGroups":[{"label":"Group A (pembrolizumab)","type":"EXPERIMENTAL","description":"Patients receive pembrolizumab IV over 30 minutes on day 1. Cycles repeat every 21 days in the absence of disease progression or unacceptable toxicity.","interventionNames":["Drug: Pembrolizumab","Other: Comprehensive Geriatric Assessment","Other: Questionnaire Administration","Other: Quality-of-Life Assessment"]},{"label":"Group B (pembrolizumab, pemetrexed, carboplatin)","type":"EXPERIMENTAL","description":"Patients receive pembrolizumab IV over 30 minutes, pemetrexed IV over 10 minutes, and carboplatin IV per institutional guidelines on day 1. Cycles repeat every 21 days in the absence of disease progression or unacceptable toxicity.","interventionNames":["Drug: Pembrolizumab","Drug: Pemetrexed","Drug: Carboplatin","Other: Comprehensive Geriatric Assessment","Other: Questionnaire Administration","Other: Quality-of-Life Assessment"]}],"interventions":[{"type":"DRUG","name":"Pembrolizumab","description":"Given IV","armGroupLabels":["Group A (pembrolizumab)","Group B (pembrolizumab, pemetrexed, carboplatin)"]},{"type":"DRUG","name":"Pemetrexed","description":"Given IV","armGroupLabels":["Group B (pembrolizumab, pemetrexed, carboplatin)"]},{"type":"DRUG","name":"Carboplatin","description":"Given IV","armGroupLabels":["Group B (pembrolizumab, pemetrexed, carboplatin)"]},{"type":"OTHER","name":"Comprehensive Geriatric Assessment","description":"Ancillary studies","armGroupLabels":["Group A (pembrolizumab)","Group B (pembrolizumab, pemetrexed, carboplatin)"]},{"type":"OTHER","name":"Questionnaire Administration","description":"Ancillary studies","armGroupLabels":["Group A (pembrolizumab)","Group B (pembrolizumab, pemetrexed, carboplatin)"]},{"type":"OTHER","name":"Quality-of-Life Assessment","description":"Ancillary studies","armGroupLabels":["Group A (pembrolizumab)","Group B (pembrolizumab, pemetrexed, carboplatin)"]}]},"outcomesModule":{"primaryOutcomes":[{"measure":"Incidence of Grade 3 or Worse Adverse Events Post Registration","description":"Assessed by National Cancer Institute Common Terminology Criteria in Adverse Events version 5.0. The proportion of patients experience grade 3 or worse adverse events (AEs) will be summarized by frequency and percentage along with a 95% confidence interval (CI) separately by type of therapy (monotherapy or combination therapy) as well as combining the two cohorts. All other individual AEs will be analyzed in an exploratory and hypothesis generating manner; including and not limited to multi-variate logistic regression models considering the baseline demographics and the presence/absence of the AE.","timeFrame":"Up to 7 days of last day of treatment, up to 6 months"}],"secondaryOutcomes":[{"measure":"Overall Survival (OS)","description":"Will be summarized using the Kaplan-Meier estimator, separately by monotherapy or combination therapy as well as by the combined cohort.","timeFrame":"From study registration to death or the last follow-up whichever occurs first, assessed up to 3 years"},{"measure":"Quality of Life (QOL): Linear Analogue Self-Assessment [LASA] Questionnaire","description":"The overall quality of life score (the first question of the Linear Analogue Self-Assessment \\[LASA\\] questionnaire) at each time point as well as change from baseline will be summarized by mean (standard deviation), median (range) along with a longitudinal plot. The median quality of life (QOL) change from baseline along with a 95% confidence interval (CI) will be estimated using the Hodges-Lehmann method. The overall quality of life score will be measured on a scale from 0-10, with higher being better.","timeFrame":"Up to 9 weeks"},{"measure":"Comprehensive Geriatric Assessment Risk Score","description":"The geriatric risk score, measured as low, medium, or high, will be summarized in a 3X2 frequency table with adverse events.","timeFrame":"At baseline. Per the protocol section 13.5,Comprehensive geriatric assessment would be examined combined by arm."}]},"eligibilityModule":{"eligibilityCriteria":"Inclusion Criteria:\n\n* Documentation of Disease: Histologic or cytologic diagnosis of non-small cell lung cancer (adenocarcinoma). Stage IV or recurrent metastatic non-small cell lung cancer. No planned initiation of definitive (potentially curative) concurrent chemo-radiation\n* Planning to begin MK-3475 (pembrolizumab) treatment within 14 days of registration, with or without combination chemotherapy. Treating physician considers pembrolizumab as appropriate and plans to proceed with one of the following treatment schedules:\n\n  * MK-3475 (pembrolizumab) 200 mg IV flat dose every 21 days or 400 mg IV every 42 days.\n  * MK-3475 (pembrolizumab) 200 mg IV or 400 mg IV + carboplatin area under the curve (AUC) = 5 + pemetrexed 500 mg/m\\^2 (20% chemotherapy dose reduction is permitted per the discretion of the treating physician)\n* Patients will be ineligible if they have an autoimmune disorder, are post-organ transplantation, or are receiving ongoing immunosuppression treatment\n* Prior adjuvant therapy is allowed and must have been completed at least 6 months prior to registration\n* No planned radiation or other cancer treatment in the 3 months following registration\n* No untreated brain metastases. Patients must be off corticosteroids and asymptomatic at registration\n* Absolute neutrophil count (ANC) \\>= 1500/mm\\^3 (1.5 x 10\\^9/L)\n* Platelet count: \\>= 100,000/mm\\^3 (100 x 10\\^9/L)\n* Creatinine \\>= 30 mL/min\\* for patients enrolled to pembrolizumab alone and \\> 45 mL/min for patients enrolled to chemotherapy + pembrolizumab\n\n  \\* Calculated using the Cockcroft-Gault formula\n* Total serum bilirubin =\\< 1.5 upper limit of normal (ULN) (\\< 3 ULN if Gilbert's disease)\n* Aspartate aminotransferase (AST) and/or alanine aminotransferase (ALT) =\\< 3 x ULN (=\\< 5.0 x ULN if liver metastases present)\n* Alkaline phosphatase =\\< 2.5 x ULN (=\\< 5 x ULN if bone or liver metastases present) Language: Patients must be able to speak and comprehend English in order to complete the mandatory patient-completed measures","healthyVolunteers":false,"sex":"ALL","minimumAge":"70 Years","stdAges":["OLDER_ADULT"]},"contactsLocationsModule":{"overallOfficials":[{"name":"Aminah Jatoi, MD","affiliation":"Mayo Clinic","role":"STUDY_CHAIR"}],"locations":[{"facility":"Anchorage Associates in Radiation Medicine","city":"Anchorage","state":"Alaska","zip":"98508","country":"United States","geoPoint":{"lat":61.21806,"lon":-149.90028}},{"facility":"Anchorage Radiation Therapy Center","city":"Anchorage","state":"Alaska","zip":"99504","country":"United States","geoPoint":{"lat":61.21806,"lon":-149.90028}},{"facility":"Alaska Breast Care and Surgery LLC","city":"Anchorage","state":"Alaska","zip":"99508","country":"United States","geoPoint":{"lat":61.21806,"lon":-149.90028}},{"facility":"Alaska Oncology and Hematology LLC","city":"Anchorage","state":"Alaska","zip":"99508","country":"United States","geoPoint":{"lat":61.21806,"lon":-149.90028}},{"facility":"Alaska Women's Cancer Care","city":"Anchorage","state":"Alaska","zip":"99508","country":"United States","geoPoint":{"lat":61.21806,"lon":-149.90028}},{"facility":"Anchorage Oncology Centre","city":"Anchorage","state":"Alaska","zip":"99508","country":"United States","geoPoint":{"lat":61.21806,"lon":-149.90028}},{"facility":"Katmai Oncology Group","city":"Anchorage","state":"Alaska","zip":"99508","country":"United States","geoPoint":{"lat":61.21806,"lon":-149.90028}},{"facility":"Providence Alaska Medical Center","city":"Anchorage","state":"Alaska","zip":"99508","country":"United States","geoPoint":{"lat":61.21806,"lon":-149.90028}},{"facility":"Fairbanks Memorial Hospital","city":"Fairbanks","state":"Alaska","zip":"99701","country":"United States","geoPoint":{"lat":64.83778,"lon":-147.71639}},{"facility":"Kingman Regional Medical Center","city":"Kingman","state":"Arizona","zip":"86401","country":"United States","geoPoint":{"lat":35.18944,"lon":-114.05301}},{"facility":"Mission Hope Medical Oncology - Arroyo Grande","city":"Arroyo Grande","state":"California","zip":"93420","country":"United States","geoPoint":{"lat":35.11859,"lon":-120.59073}},{"facility":"PCR Oncology","city":"Arroyo Grande","state":"California","zip":"93420","country":"United States","geoPoint":{"lat":35.11859,"lon":-120.59073}},{"facility":"UC San Diego Moores Cancer Center","city":"La Jolla","state":"California","zip":"92093","country":"United States","geoPoint":{"lat":32.84727,"lon":-117.2742}},{"facility":"Pacific Central Coast Health Center-San Luis Obispo","city":"San Luis Obispo","state":"California","zip":"93401","country":"United States","geoPoint":{"lat":35.28275,"lon":-120.65962}},{"facility":"Mission Hope Medical Oncology - Santa Maria","city":"Santa Maria","state":"California","zip":"93444","country":"United States","geoPoint":{"lat":34.95303,"lon":-120.43572}},{"facility":"Saint Helena Hospital","city":"St. Helena","state":"California","zip":"94574","country":"United States","geoPoint":{"lat":38.50519,"lon":-122.47026}},{"facility":"Rocky Mountain Cancer Centers-Aurora","city":"Aurora","state":"Colorado","zip":"80012","country":"United States","geoPoint":{"lat":39.72943,"lon":-104.83192}},{"facility":"The Medical Center of Aurora","city":"Aurora","state":"Colorado","zip":"80012","country":"United States","geoPoint":{"lat":39.72943,"lon":-104.83192}},{"facility":"Boulder Community Foothills Hospital","city":"Boulder","state":"Colorado","zip":"80303","country":"United States","geoPoint":{"lat":40.01499,"lon":-105.27055}},{"facility":"Rocky Mountain Cancer Centers-Boulder","city":"Boulder","state":"Colorado","zip":"80304","country":"United States","geoPoint":{"lat":40.01499,"lon":-105.27055}},{"facility":"Rocky Mountain Cancer Centers - Centennial","city":"Centennial","state":"Colorado","zip":"80112","country":"United States","geoPoint":{"lat":39.57916,"lon":-104.87692}},{"facility":"Penrose-Saint Francis Healthcare","city":"Colorado Springs","state":"Colorado","zip":"80907","country":"United States","geoPoint":{"lat":38.83388,"lon":-104.82136}},{"facility":"National Jewish Health-Main Campus","city":"Denver","state":"Colorado","zip":"80206","country":"United States","geoPoint":{"lat":39.73915,"lon":-104.9847}},{"facility":"The Women's Imaging Center","city":"Denver","state":"Colorado","zip":"80209","country":"United States","geoPoint":{"lat":39.73915,"lon":-104.9847}},{"facility":"Porter Adventist Hospital","city":"Denver","state":"Colorado","zip":"80210","country":"United States","geoPoint":{"lat":39.73915,"lon":-104.9847}},{"facility":"Colorado Blood Cancer Institute","city":"Denver","state":"Colorado","zip":"80218","country":"United States","geoPoint":{"lat":39.73915,"lon":-104.9847}},{"facility":"Presbyterian - Saint Lukes Medical Center - Health One","city":"Denver","state":"Colorado","zip":"80218","country":"United States","geoPoint":{"lat":39.73915,"lon":-104.9847}},{"facility":"Rocky Mountain Cancer Centers-Midtown","city":"Denver","state":"Colorado","zip":"80218","country":"United States","geoPoint":{"lat":39.73915,"lon":-104.9847}},{"facility":"SCL Health Saint Joseph Hospital","city":"Denver","state":"Colorado","zip":"80218","country":"United States","geoPoint":{"lat":39.73915,"lon":-104.9847}},{"facility":"Rocky Mountain Cancer Centers-Rose","city":"Denver","state":"Colorado","zip":"80220","country":"United States","geoPoint":{"lat":39.73915,"lon":-104.9847}},{"facility":"Rose Medical Center","city":"Denver","state":"Colorado","zip":"80220","country":"United States","geoPoint":{"lat":39.73915,"lon":-104.9847}},{"facility":"Western Surgical Care","city":"Denver","state":"Colorado","zip":"80220","country":"United States","geoPoint":{"lat":39.73915,"lon":-104.9847}},{"facility":"Mountain Blue Cancer Care Center - Swedish","city":"Englewood","state":"Colorado","zip":"80113","country":"United States","geoPoint":{"lat":39.64777,"lon":-104.98776}},{"facility":"Rocky Mountain Cancer Centers - Swedish","city":"Englewood","state":"Colorado","zip":"80113","country":"United States","geoPoint":{"lat":39.64777,"lon":-104.98776}},{"facility":"Swedish Medical Center","city":"Englewood","state":"Colorado","zip":"80113","country":"United States","geoPoint":{"lat":39.64777,"lon":-104.98776}},{"facility":"The Melanoma and Skin Cancer Institute","city":"Englewood","state":"Colorado","zip":"80113","country":"United States","geoPoint":{"lat":39.64777,"lon":-104.98776}},{"facility":"National Jewish Health-Western Hematology Oncology","city":"Golden","state":"Colorado","zip":"80401","country":"United States","geoPoint":{"lat":39.75554,"lon":-105.2211}},{"facility":"Saint Mary's Hospital and Regional Medical Center","city":"Grand Junction","state":"Colorado","zip":"81501","country":"United States","geoPoint":{"lat":39.06387,"lon":-108.55065}},{"facility":"North Colorado Medical Center","city":"Greeley","state":"Colorado","zip":"80631","country":"United States","geoPoint":{"lat":40.42331,"lon":-104.70913}},{"facility":"Rocky Mountain Cancer Centers-Lakewood","city":"Lakewood","state":"Colorado","zip":"80228","country":"United States","geoPoint":{"lat":39.70471,"lon":-105.08137}},{"facility":"Saint Anthony Hospital","city":"Lakewood","state":"Colorado","zip":"80228","country":"United States","geoPoint":{"lat":39.70471,"lon":-105.08137}},{"facility":"Rocky Mountain Cancer Centers-Littleton","city":"Littleton","state":"Colorado","zip":"80120","country":"United States","geoPoint":{"lat":39.61332,"lon":-105.01665}},{"facility":"Littleton Adventist Hospital","city":"Littleton","state":"Colorado","zip":"80122","country":"United States","geoPoint":{"lat":39.61332,"lon":-105.01665}},{"facility":"Rocky Mountain Cancer Centers-Sky Ridge","city":"Lone Tree","state":"Colorado","zip":"80124","country":"United States","geoPoint":{"lat":39.55171,"lon":-104.8863}},{"facility":"Sky Ridge Medical Center","city":"Lone Tree","state":"Colorado","zip":"80124","country":"United States","geoPoint":{"lat":39.55171,"lon":-104.8863}},{"facility":"Longmont United Hospital","city":"Longmont","state":"Colorado","zip":"80501","country":"United States","geoPoint":{"lat":40.16721,"lon":-105.10193}},{"facility":"McKee Medical Center","city":"Loveland","state":"Colorado","zip":"80539","country":"United States","geoPoint":{"lat":40.39776,"lon":-105.07498}},{"facility":"Parker Adventist Hospital","city":"Parker","state":"Colorado","zip":"80138","country":"United States","geoPoint":{"lat":39.5186,"lon":-104.76136}},{"facility":"Saint Mary Corwin Medical Center","city":"Pueblo","state":"Colorado","zip":"81004","country":"United States","geoPoint":{"lat":38.25445,"lon":-104.60914}},{"facility":"National Jewish Health-Northern Hematology Oncology","city":"Thornton","state":"Colorado","zip":"80260","country":"United States","geoPoint":{"lat":39.86804,"lon":-104.97192}},{"facility":"Rocky Mountain Cancer Centers-Thornton","city":"Thornton","state":"Colorado","zip":"80260","country":"United States","geoPoint":{"lat":39.86804,"lon":-104.97192}},{"facility":"SCL Health Lutheran Medical Center","city":"Wheat Ridge","state":"Colorado","zip":"80033","country":"United States","geoPoint":{"lat":39.7661,"lon":-105.07721}},{"facility":"Beebe South Coastal Health Campus","city":"Frankford","state":"Delaware","zip":"19945","country":"United States","geoPoint":{"lat":38.51734,"lon":-75.23491}},{"facility":"Beebe Medical Center","city":"Lewes","state":"Delaware","zip":"19958","country":"United States","geoPoint":{"lat":38.77456,"lon":-75.13935}},{"facility":"Delaware Clinical and Laboratory Physicians PA","city":"Newark","state":"Delaware","zip":"19713","country":"United States","geoPoint":{"lat":39.68372,"lon":-75.74966}},{"facility":"Helen F Graham Cancer Center","city":"Newark","state":"Delaware","zip":"19713","country":"United States","geoPoint":{"lat":39.68372,"lon":-75.74966}},{"facility":"Medical Oncology Hematology Consultants PA","city":"Newark","state":"Delaware","zip":"19713","country":"United States","geoPoint":{"lat":39.68372,"lon":-75.74966}},{"facility":"Christiana Care Health System-Christiana Hospital","city":"Newark","state":"Delaware","zip":"19718","country":"United States","geoPoint":{"lat":39.68372,"lon":-75.74966}},{"facility":"Beebe Health Campus","city":"Rehoboth Beach","state":"Delaware","zip":"19971","country":"United States","geoPoint":{"lat":38.72095,"lon":-75.07601}},{"facility":"Christiana Care Health System-Wilmington Hospital","city":"Wilmington","state":"Delaware","zip":"19801","country":"United States","geoPoint":{"lat":39.74595,"lon":-75.54659}},{"facility":"Morton Plant Hospital","city":"Clearwater","state":"Florida","zip":"33756","country":"United States","geoPoint":{"lat":27.96585,"lon":-82.8001}},{"facility":"South Florida Baptist Hospital","city":"Plant City","state":"Florida","zip":"33563","country":"United States","geoPoint":{"lat":28.01888,"lon":-82.11469}},{"facility":"Saint Anthony's Hospital Cancer Care Center","city":"St. Petersburg","state":"Florida","zip":"33705","country":"United States","geoPoint":{"lat":27.77086,"lon":-82.67927}},{"facility":"Moffitt Cancer Center-International Plaza","city":"Tampa","state":"Florida","zip":"33607","country":"United States","geoPoint":{"lat":27.94752,"lon":-82.45843}},{"facility":"Saint Joseph's Hospital/Children's Hospital-Tampa","city":"Tampa","state":"Florida","zip":"33607","country":"United States","geoPoint":{"lat":27.94752,"lon":-82.45843}},{"facility":"Moffitt Cancer Center - McKinley Campus","city":"Tampa","state":"Florida","zip":"33612","country":"United States","geoPoint":{"lat":27.94752,"lon":-82.45843}},{"facility":"Moffitt Cancer Center","city":"Tampa","state":"Florida","zip":"33612","country":"United States","geoPoint":{"lat":27.94752,"lon":-82.45843}},{"facility":"Moffitt Cancer Center at Wesley Chapel","city":"Wesley Chapel","state":"Florida","zip":"33544","country":"United States","geoPoint":{"lat":28.23973,"lon":-82.32787}},{"facility":"Winter Haven Hospital","city":"Winter Haven","state":"Florida","zip":"33881","country":"United States","geoPoint":{"lat":28.02224,"lon":-81.73286}},{"facility":"Lewis Cancer and Research Pavilion at Saint Joseph's/Candler","city":"Savannah","state":"Georgia","zip":"31405","country":"United States","geoPoint":{"lat":32.08354,"lon":-81.09983}},{"facility":"Saint Alphonsus Cancer Care Center-Boise","city":"Boise","state":"Idaho","zip":"83706","country":"United States","geoPoint":{"lat":43.6135,"lon":-116.20345}},{"facility":"Saint Luke's Cancer Institute - Boise","city":"Boise","state":"Idaho","zip":"83712","country":"United States","geoPoint":{"lat":43.6135,"lon":-116.20345}},{"facility":"Saint Alphonsus Cancer Care Center-Caldwell","city":"Caldwell","state":"Idaho","zip":"83605","country":"United States","geoPoint":{"lat":43.66294,"lon":-116.68736}},{"facility":"Kootenai Health - Coeur d'Alene","city":"Coeur d'Alene","state":"Idaho","zip":"83814","country":"United States","geoPoint":{"lat":47.67768,"lon":-116.78047}},{"facility":"Walter Knox Memorial Hospital","city":"Emmett","state":"Idaho","zip":"83617","country":"United States","geoPoint":{"lat":43.8735,"lon":-116.4993}},{"facility":"Saint Luke's Cancer Institute - Fruitland","city":"Fruitland","state":"Idaho","zip":"83619","country":"United States","geoPoint":{"lat":44.00766,"lon":-116.91655}},{"facility":"Idaho Urologic Institute-Meridian","city":"Meridian","state":"Idaho","zip":"83642","country":"United States","geoPoint":{"lat":43.61211,"lon":-116.39151}},{"facility":"Saint Luke's Cancer Institute - Meridian","city":"Meridian","state":"Idaho","zip":"83642","country":"United States","geoPoint":{"lat":43.61211,"lon":-116.39151}},{"facility":"Saint Luke's Cancer Institute - Nampa","city":"Nampa","state":"Idaho","zip":"83686","country":"United States","geoPoint":{"lat":43.54072,"lon":-116.56346}},{"facility":"Saint Alphonsus Cancer Care Center-Nampa","city":"Nampa","state":"Idaho","zip":"83687","country":"United States","geoPoint":{"lat":43.54072,"lon":-116.56346}},{"facility":"Kootenai Clinic Cancer Services - Post Falls","city":"Post Falls","state":"Idaho","zip":"83854","country":"United States","geoPoint":{"lat":47.71796,"lon":-116.95159}},{"facility":"Kootenai Cancer Clinic","city":"Sandpoint","state":"Idaho","zip":"83864","country":"United States","geoPoint":{"lat":48.27659,"lon":-116.55325}},{"facility":"Saint Luke's Cancer Institute - Twin Falls","city":"Twin Falls","state":"Idaho","zip":"83301","country":"United States","geoPoint":{"lat":42.56297,"lon":-114.46087}},{"facility":"Rush - Copley Medical Center","city":"Aurora","state":"Illinois","zip":"60504","country":"United States","geoPoint":{"lat":41.76058,"lon":-88.32007}},{"facility":"Centralia Oncology Clinic","city":"Centralia","state":"Illinois","zip":"62801","country":"United States","geoPoint":{"lat":38.52505,"lon":-89.1334}},{"facility":"Saint Mary's Hospital","city":"Centralia","state":"Illinois","zip":"62801","country":"United States","geoPoint":{"lat":38.52505,"lon":-89.1334}},{"facility":"Jesse Brown Veterans Affairs Medical Center","city":"Chicago","state":"Illinois","zip":"60612","country":"United States","geoPoint":{"lat":41.85003,"lon":-87.65005}},{"facility":"University of Illinois","city":"Chicago","state":"Illinois","zip":"60612","country":"United States","geoPoint":{"lat":41.85003,"lon":-87.65005}},{"facility":"Carle at The Riverfront","city":"Danville","state":"Illinois","zip":"61832","country":"United States","geoPoint":{"lat":40.12448,"lon":-87.63002}},{"facility":"Cancer Care Specialists of Illinois - Decatur","city":"Decatur","state":"Illinois","zip":"62526","country":"United States","geoPoint":{"lat":39.84031,"lon":-88.9548}},{"facility":"Decatur Memorial Hospital","city":"Decatur","state":"Illinois","zip":"62526","country":"United States","geoPoint":{"lat":39.84031,"lon":-88.9548}},{"facility":"Carle Physician Group-Effingham","city":"Effingham","state":"Illinois","zip":"62401","country":"United States","geoPoint":{"lat":39.12004,"lon":-88.54338}},{"facility":"Crossroads Cancer Center","city":"Effingham","state":"Illinois","zip":"62401","country":"United States","geoPoint":{"lat":39.12004,"lon":-88.54338}},{"facility":"Ingalls Memorial Hospital","city":"Harvey","state":"Illinois","zip":"60426","country":"United States","geoPoint":{"lat":41.61003,"lon":-87.64671}},{"facility":"Duly Health and Care Joliet","city":"Joliet","state":"Illinois","zip":"60435","country":"United States","geoPoint":{"lat":41.52519,"lon":-88.0834}},{"facility":"Good Samaritan Regional Health Center","city":"Mount Vernon","state":"Illinois","zip":"62864","country":"United States","geoPoint":{"lat":38.31727,"lon":-88.90312}},{"facility":"Cancer Care Center of O'Fallon","city":"O'Fallon","state":"Illinois","zip":"62269","country":"United States","geoPoint":{"lat":38.59227,"lon":-89.91121}},{"facility":"West Suburban Medical Center","city":"River Forest","state":"Illinois","zip":"60305","country":"United States","geoPoint":{"lat":41.89781,"lon":-87.81395}},{"facility":"Southern Illinois University School of Medicine","city":"Springfield","state":"Illinois","zip":"62702","country":"United States","geoPoint":{"lat":39.80172,"lon":-89.64371}},{"facility":"Springfield Clinic","city":"Springfield","state":"Illinois","zip":"62702","country":"United States","geoPoint":{"lat":39.80172,"lon":-89.64371}},{"facility":"Memorial Medical Center","city":"Springfield","state":"Illinois","zip":"62781","country":"United States","geoPoint":{"lat":39.80172,"lon":-89.64371}},{"facility":"Carle Cancer Center","city":"Urbana","state":"Illinois","zip":"61801","country":"United States","geoPoint":{"lat":40.11059,"lon":-88.20727}},{"facility":"The Carle Foundation Hospital","city":"Urbana","state":"Illinois","zip":"61801","country":"United States","geoPoint":{"lat":40.11059,"lon":-88.20727}},{"facility":"Rush-Copley Healthcare Center","city":"Yorkville","state":"Illinois","zip":"60560","country":"United States","geoPoint":{"lat":41.64114,"lon":-88.44729}},{"facility":"Reid Health","city":"Richmond","state":"Indiana","zip":"47374","country":"United States","geoPoint":{"lat":39.82894,"lon":-84.89024}},{"facility":"Mary Greeley Medical Center","city":"Ames","state":"Iowa","zip":"50010","country":"United States","geoPoint":{"lat":42.03471,"lon":-93.61994}},{"facility":"McFarland Clinic - Ames","city":"Ames","state":"Iowa","zip":"50010","country":"United States","geoPoint":{"lat":42.03471,"lon":-93.61994}},{"facility":"McFarland Clinic - Boone","city":"Boone","state":"Iowa","zip":"50036","country":"United States","geoPoint":{"lat":42.0597,"lon":-93.88023}},{"facility":"Saint Anthony Regional Hospital","city":"Carroll","state":"Iowa","zip":"51401","country":"United States","geoPoint":{"lat":42.06582,"lon":-94.86693}},{"facility":"Physicians' Clinic of Iowa PC","city":"Cedar Rapids","state":"Iowa","zip":"52402","country":"United States","geoPoint":{"lat":42.00833,"lon":-91.64407}},{"facility":"Medical Oncology and Hematology Associates-West Des Moines","city":"Clive","state":"Iowa","zip":"50325","country":"United States","geoPoint":{"lat":41.60304,"lon":-93.72411}},{"facility":"Mercy Cancer Center-West Lakes","city":"Clive","state":"Iowa","zip":"50325","country":"United States","geoPoint":{"lat":41.60304,"lon":-93.72411}},{"facility":"Jennie Edmundson Memorial Hospital","city":"Council Bluffs","state":"Iowa","zip":"51502","country":"United States","geoPoint":{"lat":41.26194,"lon":-95.86083}},{"facility":"Heartland Oncology and Hematology LLP","city":"Council Bluffs","state":"Iowa","zip":"51503","country":"United States","geoPoint":{"lat":41.26194,"lon":-95.86083}},{"facility":"Greater Regional Medical Center","city":"Creston","state":"Iowa","zip":"50801","country":"United States","geoPoint":{"lat":41.0586,"lon":-94.36135}},{"facility":"Iowa Methodist Medical Center","city":"Des Moines","state":"Iowa","zip":"50309","country":"United States","geoPoint":{"lat":41.60054,"lon":-93.60911}},{"facility":"Medical Oncology and Hematology Associates-Des Moines","city":"Des Moines","state":"Iowa","zip":"50309","country":"United States","geoPoint":{"lat":41.60054,"lon":-93.60911}},{"facility":"Broadlawns Medical Center","city":"Des Moines","state":"Iowa","zip":"50314","country":"United States","geoPoint":{"lat":41.60054,"lon":-93.60911}},{"facility":"Mercy Medical Center - Des Moines","city":"Des Moines","state":"Iowa","zip":"50314","country":"United States","geoPoint":{"lat":41.60054,"lon":-93.60911}},{"facility":"Mission Cancer and Blood - Laurel","city":"Des Moines","state":"Iowa","zip":"50314","country":"United States","geoPoint":{"lat":41.60054,"lon":-93.60911}},{"facility":"Iowa Lutheran Hospital","city":"Des Moines","state":"Iowa","zip":"50316","country":"United States","geoPoint":{"lat":41.60054,"lon":-93.60911}},{"facility":"McFarland Clinic - Trinity Cancer Center","city":"Fort Dodge","state":"Iowa","zip":"50501","country":"United States","geoPoint":{"lat":42.49747,"lon":-94.16802}},{"facility":"Trinity Regional Medical Center","city":"Fort Dodge","state":"Iowa","zip":"50501","country":"United States","geoPoint":{"lat":42.49747,"lon":-94.16802}},{"facility":"McFarland Clinic - Jefferson","city":"Jefferson","state":"Iowa","zip":"50129","country":"United States","geoPoint":{"lat":42.01526,"lon":-94.37747}},{"facility":"McFarland Clinic - Marshalltown","city":"Marshalltown","state":"Iowa","zip":"50158","country":"United States","geoPoint":{"lat":42.04943,"lon":-92.90798}},{"facility":"Methodist West Hospital","city":"West Des Moines","state":"Iowa","zip":"50266-7700","country":"United States","geoPoint":{"lat":41.57721,"lon":-93.71133}},{"facility":"Mercy Medical Center-West Lakes","city":"West Des Moines","state":"Iowa","zip":"50266","country":"United States","geoPoint":{"lat":41.57721,"lon":-93.71133}},{"facility":"Ochsner LSU Health Monroe Medical Center","city":"Monroe","state":"Louisiana","zip":"71202","country":"United States","geoPoint":{"lat":32.50931,"lon":-92.1193}},{"facility":"Louisiana State University Health Science Center","city":"New Orleans","state":"Louisiana","zip":"70112","country":"United States","geoPoint":{"lat":29.95465,"lon":-90.07507}},{"facility":"University Medical Center New Orleans","city":"New Orleans","state":"Louisiana","zip":"70112","country":"United States","geoPoint":{"lat":29.95465,"lon":-90.07507}},{"facility":"Ochsner LSU Health Saint Mary's Medical Center","city":"Shreveport","state":"Louisiana","zip":"71101","country":"United States","geoPoint":{"lat":32.52515,"lon":-93.75018}},{"facility":"LSU Health Sciences Center at Shreveport","city":"Shreveport","state":"Louisiana","zip":"71103","country":"United States","geoPoint":{"lat":32.52515,"lon":-93.75018}},{"facility":"Harold Alfond Center for Cancer Care","city":"Augusta","state":"Maine","zip":"04330","country":"United States","geoPoint":{"lat":44.31062,"lon":-69.77949}},{"facility":"MaineHealth/SMHC Cancer Care and Blood Disorders-Biddeford","city":"Biddeford","state":"Maine","zip":"04005","country":"United States","geoPoint":{"lat":43.49258,"lon":-70.45338}},{"facility":"MaineHealth/SMHC Cancer Care and Blood Disorders-Sanford","city":"Sanford","state":"Maine","zip":"04073","country":"United States","geoPoint":{"lat":43.43925,"lon":-70.77422}},{"facility":"Maine Medical Partners - South Portland","city":"South Portland","state":"Maine","zip":"04106","country":"United States","geoPoint":{"lat":43.64147,"lon":-70.24088}},{"facility":"Sinai Hospital of Baltimore","city":"Baltimore","state":"Maryland","zip":"21215","country":"United States","geoPoint":{"lat":39.29038,"lon":-76.61219}},{"facility":"Saint Agnes Hospital","city":"Baltimore","state":"Maryland","zip":"21229","country":"United States","geoPoint":{"lat":39.29038,"lon":-76.61219}},{"facility":"Walter Reed National Military Medical Center","city":"Bethesda","state":"Maryland","zip":"20889-5600","country":"United States","geoPoint":{"lat":38.98067,"lon":-77.10026}},{"facility":"Northwest Hospital Center","city":"Randallstown","state":"Maryland","zip":"21133","country":"United States","geoPoint":{"lat":39.36733,"lon":-76.79525}},{"facility":"William E Kahlert Regional Cancer Center/Sinai Hospital","city":"Westminster","state":"Maryland","zip":"21157","country":"United States","geoPoint":{"lat":39.57538,"lon":-76.99581}},{"facility":"Baystate Medical Center","city":"Springfield","state":"Massachusetts","zip":"01199","country":"United States","geoPoint":{"lat":42.10148,"lon":-72.58981}},{"facility":"Hickman Cancer Center","city":"Adrian","state":"Michigan","zip":"49221","country":"United States","geoPoint":{"lat":41.89755,"lon":-84.03717}},{"facility":"Saint Joseph Mercy Hospital","city":"Ann Arbor","state":"Michigan","zip":"48106","country":"United States","geoPoint":{"lat":42.27756,"lon":-83.74088}},{"facility":"Bronson Battle Creek","city":"Battle Creek","state":"Michigan","zip":"49017","country":"United States","geoPoint":{"lat":42.3173,"lon":-85.17816}},{"facility":"Saint Joseph Mercy Brighton","city":"Brighton","state":"Michigan","zip":"48114","country":"United States","geoPoint":{"lat":42.52948,"lon":-83.78022}},{"facility":"Trinity Health IHA Medical Group Hematology Oncology - Brighton","city":"Brighton","state":"Michigan","zip":"48114","country":"United States","geoPoint":{"lat":42.52948,"lon":-83.78022}},{"facility":"Saint Joseph Mercy Canton","city":"Canton","state":"Michigan","zip":"48188","country":"United States","geoPoint":{"lat":42.30865,"lon":-83.48216}},{"facility":"Trinity Health IHA Medical Group Hematology Oncology - Canton","city":"Canton","state":"Michigan","zip":"48188","country":"United States","geoPoint":{"lat":42.30865,"lon":-83.48216}},{"facility":"Saint Joseph Mercy Chelsea","city":"Chelsea","state":"Michigan","zip":"48118","country":"United States","geoPoint":{"lat":42.31807,"lon":-84.02181}},{"facility":"Trinity Health IHA Medical Group Hematology Oncology - Chelsea Hospital","city":"Chelsea","state":"Michigan","zip":"48118","country":"United States","geoPoint":{"lat":42.31807,"lon":-84.02181}},{"facility":"Hematology Oncology Consultants-Clarkston","city":"Clarkston","state":"Michigan","zip":"48346","country":"United States","geoPoint":{"lat":42.73586,"lon":-83.41883}},{"facility":"Newland Medical Associates-Clarkston","city":"Clarkston","state":"Michigan","zip":"48346","country":"United States","geoPoint":{"lat":42.73586,"lon":-83.41883}},{"facility":"Ascension Saint John Hospital","city":"Detroit","state":"Michigan","zip":"48236","country":"United States","geoPoint":{"lat":42.33143,"lon":-83.04575}},{"facility":"Great Lakes Cancer Management Specialists-Doctors Park","city":"East China Township","state":"Michigan","zip":"48054","country":"United States"},{"facility":"Genesee Cancer and Blood Disease Treatment Center","city":"Flint","state":"Michigan","zip":"48503","country":"United States","geoPoint":{"lat":43.01253,"lon":-83.68746}},{"facility":"Genesee Hematology Oncology PC","city":"Flint","state":"Michigan","zip":"48503","country":"United States","geoPoint":{"lat":43.01253,"lon":-83.68746}},{"facility":"Genesys Hurley Cancer Institute","city":"Flint","state":"Michigan","zip":"48503","country":"United States","geoPoint":{"lat":43.01253,"lon":-83.68746}},{"facility":"Hurley Medical Center","city":"Flint","state":"Michigan","zip":"48503","country":"United States","geoPoint":{"lat":43.01253,"lon":-83.68746}},{"facility":"Spectrum Health at Butterworth Campus","city":"Grand Rapids","state":"Michigan","zip":"49503","country":"United States","geoPoint":{"lat":42.96336,"lon":-85.66809}},{"facility":"Trinity Health Grand Rapids Hospital","city":"Grand Rapids","state":"Michigan","zip":"49503","country":"United States","geoPoint":{"lat":42.96336,"lon":-85.66809}},{"facility":"Academic Hematology Oncology Specialists","city":"Grosse Pointe Woods","state":"Michigan","zip":"48236","country":"United States","geoPoint":{"lat":42.44365,"lon":-82.90686}},{"facility":"Great Lakes Cancer Management Specialists-Van Elslander Cancer Center","city":"Grosse Pointe Woods","state":"Michigan","zip":"48236","country":"United States","geoPoint":{"lat":42.44365,"lon":-82.90686}},{"facility":"Michigan Breast Specialists-Grosse Pointe Woods","city":"Grosse Pointe Woods","state":"Michigan","zip":"48236","country":"United States","geoPoint":{"lat":42.44365,"lon":-82.90686}},{"facility":"Bronson Methodist Hospital","city":"Kalamazoo","state":"Michigan","zip":"49007","country":"United States","geoPoint":{"lat":42.29171,"lon":-85.58723}},{"facility":"West Michigan Cancer Center","city":"Kalamazoo","state":"Michigan","zip":"49007","country":"United States","geoPoint":{"lat":42.29171,"lon":-85.58723}},{"facility":"Ascension Borgess Cancer Center","city":"Kalamazoo","state":"Michigan","zip":"49009","country":"United States","geoPoint":{"lat":42.29171,"lon":-85.58723}},{"facility":"Borgess Medical Center","city":"Kalamazoo","state":"Michigan","zip":"49048","country":"United States","geoPoint":{"lat":42.29171,"lon":-85.58723}},{"facility":"Sparrow Hospital","city":"Lansing","state":"Michigan","zip":"48912","country":"United States","geoPoint":{"lat":42.73253,"lon":-84.55553}},{"facility":"Hope Cancer Clinic","city":"Livonia","state":"Michigan","zip":"48154","country":"United States","geoPoint":{"lat":42.36837,"lon":-83.35271}},{"facility":"Trinity Health Saint Mary Mercy Livonia Hospital","city":"Livonia","state":"Michigan","zip":"48154","country":"United States","geoPoint":{"lat":42.36837,"lon":-83.35271}},{"facility":"Great Lakes Cancer Management Specialists-Macomb Medical Campus","city":"Macomb","state":"Michigan","zip":"48044","country":"United States","geoPoint":{"lat":42.70087,"lon":-82.95909}},{"facility":"Michigan Breast Specialists-Macomb Township","city":"Macomb","state":"Michigan","zip":"48044","country":"United States","geoPoint":{"lat":42.70087,"lon":-82.95909}},{"facility":"Toledo Clinic Cancer Centers-Monroe","city":"Monroe","state":"Michigan","zip":"48162","country":"United States","geoPoint":{"lat":41.91643,"lon":-83.39771}},{"facility":"Trinity Health Muskegon Hospital","city":"Muskegon","state":"Michigan","zip":"49444","country":"United States","geoPoint":{"lat":43.23418,"lon":-86.24839}},{"facility":"Cancer and Hematology Centers of Western Michigan - Norton Shores","city":"Norton Shores","state":"Michigan","zip":"49444","country":"United States","geoPoint":{"lat":43.1689,"lon":-86.26395}},{"facility":"Ascension Providence Hospitals - Novi","city":"Novi","state":"Michigan","zip":"48374","country":"United States","geoPoint":{"lat":42.48059,"lon":-83.47549}},{"facility":"21st Century Oncology-Pontiac","city":"Pontiac","state":"Michigan","zip":"48341","country":"United States","geoPoint":{"lat":42.63892,"lon":-83.29105}},{"facility":"Hope Cancer Center","city":"Pontiac","state":"Michigan","zip":"48341","country":"United States","geoPoint":{"lat":42.63892,"lon":-83.29105}},{"facility":"Newland Medical Associates-Pontiac","city":"Pontiac","state":"Michigan","zip":"48341","country":"United States","geoPoint":{"lat":42.63892,"lon":-83.29105}},{"facility":"Saint Joseph Mercy Oakland","city":"Pontiac","state":"Michigan","zip":"48341","country":"United States","geoPoint":{"lat":42.63892,"lon":-83.29105}},{"facility":"Spectrum Health Reed City Hospital","city":"Reed City","state":"Michigan","zip":"49677","country":"United States","geoPoint":{"lat":43.87502,"lon":-85.51005}},{"facility":"Ascension Saint Mary's Hospital","city":"Saginaw","state":"Michigan","zip":"48601","country":"United States","geoPoint":{"lat":43.41947,"lon":-83.95081}},{"facility":"Lakeland Medical Center Saint Joseph","city":"Saint Joseph","state":"Michigan","zip":"49085","country":"United States","geoPoint":{"lat":42.10976,"lon":-86.48002}},{"facility":"Marie Yeager Cancer Center","city":"Saint Joseph","state":"Michigan","zip":"49085","country":"United States","geoPoint":{"lat":42.10976,"lon":-86.48002}},{"facility":"Ascension Providence Hospitals - Southfield","city":"Southfield","state":"Michigan","zip":"48075","country":"United States","geoPoint":{"lat":42.47337,"lon":-83.22187}},{"facility":"Bhadresh Nayak MD PC-Sterling Heights","city":"Sterling Heights","state":"Michigan","zip":"48312","country":"United States","geoPoint":{"lat":42.58031,"lon":-83.0302}},{"facility":"Advanced Breast Care Center PLLC","city":"Warren","state":"Michigan","zip":"48088","country":"United States","geoPoint":{"lat":42.49044,"lon":-83.01304}},{"facility":"Great Lakes Cancer Management Specialists-Macomb Professional Building","city":"Warren","state":"Michigan","zip":"48093","country":"United States","geoPoint":{"lat":42.49044,"lon":-83.01304}},{"facility":"Macomb Hematology Oncology PC","city":"Warren","state":"Michigan","zip":"48093","country":"United States","geoPoint":{"lat":42.49044,"lon":-83.01304}},{"facility":"Michigan Breast Specialists-Warren","city":"Warren","state":"Michigan","zip":"48093","country":"United States","geoPoint":{"lat":42.49044,"lon":-83.01304}},{"facility":"Saint John Macomb-Oakland Hospital","city":"Warren","state":"Michigan","zip":"48093","country":"United States","geoPoint":{"lat":42.49044,"lon":-83.01304}},{"facility":"Huron Gastroenterology PC","city":"Ypsilanti","state":"Michigan","zip":"48106","country":"United States","geoPoint":{"lat":42.24115,"lon":-83.61299}},{"facility":"Trinity Health IHA Medical Group Hematology Oncology Ann Arbor Campus","city":"Ypsilanti","state":"Michigan","zip":"48197","country":"United States","geoPoint":{"lat":42.24115,"lon":-83.61299}},{"facility":"Riverwood Healthcare Center","city":"Aitkin","state":"Minnesota","zip":"56431","country":"United States","geoPoint":{"lat":46.53301,"lon":-93.71025}},{"facility":"Essentia Health - Baxter Clinic","city":"Baxter","state":"Minnesota","zip":"56425","country":"United States","geoPoint":{"lat":46.3433,"lon":-94.28667}},{"facility":"Essentia Health Saint Joseph's Medical Center","city":"Brainerd","state":"Minnesota","zip":"56401","country":"United States","geoPoint":{"lat":46.35802,"lon":-94.20083}},{"facility":"Fairview Ridges Hospital","city":"Burnsville","state":"Minnesota","zip":"55337","country":"United States","geoPoint":{"lat":44.76774,"lon":-93.27772}},{"facility":"Minnesota Oncology - Burnsville","city":"Burnsville","state":"Minnesota","zip":"55337","country":"United States","geoPoint":{"lat":44.76774,"lon":-93.27772}},{"facility":"Cambridge Medical Center","city":"Cambridge","state":"Minnesota","zip":"55008","country":"United States","geoPoint":{"lat":45.57274,"lon":-93.22439}},{"facility":"Mercy Hospital","city":"Coon Rapids","state":"Minnesota","zip":"55433","country":"United States","geoPoint":{"lat":45.11997,"lon":-93.28773}},{"facility":"Essentia Health - Deer River Clinic","city":"Deer River","state":"Minnesota","zip":"56636","country":"United States","geoPoint":{"lat":47.333,"lon":-93.79272}},{"facility":"Essentia Health Saint Mary's - Detroit Lakes Clinic","city":"Detroit Lakes","state":"Minnesota","zip":"56501","country":"United States","geoPoint":{"lat":46.81718,"lon":-95.84533}},{"facility":"Essentia Health Cancer Center","city":"Duluth","state":"Minnesota","zip":"55805","country":"United States","geoPoint":{"lat":46.78327,"lon":-92.10658}},{"facility":"Essentia Health Saint Mary's Medical Center","city":"Duluth","state":"Minnesota","zip":"55805","country":"United States","geoPoint":{"lat":46.78327,"lon":-92.10658}},{"facility":"Miller-Dwan Hospital","city":"Duluth","state":"Minnesota","zip":"55805","country":"United States","geoPoint":{"lat":46.78327,"lon":-92.10658}},{"facility":"Fairview Southdale Hospital","city":"Edina","state":"Minnesota","zip":"55435","country":"United States","geoPoint":{"lat":44.88969,"lon":-93.34995}},{"facility":"Essentia Health - Ely Clinic","city":"Ely","state":"Minnesota","zip":"55731","country":"United States","geoPoint":{"lat":47.90324,"lon":-91.86709}},{"facility":"Lake Region Healthcare Corporation-Cancer Care","city":"Fergus Falls","state":"Minnesota","zip":"56537","country":"United States","geoPoint":{"lat":46.28302,"lon":-96.07756}},{"facility":"Essentia Health - Fosston","city":"Fosston","state":"Minnesota","zip":"56542","country":"United States","geoPoint":{"lat":47.57635,"lon":-95.75141}},{"facility":"Unity Hospital","city":"Fridley","state":"Minnesota","zip":"55432","country":"United States","geoPoint":{"lat":45.08608,"lon":-93.26328}},{"facility":"Essentia Health Hibbing Clinic","city":"Hibbing","state":"Minnesota","zip":"55746","country":"United States","geoPoint":{"lat":47.42715,"lon":-92.93769}},{"facility":"Essentia Health - International Falls Clinic","city":"International Falls","state":"Minnesota","zip":"56649","country":"United States","geoPoint":{"lat":48.60105,"lon":-93.41098}},{"facility":"Fairview Clinics and Surgery Center Maple Grove","city":"Maple Grove","state":"Minnesota","zip":"55369","country":"United States","geoPoint":{"lat":45.07246,"lon":-93.45579}},{"facility":"Minnesota Oncology Hematology PA-Maplewood","city":"Maplewood","state":"Minnesota","zip":"55109","country":"United States","geoPoint":{"lat":44.95302,"lon":-92.99522}},{"facility":"Saint John's Hospital - Healtheast","city":"Maplewood","state":"Minnesota","zip":"55109","country":"United States","geoPoint":{"lat":44.95302,"lon":-92.99522}},{"facility":"Abbott-Northwestern Hospital","city":"Minneapolis","state":"Minnesota","zip":"55407","country":"United States","geoPoint":{"lat":44.97997,"lon":-93.26384}},{"facility":"Hennepin County Medical Center","city":"Minneapolis","state":"Minnesota","zip":"55415","country":"United States","geoPoint":{"lat":44.97997,"lon":-93.26384}},{"facility":"Health Partners Inc","city":"Minneapolis","state":"Minnesota","zip":"55454","country":"United States","geoPoint":{"lat":44.97997,"lon":-93.26384}},{"facility":"Monticello Cancer Center","city":"Monticello","state":"Minnesota","zip":"55362","country":"United States","geoPoint":{"lat":45.30552,"lon":-93.79414}},{"facility":"Essentia Health - Moose Lake Clinic","city":"Moose Lake","state":"Minnesota","zip":"55767","country":"United States","geoPoint":{"lat":46.45411,"lon":-92.76187}},{"facility":"New Ulm Medical Center","city":"New Ulm","state":"Minnesota","zip":"56073","country":"United States","geoPoint":{"lat":44.31246,"lon":-94.46053}},{"facility":"Essentia Health - Park Rapids","city":"Park Rapids","state":"Minnesota","zip":"56470","country":"United States","geoPoint":{"lat":46.92218,"lon":-95.05863}},{"facility":"Fairview Northland Medical Center","city":"Princeton","state":"Minnesota","zip":"55371","country":"United States","geoPoint":{"lat":45.56997,"lon":-93.58163}},{"facility":"North Memorial Medical Health Center","city":"Robbinsdale","state":"Minnesota","zip":"55422","country":"United States","geoPoint":{"lat":45.03219,"lon":-93.33856}},{"facility":"Coborn Cancer Center at Saint Cloud Hospital","city":"Saint Cloud","state":"Minnesota","zip":"56303","country":"United States","geoPoint":{"lat":45.5608,"lon":-94.16249}},{"facility":"Park Nicollet Clinic - Saint Louis Park","city":"Saint Louis Park","state":"Minnesota","zip":"55416","country":"United States","geoPoint":{"lat":44.9483,"lon":-93.34801}},{"facility":"Regions Hospital","city":"Saint Paul","state":"Minnesota","zip":"55101","country":"United States","geoPoint":{"lat":44.94441,"lon":-93.09327}},{"facility":"United Hospital","city":"Saint Paul","state":"Minnesota","zip":"55102","country":"United States","geoPoint":{"lat":44.94441,"lon":-93.09327}},{"facility":"Essentia Health Sandstone","city":"Sandstone","state":"Minnesota","zip":"55072","country":"United States","geoPoint":{"lat":46.13106,"lon":-92.86742}},{"facility":"Saint Francis Regional Medical Center","city":"Shakopee","state":"Minnesota","zip":"55379","country":"United States","geoPoint":{"lat":44.79802,"lon":-93.5269}},{"facility":"Lakeview Hospital","city":"Stillwater","state":"Minnesota","zip":"55082","country":"United States","geoPoint":{"lat":45.05636,"lon":-92.80604}},{"facility":"Essentia Health Virginia Clinic","city":"Virginia","state":"Minnesota","zip":"55792","country":"United States","geoPoint":{"lat":47.52326,"lon":-92.53657}},{"facility":"Ridgeview Medical Center","city":"Waconia","state":"Minnesota","zip":"55387","country":"United States","geoPoint":{"lat":44.8508,"lon":-93.78691}},{"facility":"Rice Memorial Hospital","city":"Willmar","state":"Minnesota","zip":"56201","country":"United States","geoPoint":{"lat":45.12191,"lon":-95.04334}},{"facility":"Minnesota Oncology Hematology PA-Woodbury","city":"Woodbury","state":"Minnesota","zip":"55125","country":"United States","geoPoint":{"lat":44.92386,"lon":-92.95938}},{"facility":"Fairview Lakes Medical Center","city":"Wyoming","state":"Minnesota","zip":"55092","country":"United States","geoPoint":{"lat":45.33636,"lon":-92.99716}},{"facility":"Saint Louis Cancer and Breast Institute-Ballwin","city":"Ballwin","state":"Missouri","zip":"63011","country":"United States","geoPoint":{"lat":38.59505,"lon":-90.54623}},{"facility":"Saint Francis Medical Center","city":"Cape Girardeau","state":"Missouri","zip":"63703","country":"United States","geoPoint":{"lat":37.30588,"lon":-89.51815}},{"facility":"Southeast Cancer Center","city":"Cape Girardeau","state":"Missouri","zip":"63703","country":"United States","geoPoint":{"lat":37.30588,"lon":-89.51815}},{"facility":"Siteman Cancer Center at Saint Peters Hospital","city":"City of Saint Peters","state":"Missouri","zip":"63376","country":"United States","geoPoint":{"lat":38.80033,"lon":-90.62651}},{"facility":"Siteman Cancer Center at West County Hospital","city":"Creve Coeur","state":"Missouri","zip":"63141","country":"United States","geoPoint":{"lat":38.66089,"lon":-90.42262}},{"facility":"Parkland Health Center - Farmington","city":"Farmington","state":"Missouri","zip":"63640","country":"United States","geoPoint":{"lat":37.78088,"lon":-90.42179}},{"facility":"Freeman Health System","city":"Joplin","state":"Missouri","zip":"64804","country":"United States","geoPoint":{"lat":37.08423,"lon":-94.51328}},{"facility":"Mercy Hospital Joplin","city":"Joplin","state":"Missouri","zip":"64804","country":"United States","geoPoint":{"lat":37.08423,"lon":-94.51328}},{"facility":"Delbert Day Cancer Institute at PCRMC","city":"Rolla","state":"Missouri","zip":"65401","country":"United States","geoPoint":{"lat":37.95143,"lon":-91.77127}},{"facility":"Mercy Clinic-Rolla-Cancer and Hematology","city":"Rolla","state":"Missouri","zip":"65401","country":"United States","geoPoint":{"lat":37.95143,"lon":-91.77127}},{"facility":"Heartland Regional Medical Center","city":"Saint Joseph","state":"Missouri","zip":"64506","country":"United States","geoPoint":{"lat":39.76861,"lon":-94.84663}},{"facility":"Sainte Genevieve County Memorial Hospital","city":"Sainte Genevieve","state":"Missouri","zip":"63670","country":"United States","geoPoint":{"lat":37.98144,"lon":-90.04178}},{"facility":"Mercy Hospital Springfield","city":"Springfield","state":"Missouri","zip":"65804","country":"United States","geoPoint":{"lat":37.21533,"lon":-93.29824}},{"facility":"CoxHealth South Hospital","city":"Springfield","state":"Missouri","zip":"65807","country":"United States","geoPoint":{"lat":37.21533,"lon":-93.29824}},{"facility":"Saint Louis Cancer and Breast Institute-South City","city":"St Louis","state":"Missouri","zip":"63109","country":"United States","geoPoint":{"lat":38.62727,"lon":-90.19789}},{"facility":"Washington University School of Medicine","city":"St Louis","state":"Missouri","zip":"63110","country":"United States","geoPoint":{"lat":38.62727,"lon":-90.19789}},{"facility":"Veteran's Affairs Medical Center - Saint Louis","city":"St Louis","state":"Missouri","zip":"63125","country":"United States","geoPoint":{"lat":38.62727,"lon":-90.19789}},{"facility":"Mercy Hospital South","city":"St Louis","state":"Missouri","zip":"63128","country":"United States","geoPoint":{"lat":38.62727,"lon":-90.19789}},{"facility":"Siteman Cancer Center-South County","city":"St Louis","state":"Missouri","zip":"63129","country":"United States","geoPoint":{"lat":38.62727,"lon":-90.19789}},{"facility":"Missouri Baptist Medical Center","city":"St Louis","state":"Missouri","zip":"63131","country":"United States","geoPoint":{"lat":38.62727,"lon":-90.19789}},{"facility":"Siteman Cancer Center at Christian Hospital","city":"St Louis","state":"Missouri","zip":"63136","country":"United States","geoPoint":{"lat":38.62727,"lon":-90.19789}},{"facility":"Mercy Hospital Saint Louis","city":"St Louis","state":"Missouri","zip":"63141","country":"United States","geoPoint":{"lat":38.62727,"lon":-90.19789}},{"facility":"Missouri Baptist Sullivan Hospital","city":"Sullivan","state":"Missouri","zip":"63080","country":"United States","geoPoint":{"lat":38.2081,"lon":-91.16042}},{"facility":"Missouri Baptist Outpatient Center-Sunset Hills","city":"Sunset Hills","state":"Missouri","zip":"63127","country":"United States","geoPoint":{"lat":38.53894,"lon":-90.40734}},{"facility":"Mercy Hospital Washington","city":"Washington","state":"Missouri","zip":"63090","country":"United States","geoPoint":{"lat":38.55811,"lon":-91.01209}},{"facility":"Community Hospital of Anaconda","city":"Anaconda","state":"Montana","zip":"59711","country":"United States","geoPoint":{"lat":46.12854,"lon":-112.94226}},{"facility":"Billings Clinic Cancer Center","city":"Billings","state":"Montana","zip":"59101","country":"United States","geoPoint":{"lat":45.78329,"lon":-108.50069}},{"facility":"Saint Vincent Healthcare","city":"Billings","state":"Montana","zip":"59101","country":"United States","geoPoint":{"lat":45.78329,"lon":-108.50069}},{"facility":"Saint Vincent Frontier Cancer Center","city":"Billings","state":"Montana","zip":"59102","country":"United States","geoPoint":{"lat":45.78329,"lon":-108.50069}},{"facility":"Bozeman Deaconess Hospital","city":"Bozeman","state":"Montana","zip":"59715","country":"United States","geoPoint":{"lat":45.67965,"lon":-111.03856}},{"facility":"Saint James Community Hospital and Cancer Treatment Center","city":"Butte","state":"Montana","zip":"59701","country":"United States","geoPoint":{"lat":46.00382,"lon":-112.53474}},{"facility":"Benefis Healthcare- Sletten Cancer Institute","city":"Great Falls","state":"Montana","zip":"59405","country":"United States","geoPoint":{"lat":47.50024,"lon":-111.30081}},{"facility":"Great Falls Clinic","city":"Great Falls","state":"Montana","zip":"59405","country":"United States","geoPoint":{"lat":47.50024,"lon":-111.30081}},{"facility":"Kalispell Regional Medical Center","city":"Kalispell","state":"Montana","zip":"59901","country":"United States","geoPoint":{"lat":48.19579,"lon":-114.31291}},{"facility":"Saint Patrick Hospital - Community Hospital","city":"Missoula","state":"Montana","zip":"59802","country":"United States","geoPoint":{"lat":46.87215,"lon":-113.994}},{"facility":"Community Medical Hospital","city":"Missoula","state":"Montana","zip":"59804","country":"United States","geoPoint":{"lat":46.87215,"lon":-113.994}},{"facility":"Nebraska Medicine-Bellevue","city":"Bellevue","state":"Nebraska","zip":"68123","country":"United States","geoPoint":{"lat":41.13667,"lon":-95.89084}},{"facility":"CHI Health Saint Francis","city":"Grand Island","state":"Nebraska","zip":"68803","country":"United States","geoPoint":{"lat":40.92501,"lon":-98.34201}},{"facility":"Nebraska Methodist Hospital","city":"Omaha","state":"Nebraska","zip":"68114","country":"United States","geoPoint":{"lat":41.25626,"lon":-95.94043}},{"facility":"Oncology Associates PC","city":"Omaha","state":"Nebraska","zip":"68114","country":"United States","geoPoint":{"lat":41.25626,"lon":-95.94043}},{"facility":"Nebraska Medicine-Village Pointe","city":"Omaha","state":"Nebraska","zip":"68118","country":"United States","geoPoint":{"lat":41.25626,"lon":-95.94043}},{"facility":"University of Nebraska Medical Center","city":"Omaha","state":"Nebraska","zip":"68198","country":"United States","geoPoint":{"lat":41.25626,"lon":-95.94043}},{"facility":"Carson Tahoe Regional Medical Center","city":"Carson City","state":"Nevada","zip":"89703","country":"United States","geoPoint":{"lat":39.1638,"lon":-119.7674}},{"facility":"Cancer and Blood Specialists-Henderson","city":"Henderson","state":"Nevada","zip":"89052","country":"United States","geoPoint":{"lat":36.0397,"lon":-114.98194}},{"facility":"Comprehensive Cancer Centers of Nevada - Henderson","city":"Henderson","state":"Nevada","zip":"89052","country":"United States","geoPoint":{"lat":36.0397,"lon":-114.98194}},{"facility":"Comprehensive Cancer Centers of Nevada-Horizon Ridge","city":"Henderson","state":"Nevada","zip":"89052","country":"United States","geoPoint":{"lat":36.0397,"lon":-114.98194}},{"facility":"Las Vegas Cancer Center-Henderson","city":"Henderson","state":"Nevada","zip":"89052","country":"United States","geoPoint":{"lat":36.0397,"lon":-114.98194}},{"facility":"OptumCare Cancer Care at Seven Hills","city":"Henderson","state":"Nevada","zip":"89052","country":"United States","geoPoint":{"lat":36.0397,"lon":-114.98194}},{"facility":"Comprehensive Cancer Centers of Nevada-Southeast Henderson","city":"Henderson","state":"Nevada","zip":"89074","country":"United States","geoPoint":{"lat":36.0397,"lon":-114.98194}},{"facility":"GenesisCare USA - Henderson","city":"Henderson","state":"Nevada","zip":"89074","country":"United States","geoPoint":{"lat":36.0397,"lon":-114.98194}},{"facility":"Las Vegas Urology - Green Valley","city":"Henderson","state":"Nevada","zip":"89074","country":"United States","geoPoint":{"lat":36.0397,"lon":-114.98194}},{"facility":"Las Vegas Urology - Pebble","city":"Henderson","state":"Nevada","zip":"89074","country":"United States","geoPoint":{"lat":36.0397,"lon":-114.98194}},{"facility":"Urology Specialists of Nevada - Green Valley","city":"Henderson","state":"Nevada","zip":"89074","country":"United States","geoPoint":{"lat":36.0397,"lon":-114.98194}},{"facility":"Las Vegas Urology - Pecos","city":"Las Vegas","state":"Nevada","zip":"89074","country":"United States","geoPoint":{"lat":36.17497,"lon":-115.13722}},{"facility":"Desert West Surgery","city":"Las Vegas","state":"Nevada","zip":"89102","country":"United States","geoPoint":{"lat":36.17497,"lon":-115.13722}},{"facility":"OptumCare Cancer Care at Charleston","city":"Las Vegas","state":"Nevada","zip":"89102","country":"United States","geoPoint":{"lat":36.17497,"lon":-115.13722}},{"facility":"University Medical Center of Southern Nevada","city":"Las Vegas","state":"Nevada","zip":"89102","country":"United States","geoPoint":{"lat":36.17497,"lon":-115.13722}},{"facility":"Hope Cancer Care of Nevada","city":"Las Vegas","state":"Nevada","zip":"89103","country":"United States","geoPoint":{"lat":36.17497,"lon":-115.13722}},{"facility":"Radiation Oncology Centers of Nevada Central","city":"Las Vegas","state":"Nevada","zip":"89106","country":"United States","geoPoint":{"lat":36.17497,"lon":-115.13722}},{"facility":"Urology Specialists of Nevada - Central","city":"Las Vegas","state":"Nevada","zip":"89106","country":"United States","geoPoint":{"lat":36.17497,"lon":-115.13722}},{"facility":"GenesisCare USA - Las Vegas","city":"Las Vegas","state":"Nevada","zip":"89109","country":"United States","geoPoint":{"lat":36.17497,"lon":-115.13722}},{"facility":"Sunrise Hospital and Medical Center","city":"Las Vegas","state":"Nevada","zip":"89109","country":"United States","geoPoint":{"lat":36.17497,"lon":-115.13722}},{"facility":"Las Vegas Prostate Cancer Center","city":"Las Vegas","state":"Nevada","zip":"89113","country":"United States","geoPoint":{"lat":36.17497,"lon":-115.13722}},{"facility":"Las Vegas Urology - Sunset","city":"Las Vegas","state":"Nevada","zip":"89113","country":"United States","geoPoint":{"lat":36.17497,"lon":-115.13722}},{"facility":"Urology Specialists of Nevada - Southwest","city":"Las Vegas","state":"Nevada","zip":"89113","country":"United States","geoPoint":{"lat":36.17497,"lon":-115.13722}},{"facility":"Radiation Oncology Centers of Nevada Southeast","city":"Las Vegas","state":"Nevada","zip":"89119","country":"United States","geoPoint":{"lat":36.17497,"lon":-115.13722}},{"facility":"Ann M Wierman MD LTD","city":"Las Vegas","state":"Nevada","zip":"89128","country":"United States","geoPoint":{"lat":36.17497,"lon":-115.13722}},{"facility":"Comprehensive Cancer Centers of Nevada - Northwest","city":"Las Vegas","state":"Nevada","zip":"89128","country":"United States","geoPoint":{"lat":36.17497,"lon":-115.13722}},{"facility":"GenesisCare USA - Vegas Tenaya","city":"Las Vegas","state":"Nevada","zip":"89128","country":"United States","geoPoint":{"lat":36.17497,"lon":-115.13722}},{"facility":"Las Vegas Urology - Cathedral Rock","city":"Las Vegas","state":"Nevada","zip":"89128","country":"United States","geoPoint":{"lat":36.17497,"lon":-115.13722}},{"facility":"Las Vegas Urology - Smoke Ranch","city":"Las Vegas","state":"Nevada","zip":"89128","country":"United States","geoPoint":{"lat":36.17497,"lon":-115.13722}},{"facility":"OptumCare Cancer Care at MountainView","city":"Las Vegas","state":"Nevada","zip":"89128","country":"United States","geoPoint":{"lat":36.17497,"lon":-115.13722}},{"facility":"Urology Specialists of Nevada - Northwest","city":"Las Vegas","state":"Nevada","zip":"89128","country":"United States","geoPoint":{"lat":36.17497,"lon":-115.13722}},{"facility":"Alliance for Childhood Diseases/Cure 4 the Kids Foundation","city":"Las Vegas","state":"Nevada","zip":"89135","country":"United States","geoPoint":{"lat":36.17497,"lon":-115.13722}},{"facility":"Comprehensive Cancer Centers of Nevada - Town Center","city":"Las Vegas","state":"Nevada","zip":"89144","country":"United States","geoPoint":{"lat":36.17497,"lon":-115.13722}},{"facility":"Comprehensive Cancer Centers of Nevada-Summerlin","city":"Las Vegas","state":"Nevada","zip":"89144","country":"United States","geoPoint":{"lat":36.17497,"lon":-115.13722}},{"facility":"Summerlin Hospital Medical Center","city":"Las Vegas","state":"Nevada","zip":"89144","country":"United States","geoPoint":{"lat":36.17497,"lon":-115.13722}},{"facility":"Las Vegas Cancer Center-Medical Center","city":"Las Vegas","state":"Nevada","zip":"89148-2405","country":"United States","geoPoint":{"lat":36.17497,"lon":-115.13722}},{"facility":"Comprehensive Cancer Centers of Nevada","city":"Las Vegas","state":"Nevada","zip":"89148","country":"United States","geoPoint":{"lat":36.17497,"lon":-115.13722}},{"facility":"GenesisCare USA - Fort Apache","city":"Las Vegas","state":"Nevada","zip":"89148","country":"United States","geoPoint":{"lat":36.17497,"lon":-115.13722}},{"facility":"OptumCare Cancer Care at Fort Apache","city":"Las Vegas","state":"Nevada","zip":"89148","country":"United States","geoPoint":{"lat":36.17497,"lon":-115.13722}},{"facility":"Comprehensive Cancer Centers of Nevada - Central Valley","city":"Las Vegas","state":"Nevada","zip":"89169","country":"United States","geoPoint":{"lat":36.17497,"lon":-115.13722}},{"facility":"University Cancer Center","city":"Las Vegas","state":"Nevada","zip":"89169","country":"United States","geoPoint":{"lat":36.17497,"lon":-115.13722}},{"facility":"Hope Cancer Care of Nevada-Pahrump","city":"Pahrump","state":"Nevada","zip":"89048","country":"United States","geoPoint":{"lat":36.20829,"lon":-115.98391}},{"facility":"Renown Regional Medical Center","city":"Reno","state":"Nevada","zip":"89502","country":"United States","geoPoint":{"lat":39.52963,"lon":-119.8138}},{"facility":"Saint Mary's Regional Medical Center","city":"Reno","state":"Nevada","zip":"89503","country":"United States","geoPoint":{"lat":39.52963,"lon":-119.8138}},{"facility":"Radiation Oncology Associates","city":"Reno","state":"Nevada","zip":"89509","country":"United States","geoPoint":{"lat":39.52963,"lon":-119.8138}},{"facility":"New Hampshire Oncology Hematology PA-Concord","city":"Concord","state":"New Hampshire","zip":"03301","country":"United States","geoPoint":{"lat":43.20814,"lon":-71.53757}},{"facility":"Solinsky Center for Cancer Care","city":"Manchester","state":"New Hampshire","zip":"03103","country":"United States","geoPoint":{"lat":42.99564,"lon":-71.45479}},{"facility":"Inspira Medical Center Mullica Hill","city":"Mullica Hill","state":"New Jersey","zip":"08062","country":"United States","geoPoint":{"lat":39.73928,"lon":-75.22407}},{"facility":"Hematology Oncology Associates of Central New York-Auburn","city":"Auburn","state":"New York","zip":"13021","country":"United States","geoPoint":{"lat":42.93173,"lon":-76.56605}},{"facility":"Hematology Oncology Associates of Central New York-East Syracuse","city":"East Syracuse","state":"New York","zip":"13057","country":"United States","geoPoint":{"lat":43.06534,"lon":-76.07853}},{"facility":"Glens Falls Hospital","city":"Glens Falls","state":"New York","zip":"12801","country":"United States","geoPoint":{"lat":43.30952,"lon":-73.64401}},{"facility":"NYP/Columbia University Medical Center/Herbert Irving Comprehensive Cancer Center","city":"New York","state":"New York","zip":"10032","country":"United States","geoPoint":{"lat":40.71427,"lon":-74.00597}},{"facility":"NYP/Weill Cornell Medical Center","city":"New York","state":"New York","zip":"10065","country":"United States","geoPoint":{"lat":40.71427,"lon":-74.00597}},{"facility":"Hematology Oncology Associates of Central New York-Onondaga Hill","city":"Syracuse","state":"New York","zip":"13215","country":"United States","geoPoint":{"lat":43.04812,"lon":-76.14742}},{"facility":"James J Peters VA Medical Center","city":"The Bronx","state":"New York","zip":"10468","country":"United States","geoPoint":{"lat":40.84985,"lon":-73.86641}},{"facility":"South Nassau Cancer Center","city":"Valley Stream","state":"New York","zip":"11580","country":"United States","geoPoint":{"lat":40.66427,"lon":-73.70846}},{"facility":"AdventHealth Infusion Center Asheville","city":"Asheville","state":"North Carolina","zip":"28803","country":"United States","geoPoint":{"lat":35.60095,"lon":-82.55402}},{"facility":"Johnston Health Clayton","city":"Clayton","state":"North Carolina","zip":"27520","country":"United States","geoPoint":{"lat":35.65071,"lon":-78.45639}},{"facility":"Southeastern Medical Oncology Center-Clinton","city":"Clinton","state":"North Carolina","zip":"28328","country":"United States","geoPoint":{"lat":34.99795,"lon":-78.32333}},{"facility":"AdventHealth Infusion Center Haywood","city":"Clyde","state":"North Carolina","zip":"28721","country":"United States","geoPoint":{"lat":35.53344,"lon":-82.91069}},{"facility":"Duke University Medical Center","city":"Durham","state":"North Carolina","zip":"27710","country":"United States","geoPoint":{"lat":35.99403,"lon":-78.89862}},{"facility":"Southeastern Medical Oncology Center-Goldsboro","city":"Goldsboro","state":"North Carolina","zip":"27534","country":"United States","geoPoint":{"lat":35.38488,"lon":-77.99277}},{"facility":"Maria Parham Hospital","city":"Henderson","state":"North Carolina","zip":"27536","country":"United States","geoPoint":{"lat":36.32959,"lon":-78.39916}},{"facility":"AdventHealth Hendersonville","city":"Hendersonville","state":"North Carolina","zip":"28792","country":"United States","geoPoint":{"lat":35.31873,"lon":-82.46095}},{"facility":"Southeastern Medical Oncology Center-Jacksonville","city":"Jacksonville","state":"North Carolina","zip":"28546","country":"United States","geoPoint":{"lat":34.75405,"lon":-77.43024}},{"facility":"Vidant Oncology-Kenansville","city":"Kenansville","state":"North Carolina","zip":"28349","country":"United States","geoPoint":{"lat":34.96239,"lon":-77.96221}},{"facility":"Vidant Oncology-Kinston","city":"Kinston","state":"North Carolina","zip":"28501","country":"United States","geoPoint":{"lat":35.26266,"lon":-77.58164}},{"facility":"Scotland Memorial Hospital-Laurinburg Cancer Center","city":"Laurinburg","state":"North Carolina","zip":"28352","country":"United States","geoPoint":{"lat":34.77405,"lon":-79.46282}},{"facility":"Southeastern Regional Medical Center","city":"Lumberton","state":"North Carolina","zip":"28358","country":"United States","geoPoint":{"lat":34.61834,"lon":-79.01045}},{"facility":"Vidant Oncology-Richlands","city":"Richlands","state":"North Carolina","zip":"28574","country":"United States","geoPoint":{"lat":34.89933,"lon":-77.54663}},{"facility":"Johnston Memorial Hospital","city":"Smithfield","state":"North Carolina","zip":"27577","country":"United States","geoPoint":{"lat":35.50849,"lon":-78.33945}},{"facility":"AdventHealth Infusion Center Weaverville","city":"Weaverville","state":"North Carolina","zip":"28787","country":"United States","geoPoint":{"lat":35.69705,"lon":-82.56069}},{"facility":"Essentia Health Cancer Center-South University Clinic","city":"Fargo","state":"North Dakota","zip":"58103","country":"United States","geoPoint":{"lat":46.87719,"lon":-96.7898}},{"facility":"Essentia Health - Jamestown Clinic","city":"Jamestown","state":"North Dakota","zip":"58401","country":"United States","geoPoint":{"lat":46.91054,"lon":-98.70844}},{"facility":"Indu and Raj Soin Medical Center","city":"Beavercreek","state":"Ohio","zip":"45431","country":"United States","geoPoint":{"lat":39.70923,"lon":-84.06327}},{"facility":"Saint Elizabeth Boardman Hospital","city":"Boardman","state":"Ohio","zip":"44512","country":"United States","geoPoint":{"lat":41.02423,"lon":-80.66285}},{"facility":"Dayton Physicians LLC-Miami Valley South","city":"Centerville","state":"Ohio","zip":"45459","country":"United States","geoPoint":{"lat":39.62839,"lon":-84.15938}},{"facility":"Miami Valley Hospital South","city":"Centerville","state":"Ohio","zip":"45459","country":"United States","geoPoint":{"lat":39.62839,"lon":-84.15938}},{"facility":"Adena Regional Medical Center","city":"Chillicothe","state":"Ohio","zip":"45601","country":"United States","geoPoint":{"lat":39.33312,"lon":-82.9824}},{"facility":"Oncology Hematology Care Inc-Kenwood","city":"Cincinnati","state":"Ohio","zip":"45236","country":"United States","geoPoint":{"lat":39.12711,"lon":-84.51439}},{"facility":"Ohio State University Comprehensive Cancer Center","city":"Columbus","state":"Ohio","zip":"43210","country":"United States","geoPoint":{"lat":39.96118,"lon":-82.99879}},{"facility":"Mount Carmel East Hospital","city":"Columbus","state":"Ohio","zip":"43213","country":"United States","geoPoint":{"lat":39.96118,"lon":-82.99879}},{"facility":"Riverside Methodist Hospital","city":"Columbus","state":"Ohio","zip":"43214","country":"United States","geoPoint":{"lat":39.96118,"lon":-82.99879}},{"facility":"Grant Medical Center","city":"Columbus","state":"Ohio","zip":"43215","country":"United States","geoPoint":{"lat":39.96118,"lon":-82.99879}},{"facility":"The Mark H Zangmeister Center","city":"Columbus","state":"Ohio","zip":"43219","country":"United States","geoPoint":{"lat":39.96118,"lon":-82.99879}},{"facility":"Mount Carmel Health Center West","city":"Columbus","state":"Ohio","zip":"43222","country":"United States","geoPoint":{"lat":39.96118,"lon":-82.99879}},{"facility":"Doctors Hospital","city":"Columbus","state":"Ohio","zip":"43228","country":"United States","geoPoint":{"lat":39.96118,"lon":-82.99879}},{"facility":"Miami Valley Hospital","city":"Dayton","state":"Ohio","zip":"45409","country":"United States","geoPoint":{"lat":39.75895,"lon":-84.19161}},{"facility":"Dayton Physician LLC-Miami Valley Hospital North","city":"Dayton","state":"Ohio","zip":"45415","country":"United States","geoPoint":{"lat":39.75895,"lon":-84.19161}},{"facility":"Miami Valley Hospital North","city":"Dayton","state":"Ohio","zip":"45415","country":"United States","geoPoint":{"lat":39.75895,"lon":-84.19161}},{"facility":"Delaware Health Center-Grady Cancer Center","city":"Delaware","state":"Ohio","zip":"43015","country":"United States","geoPoint":{"lat":40.29867,"lon":-83.06797}},{"facility":"Grady Memorial Hospital","city":"Delaware","state":"Ohio","zip":"43015","country":"United States","geoPoint":{"lat":40.29867,"lon":-83.06797}},{"facility":"Armes Family Cancer Center","city":"Findlay","state":"Ohio","zip":"45840","country":"United States","geoPoint":{"lat":41.04422,"lon":-83.64993}},{"facility":"Blanchard Valley Hospital","city":"Findlay","state":"Ohio","zip":"45840","country":"United States","geoPoint":{"lat":41.04422,"lon":-83.64993}},{"facility":"Orion Cancer Care","city":"Findlay","state":"Ohio","zip":"45840","country":"United States","geoPoint":{"lat":41.04422,"lon":-83.64993}},{"facility":"Atrium Medical Center-Middletown Regional Hospital","city":"Franklin","state":"Ohio","zip":"45005-1066","country":"United States","geoPoint":{"lat":39.55895,"lon":-84.30411}},{"facility":"Dayton Physicians LLC-Atrium","city":"Franklin","state":"Ohio","zip":"45005","country":"United States","geoPoint":{"lat":39.55895,"lon":-84.30411}},{"facility":"Dayton Physicians LLC-Wayne","city":"Greenville","state":"Ohio","zip":"45331","country":"United States","geoPoint":{"lat":40.10283,"lon":-84.63301}},{"facility":"Wayne Hospital","city":"Greenville","state":"Ohio","zip":"45331","country":"United States","geoPoint":{"lat":40.10283,"lon":-84.63301}},{"facility":"Mount Carmel Grove City Hospital","city":"Grove City","state":"Ohio","zip":"43123","country":"United States","geoPoint":{"lat":39.88145,"lon":-83.09296}},{"facility":"Zangmeister Center Grove City","city":"Grove City","state":"Ohio","zip":"43123","country":"United States","geoPoint":{"lat":39.88145,"lon":-83.09296}},{"facility":"Greater Dayton Cancer Center","city":"Kettering","state":"Ohio","zip":"45409","country":"United States","geoPoint":{"lat":39.6895,"lon":-84.16883}},{"facility":"Kettering Medical Center","city":"Kettering","state":"Ohio","zip":"45429","country":"United States","geoPoint":{"lat":39.6895,"lon":-84.16883}},{"facility":"Fairfield Medical Center","city":"Lancaster","state":"Ohio","zip":"43130","country":"United States","geoPoint":{"lat":39.71368,"lon":-82.59933}},{"facility":"Marietta Memorial Hospital","city":"Marietta","state":"Ohio","zip":"45750","country":"United States","geoPoint":{"lat":39.41535,"lon":-81.45484}},{"facility":"Toledo Clinic Cancer Centers-Maumee","city":"Maumee","state":"Ohio","zip":"43537","country":"United States","geoPoint":{"lat":41.56283,"lon":-83.65382}},{"facility":"Knox Community Hospital","city":"Mount Vernon","state":"Ohio","zip":"43050","country":"United States","geoPoint":{"lat":40.3934,"lon":-82.48572}},{"facility":"Mount Carmel New Albany Surgical Hospital","city":"New Albany","state":"Ohio","zip":"43054","country":"United States","geoPoint":{"lat":40.08117,"lon":-82.80879}},{"facility":"Licking Memorial Hospital","city":"Newark","state":"Ohio","zip":"43055","country":"United States","geoPoint":{"lat":40.05812,"lon":-82.40126}},{"facility":"Southern Ohio Medical Center","city":"Portsmouth","state":"Ohio","zip":"45662","country":"United States","geoPoint":{"lat":38.73174,"lon":-82.99767}},{"facility":"Springfield Regional Cancer Center","city":"Springfield","state":"Ohio","zip":"45504","country":"United States","geoPoint":{"lat":39.92423,"lon":-83.80882}},{"facility":"Springfield Regional Medical Center","city":"Springfield","state":"Ohio","zip":"45505","country":"United States","geoPoint":{"lat":39.92423,"lon":-83.80882}},{"facility":"Saint Vincent Mercy Medical Center","city":"Toledo","state":"Ohio","zip":"43608","country":"United States","geoPoint":{"lat":41.66394,"lon":-83.55521}},{"facility":"University of Toledo","city":"Toledo","state":"Ohio","zip":"43614","country":"United States","geoPoint":{"lat":41.66394,"lon":-83.55521}},{"facility":"Mercy Health - Saint Anne Hospital","city":"Toledo","state":"Ohio","zip":"43623","country":"United States","geoPoint":{"lat":41.66394,"lon":-83.55521}},{"facility":"Toledo Clinic Cancer Centers-Toledo","city":"Toledo","state":"Ohio","zip":"43623","country":"United States","geoPoint":{"lat":41.66394,"lon":-83.55521}},{"facility":"Dayton Physicians LLC - Troy","city":"Troy","state":"Ohio","zip":"45373","country":"United States","geoPoint":{"lat":40.0395,"lon":-84.20328}},{"facility":"Upper Valley Medical Center","city":"Troy","state":"Ohio","zip":"45373","country":"United States","geoPoint":{"lat":40.0395,"lon":-84.20328}},{"facility":"Saint Joseph Warren Hospital","city":"Warren","state":"Ohio","zip":"44484","country":"United States","geoPoint":{"lat":41.23756,"lon":-80.81842}},{"facility":"Saint Ann's Hospital","city":"Westerville","state":"Ohio","zip":"43081","country":"United States","geoPoint":{"lat":40.12617,"lon":-82.92907}},{"facility":"Wright-Patterson Medical Center","city":"Wright-Patterson Air Force Base","state":"Ohio","zip":"45433","country":"United States","geoPoint":{"lat":39.81791,"lon":-84.04995}},{"facility":"Saint Elizabeth Youngstown Hospital","city":"Youngstown","state":"Ohio","zip":"44501","country":"United States","geoPoint":{"lat":41.09978,"lon":-80.64952}},{"facility":"Genesis Healthcare System Cancer Care Center","city":"Zanesville","state":"Ohio","zip":"43701","country":"United States","geoPoint":{"lat":39.94035,"lon":-82.01319}},{"facility":"Mercy Hospital Oklahoma City","city":"Oklahoma City","state":"Oklahoma","zip":"73120","country":"United States","geoPoint":{"lat":35.46756,"lon":-97.51643}},{"facility":"Saint Alphonsus Medical Center-Baker City","city":"Baker City","state":"Oregon","zip":"97814","country":"United States","geoPoint":{"lat":44.77487,"lon":-117.83438}},{"facility":"Good Samaritan Hospital","city":"Corvallis","state":"Oregon","zip":"97330","country":"United States","geoPoint":{"lat":44.56457,"lon":-123.26204}},{"facility":"Saint Alphonsus Medical Center-Ontario","city":"Ontario","state":"Oregon","zip":"97914","country":"United States","geoPoint":{"lat":44.02655,"lon":-116.96294}},{"facility":"Bryn Mawr Hospital","city":"Bryn Mawr","state":"Pennsylvania","zip":"19010","country":"United States","geoPoint":{"lat":40.30396,"lon":-80.08672}},{"facility":"Christiana Care Health System-Concord Health Center","city":"Chadds Ford","state":"Pennsylvania","zip":"19317","country":"United States","geoPoint":{"lat":39.87178,"lon":-75.59132}},{"facility":"Chambersburg Hospital","city":"Chambersburg","state":"Pennsylvania","zip":"17201","country":"United States","geoPoint":{"lat":39.93759,"lon":-77.6611}},{"facility":"WellSpan Medical Oncology and Hematology","city":"Chambersburg","state":"Pennsylvania","zip":"17201","country":"United States","geoPoint":{"lat":39.93759,"lon":-77.6611}},{"facility":"Main Line Health Center-Collegeville","city":"Collegeville","state":"Pennsylvania","zip":"19426","country":"United States","geoPoint":{"lat":40.18566,"lon":-75.45157}},{"facility":"Ephrata Cancer Center","city":"Ephrata","state":"Pennsylvania","zip":"17522","country":"United States","geoPoint":{"lat":40.17982,"lon":-76.17884}},{"facility":"Ephrata Community Hospital","city":"Ephrata","state":"Pennsylvania","zip":"17522","country":"United States","geoPoint":{"lat":40.17982,"lon":-76.17884}},{"facility":"Main Line Health Center-Exton","city":"Exton","state":"Pennsylvania","zip":"19341","country":"United States","geoPoint":{"lat":40.029,"lon":-75.62077}},{"facility":"Adams Cancer Center","city":"Gettysburg","state":"Pennsylvania","zip":"17325","country":"United States","geoPoint":{"lat":39.83093,"lon":-77.2311}},{"facility":"Cherry Tree Cancer Center","city":"Hanover","state":"Pennsylvania","zip":"17331","country":"United States","geoPoint":{"lat":39.80066,"lon":-76.98304}},{"facility":"Sechler Family Cancer Center","city":"Lebanon","state":"Pennsylvania","zip":"17042","country":"United States","geoPoint":{"lat":40.34093,"lon":-76.41135}},{"facility":"Riddle Memorial Hospital","city":"Media","state":"Pennsylvania","zip":"19063","country":"United States","geoPoint":{"lat":39.91678,"lon":-75.38769}},{"facility":"Paoli Memorial Hospital","city":"Paoli","state":"Pennsylvania","zip":"19301","country":"United States","geoPoint":{"lat":40.04205,"lon":-75.47631}},{"facility":"Thomas Jefferson University Hospital","city":"Philadelphia","state":"Pennsylvania","zip":"19107","country":"United States","geoPoint":{"lat":39.95238,"lon":-75.16362}},{"facility":"Jefferson Torresdale Hospital","city":"Philadelphia","state":"Pennsylvania","zip":"19114","country":"United States","geoPoint":{"lat":39.95238,"lon":-75.16362}},{"facility":"Guthrie Medical Group PC-Robert Packer Hospital","city":"Sayre","state":"Pennsylvania","zip":"18840","country":"United States","geoPoint":{"lat":41.97896,"lon":-76.5155}},{"facility":"Asplundh Cancer Pavilion","city":"Willow Grove","state":"Pennsylvania","zip":"19090","country":"United States","geoPoint":{"lat":40.144,"lon":-75.11573}},{"facility":"Lankenau Medical Center","city":"Wynnewood","state":"Pennsylvania","zip":"19096","country":"United States","geoPoint":{"lat":40.00289,"lon":-75.27074}},{"facility":"Cancer Care Associates of York","city":"York","state":"Pennsylvania","zip":"17403","country":"United States","geoPoint":{"lat":39.9626,"lon":-76.72774}},{"facility":"WellSpan Health-York Cancer Center","city":"York","state":"Pennsylvania","zip":"17403","country":"United States","geoPoint":{"lat":39.9626,"lon":-76.72774}},{"facility":"WellSpan Health-York Hospital","city":"York","state":"Pennsylvania","zip":"17403","country":"United States","geoPoint":{"lat":39.9626,"lon":-76.72774}},{"facility":"Kent Hospital","city":"Warwick","state":"Rhode Island","zip":"02886","country":"United States","geoPoint":{"lat":41.7001,"lon":-71.41617}},{"facility":"Saint Joseph's/Candler - Bluffton Campus","city":"Bluffton","state":"South Carolina","zip":"29910","country":"United States","geoPoint":{"lat":32.23715,"lon":-80.86039}},{"facility":"Prisma Health Cancer Institute - Spartanburg","city":"Boiling Springs","state":"South Carolina","zip":"29316","country":"United States","geoPoint":{"lat":35.04651,"lon":-81.98177}},{"facility":"Prisma Health Cancer Institute - Easley","city":"Easley","state":"South Carolina","zip":"29640","country":"United States","geoPoint":{"lat":34.82984,"lon":-82.60152}},{"facility":"Tidelands Georgetown Memorial Hospital","city":"Georgetown","state":"South Carolina","zip":"29440","country":"United States","geoPoint":{"lat":33.37683,"lon":-79.2945}},{"facility":"Prisma Health Cancer Institute - Butternut","city":"Greenville","state":"South Carolina","zip":"29605","country":"United States","geoPoint":{"lat":34.85262,"lon":-82.39401}},{"facility":"Prisma Health Cancer Institute - Faris","city":"Greenville","state":"South Carolina","zip":"29605","country":"United States","geoPoint":{"lat":34.85262,"lon":-82.39401}},{"facility":"Prisma Health Cancer Institute - Eastside","city":"Greenville","state":"South Carolina","zip":"29615","country":"United States","geoPoint":{"lat":34.85262,"lon":-82.39401}},{"facility":"Prisma Health Cancer Institute - Greer","city":"Greer","state":"South Carolina","zip":"29650","country":"United States","geoPoint":{"lat":34.93873,"lon":-82.22706}},{"facility":"South Carolina Cancer Specialists PC","city":"Hilton Head Island","state":"South Carolina","zip":"29926-3827","country":"United States","geoPoint":{"lat":32.19382,"lon":-80.73816}},{"facility":"Prisma Health Cancer Institute - Seneca","city":"Seneca","state":"South Carolina","zip":"29672","country":"United States","geoPoint":{"lat":34.68566,"lon":-82.9532}},{"facility":"Saint Joseph Regional Cancer Center","city":"Bryan","state":"Texas","zip":"77802","country":"United States","geoPoint":{"lat":30.67436,"lon":-96.36996}},{"facility":"Dallas VA Medical Center","city":"Dallas","state":"Texas","zip":"75216","country":"United States","geoPoint":{"lat":32.78306,"lon":-96.80667}},{"facility":"Cancer Specialists of Tidewater Limited","city":"Chesapeake","state":"Virginia","zip":"23320","country":"United States","geoPoint":{"lat":36.81904,"lon":-76.27494}},{"facility":"Peninsula Cancer Institute-Gloucester","city":"Gloucester","state":"Virginia","zip":"23061","country":"United States","geoPoint":{"lat":37.41375,"lon":-76.52551}},{"facility":"Centra Lynchburg Hematology-Oncology Clinic Inc","city":"Lynchburg","state":"Virginia","zip":"24501","country":"United States","geoPoint":{"lat":37.41375,"lon":-79.14225}},{"facility":"Bon Secours Memorial Regional Medical Center","city":"Mechanicsville","state":"Virginia","zip":"23116","country":"United States","geoPoint":{"lat":37.60876,"lon":-77.37331}},{"facility":"Bon Secours Westchester Emergency Center","city":"Midlothian","state":"Virginia","zip":"23113","country":"United States","geoPoint":{"lat":37.50598,"lon":-77.64916}},{"facility":"Bon Secours Saint Francis Medical Center","city":"Midlothian","state":"Virginia","zip":"23114","country":"United States","geoPoint":{"lat":37.50598,"lon":-77.64916}},{"facility":"Peninsula Cancer Institute-Newport News","city":"Newport News","state":"Virginia","zip":"23601","country":"United States","geoPoint":{"lat":36.98038,"lon":-76.42975}},{"facility":"Bon Secours DePaul Medical Center","city":"Norfolk","state":"Virginia","zip":"23505","country":"United States","geoPoint":{"lat":36.84681,"lon":-76.28522}},{"facility":"Riverside Shore Cancer Center","city":"Onancock","state":"Virginia","zip":"23417","country":"United States","geoPoint":{"lat":37.7118,"lon":-75.7491}},{"facility":"Bon Secours Maryview Medical Center","city":"Portsmouth","state":"Virginia","zip":"23707","country":"United States","geoPoint":{"lat":36.83543,"lon":-76.29827}},{"facility":"Bon Secours Saint Mary's Hospital","city":"Richmond","state":"Virginia","zip":"23226","country":"United States","geoPoint":{"lat":37.55376,"lon":-77.46026}},{"facility":"Virginia Cancer Institute","city":"Richmond","state":"Virginia","zip":"23229","country":"United States","geoPoint":{"lat":37.55376,"lon":-77.46026}},{"facility":"Bon Secours Cancer Institute at Reynolds Crossing","city":"Richmond","state":"Virginia","zip":"23230","country":"United States","geoPoint":{"lat":37.55376,"lon":-77.46026}},{"facility":"Virginia Commonwealth University/Massey Cancer Center","city":"Richmond","state":"Virginia","zip":"23298","country":"United States","geoPoint":{"lat":37.55376,"lon":-77.46026}},{"facility":"VCU Community Memorial Health Center","city":"South Hill","state":"Virginia","zip":"23970","country":"United States","geoPoint":{"lat":36.72653,"lon":-78.12889}},{"facility":"Bon Secours Health Center at Harbour View","city":"Suffolk","state":"Virginia","zip":"23435","country":"United States","geoPoint":{"lat":36.72836,"lon":-76.58496}},{"facility":"Cancer Specialists of Tidewater-Suffolk","city":"Suffolk","state":"Virginia","zip":"23435","country":"United States","geoPoint":{"lat":36.72836,"lon":-76.58496}},{"facility":"Peninsula Cancer Institute-Cancer Specialists of Tidewater","city":"Virginia Beach","state":"Virginia","zip":"23454","country":"United States","geoPoint":{"lat":36.85293,"lon":-75.97799}},{"facility":"Peninsula Cancer Institute-Williamsburg","city":"Williamsburg","state":"Virginia","zip":"23185","country":"United States","geoPoint":{"lat":37.2707,"lon":-76.70746}},{"facility":"Overlake Medical Center","city":"Bellevue","state":"Washington","zip":"98004","country":"United States","geoPoint":{"lat":47.61038,"lon":-122.20068}},{"facility":"Swedish Cancer Institute-Edmonds","city":"Edmonds","state":"Washington","zip":"98026","country":"United States","geoPoint":{"lat":47.81065,"lon":-122.37736}},{"facility":"Swedish Cancer Institute-Issaquah","city":"Issaquah","state":"Washington","zip":"98029","country":"United States","geoPoint":{"lat":47.5301,"lon":-122.03262}},{"facility":"Kadlec Clinic Hematology and Oncology","city":"Kennewick","state":"Washington","zip":"99336","country":"United States","geoPoint":{"lat":46.21125,"lon":-119.13723}},{"facility":"Jefferson Healthcare","city":"Port Townsend","state":"Washington","zip":"98368","country":"United States","geoPoint":{"lat":48.11742,"lon":-122.76071}},{"facility":"Valley Medical Center","city":"Renton","state":"Washington","zip":"98055","country":"United States","geoPoint":{"lat":47.48288,"lon":-122.21707}},{"facility":"Swedish Medical Center-Ballard Campus","city":"Seattle","state":"Washington","zip":"98107","country":"United States","geoPoint":{"lat":47.60621,"lon":-122.33207}},{"facility":"Swedish Medical Center-Cherry Hill","city":"Seattle","state":"Washington","zip":"98122-5711","country":"United States","geoPoint":{"lat":47.60621,"lon":-122.33207}},{"facility":"Swedish Medical Center-First Hill","city":"Seattle","state":"Washington","zip":"98122","country":"United States","geoPoint":{"lat":47.60621,"lon":-122.33207}},{"facility":"Providence Saint Mary Regional Cancer Center","city":"Walla Walla","state":"Washington","zip":"99362","country":"United States","geoPoint":{"lat":46.06458,"lon":-118.34302}},{"facility":"North Star Lodge Cancer Center at Yakima Valley Memorial Hospital","city":"Yakima","state":"Washington","zip":"98902","country":"United States","geoPoint":{"lat":46.60207,"lon":-120.5059}},{"facility":"United Hospital Center","city":"Bridgeport","state":"West Virginia","zip":"26330","country":"United States","geoPoint":{"lat":39.28648,"lon":-80.2562}},{"facility":"WVUH-Berkely Medical Center","city":"Martinsburg","state":"West Virginia","zip":"25401","country":"United States","geoPoint":{"lat":39.45621,"lon":-77.96389}},{"facility":"West Virginia University Healthcare","city":"Morgantown","state":"West Virginia","zip":"26506","country":"United States","geoPoint":{"lat":39.62953,"lon":-79.9559}},{"facility":"Camden Clark Medical Center","city":"Parkersburg","state":"West Virginia","zip":"26101","country":"United States","geoPoint":{"lat":39.26674,"lon":-81.56151}},{"facility":"Wheeling Hospital/Schiffler Cancer Center","city":"Wheeling","state":"West Virginia","zip":"26003","country":"United States","geoPoint":{"lat":40.06396,"lon":-80.72091}},{"facility":"Duluth Clinic Ashland","city":"Ashland","state":"Wisconsin","zip":"54806","country":"United States","geoPoint":{"lat":46.59244,"lon":-90.8838}},{"facility":"Northwest Wisconsin Cancer Center","city":"Ashland","state":"Wisconsin","zip":"54806","country":"United States","geoPoint":{"lat":46.59244,"lon":-90.8838}},{"facility":"Marshfield Clinic-Chippewa Center","city":"Chippewa Falls","state":"Wisconsin","zip":"54729","country":"United States","geoPoint":{"lat":44.93691,"lon":-91.39293}},{"facility":"Marshfield Medical Center-EC Cancer Center","city":"Eau Claire","state":"Wisconsin","zip":"54701","country":"United States","geoPoint":{"lat":44.81135,"lon":-91.49849}},{"facility":"Mayo Clinic Health System-Eau Claire Clinic","city":"Eau Claire","state":"Wisconsin","zip":"54701","country":"United States","geoPoint":{"lat":44.81135,"lon":-91.49849}},{"facility":"Essentia Health-Hayward Clinic","city":"Hayward","state":"Wisconsin","zip":"54843","country":"United States","geoPoint":{"lat":46.01301,"lon":-91.48462}},{"facility":"Gundersen Lutheran Medical Center","city":"La Crosse","state":"Wisconsin","zip":"54601","country":"United States","geoPoint":{"lat":43.80136,"lon":-91.23958}},{"facility":"Mayo Clinic Health System-Franciscan Healthcare","city":"La Crosse","state":"Wisconsin","zip":"54601","country":"United States","geoPoint":{"lat":43.80136,"lon":-91.23958}},{"facility":"Marshfield Clinic - Ladysmith Center","city":"Ladysmith","state":"Wisconsin","zip":"54848","country":"United States","geoPoint":{"lat":45.46302,"lon":-91.10404}},{"facility":"Marshfield Medical Center-Marshfield","city":"Marshfield","state":"Wisconsin","zip":"54449","country":"United States","geoPoint":{"lat":44.66885,"lon":-90.1718}},{"facility":"Froedtert Menomonee Falls Hospital","city":"Menomonee Falls","state":"Wisconsin","zip":"53051","country":"United States","geoPoint":{"lat":43.1789,"lon":-88.11731}},{"facility":"Medical College of Wisconsin","city":"Milwaukee","state":"Wisconsin","zip":"53226","country":"United States","geoPoint":{"lat":43.0389,"lon":-87.90647}},{"facility":"Marshfield Clinic-Minocqua Center","city":"Minocqua","state":"Wisconsin","zip":"54548","country":"United States","geoPoint":{"lat":45.87134,"lon":-89.71098}},{"facility":"ProHealth D N Greenwald Center","city":"Mukwonago","state":"Wisconsin","zip":"53149","country":"United States","geoPoint":{"lat":42.86668,"lon":-88.33343}},{"facility":"Cancer Center of Western Wisconsin","city":"New Richmond","state":"Wisconsin","zip":"54017","country":"United States","geoPoint":{"lat":45.12302,"lon":-92.53659}},{"facility":"Drexel Town Square Health Center","city":"Oak Creek","state":"Wisconsin","zip":"53154","country":"United States","geoPoint":{"lat":42.88585,"lon":-87.86314}},{"facility":"ProHealth Oconomowoc Memorial Hospital","city":"Oconomowoc","state":"Wisconsin","zip":"53066","country":"United States","geoPoint":{"lat":43.11167,"lon":-88.49927}},{"facility":"Marshfield Medical Center-Rice Lake","city":"Rice Lake","state":"Wisconsin","zip":"54868","country":"United States","geoPoint":{"lat":45.50607,"lon":-91.73823}},{"facility":"Essentia Health-Spooner Clinic","city":"Spooner","state":"Wisconsin","zip":"54801","country":"United States","geoPoint":{"lat":45.82245,"lon":-91.88934}},{"facility":"Marshfield Medical Center-River Region at Stevens Point","city":"Stevens Point","state":"Wisconsin","zip":"54482","country":"United States","geoPoint":{"lat":44.52358,"lon":-89.57456}},{"facility":"Essentia Health Saint Mary's Hospital - Superior","city":"Superior","state":"Wisconsin","zip":"54880","country":"United States","geoPoint":{"lat":46.72077,"lon":-92.10408}},{"facility":"ProHealth Waukesha Memorial Hospital","city":"Waukesha","state":"Wisconsin","zip":"53188","country":"United States","geoPoint":{"lat":43.01168,"lon":-88.23148}},{"facility":"UW Cancer Center at ProHealth Care","city":"Waukesha","state":"Wisconsin","zip":"53188","country":"United States","geoPoint":{"lat":43.01168,"lon":-88.23148}},{"facility":"Marshfield Clinic-Wausau Center","city":"Wausau","state":"Wisconsin","zip":"54401","country":"United States","geoPoint":{"lat":44.95914,"lon":-89.63012}},{"facility":"Froedtert West Bend Hospital/Kraemer Cancer Center","city":"West Bend","state":"Wisconsin","zip":"53095","country":"United States","geoPoint":{"lat":43.42528,"lon":-88.18343}},{"facility":"Marshfield Medical Center - Weston","city":"Weston","state":"Wisconsin","zip":"54476","country":"United States","geoPoint":{"lat":44.8908,"lon":-89.54762}},{"facility":"Marshfield Clinic - Wisconsin Rapids Center","city":"Wisconsin Rapids","state":"Wisconsin","zip":"54494","country":"United States","geoPoint":{"lat":44.38358,"lon":-89.81735}},{"facility":"Cheyenne Regional Medical Center-West","city":"Cheyenne","state":"Wyoming","zip":"82001","country":"United States","geoPoint":{"lat":41.13998,"lon":-104.82025}},{"facility":"Billings Clinic-Cody","city":"Cody","state":"Wyoming","zip":"82414","country":"United States","geoPoint":{"lat":44.52634,"lon":-109.05653}},{"facility":"Welch Cancer Center","city":"Sheridan","state":"Wyoming","zip":"82801","country":"United States","geoPoint":{"lat":44.79719,"lon":-106.95618}}]}},"resultsSection":{"participantFlowModule":{"groups":[{"id":"FG000","title":"Group A (Pembrolizumab)","description":"Patients receive pembrolizumab IV over 30 minutes on day 1. Cycles repeat every 21 days in the absence of disease progression or unacceptable toxicity.\\>\\> \\>\\> Pembrolizumab: Given IV\\>\\>\n\n\\>\\> Comprehensive Geriatric Assessment: Ancillary studies\\>\\>\n\n\\>\\> Questionnaire Administration: Ancillary studies\\>\\>\n\n\\>\\> Quality-of-Life Assessment: Ancillary studies"},{"id":"FG001","title":"Group B (Pembrolizumab, Pemetrexed, Carboplatin)","description":"Patients receive pembrolizumab IV over 30 minutes, pemetrexed IV over 10 minutes, and carboplatin IV per institutional guidelines on day 1. Cycles repeat every 21 days in the absence of disease progression or unacceptable toxicity.\\>\\> \\>\\> Pembrolizumab: Given IV\\>\\>\n\n\\>\\> Pemetrexed: Given IV\\>\\>\n\n\\>\\> Carboplatin: Given IV\\>\\>\n\n\\>\\> Comprehensive Geriatric Assessment: Ancillary studies\\>\\>\n\n\\>\\> Questionnaire Administration: Ancillary studies\\>\\>\n\n\\>\\> Quality-of-Life Assessment: Ancillary studies"}],"periods":[{"title":"Overall Study","milestones":[{"type":"STARTED","achievements":[{"groupId":"FG000","numSubjects":"45"},{"groupId":"FG001","numSubjects":"56"}]},{"type":"COMPLETED","achievements":[{"groupId":"FG000","numSubjects":"43"},{"groupId":"FG001","numSubjects":"52"}]},{"type":"NOT COMPLETED","achievements":[{"groupId":"FG000","numSubjects":"2"},{"groupId":"FG001","numSubjects":"4"}]}]}]},"baselineCharacteristicsModule":{"groups":[{"id":"BG000","title":"Group A (Pembrolizumab)","description":"Patients receive pembrolizumab IV over 30 minutes on day 1. Cycles repeat every 21 days in the absence of disease progression or unacceptable toxicity.\\>\\> \\>\\> Pembrolizumab: Given IV\\>\\>\n\n\\>\\> Comprehensive Geriatric Assessment: Ancillary studies\\>\\>\n\n\\>\\> Questionnaire Administration: Ancillary studies\\>\\>\n\n\\>\\> Quality-of-Life Assessment: Ancillary studies"},