{"protocolSection":{"identificationModule":{"nctId":"NCT01802632","orgStudyIdInfo":{"id":"D5160C00001"},"secondaryIdInfos":[{"id":"2012-004628-39","type":"EUDRACT_NUMBER"}],"organization":{"fullName":"AstraZeneca","class":"INDUSTRY"},"briefTitle":"AZD9291 First Time In Patients Ascending Dose Study","officialTitle":"Safety, Tolerability, Pharmacokinetics and Anti-tumour Activity of AZD9291 in Patients With Advanced Non Small Cell Lung Cancer Who Progressed on Prior Therapy With an Epidermal Growth Factor Receptor Tyrosine Kinase Inhibitor Agent","acronym":"AURA"},"statusModule":{"statusVerifiedDate":"2024-01","overallStatus":"COMPLETED","expandedAccessInfo":{"hasExpandedAccess":false},"startDateStruct":{"date":"2013-03-04","type":"ACTUAL"},"primaryCompletionDateStruct":{"date":"2015-05-01","type":"ACTUAL"},"completionDateStruct":{"date":"2023-12-13","type":"ACTUAL"},"studyFirstSubmitDate":"2013-02-25","studyFirstSubmitQcDate":"2013-02-28","studyFirstPostDateStruct":{"date":"2013-03-01","type":"ESTIMATED"},"resultsFirstSubmitDate":"2016-04-29","resultsFirstSubmitQcDate":"2016-08-12","resultsFirstPostDateStruct":{"date":"2016-10-06","type":"ESTIMATED"},"lastUpdateSubmitDate":"2024-01-17","lastUpdatePostDateStruct":{"date":"2024-01-18","type":"ACTUAL"}},"sponsorCollaboratorsModule":{"responsibleParty":{"type":"SPONSOR"},"leadSponsor":{"name":"AstraZeneca","class":"INDUSTRY"}},"oversightModule":{"oversightHasDmc":false},"descriptionModule":{"briefSummary":"This study will treat patients with advanced NSCLC who have already received at least one course of specific anti-cancer treatment but the tumour has started to re-grow following that treatment. This is the first time this drug has ever been tested in patients, and so it will help to understand what type of side effects may occur with the drug treatment, it will measure the levels of drug in the body, it will also measure the anti-cancer activity. By using these pieces of information together the best dose of this drug to use in further clinical trials will be selected.","detailedDescription":"A Phase I/II, Open-Label, Multicentre Study to Assess the Safety, Tolerability, Pharmacokinetics and Anti-tumour Activity of Ascending Doses of AZD9291 in Patients with Advanced Non Small Cell Lung Cancer who have Progressed Following Prior Therapy with an Epidermal Growth Factor Receptor Tyrosine Kinase Inhibitor Agent (AURA)"},"conditionsModule":{"conditions":["Advanced Non Small Cell Lung Cancer","Advanced (Inoperable) Non Small Cell Lung Cancer"],"keywords":["Oncology,","Non Small Cell Lung Cancer,","Metastatic,","EGFR sensitivity mutation,","T790M resistance mutation"]},"designModule":{"studyType":"INTERVENTIONAL","phases":["PHASE1","PHASE2"],"designInfo":{"allocation":"NA","interventionModel":"SINGLE_GROUP","primaryPurpose":"TREATMENT","maskingInfo":{"masking":"NONE"}},"enrollmentInfo":{"count":603,"type":"ACTUAL"}},"armsInterventionsModule":{"armGroups":[{"label":"Daily dose of AZD9291","type":"EXPERIMENTAL","description":"Daily oral dose of AZD9291","interventionNames":["Drug: AZD9291"]}],"interventions":[{"type":"DRUG","name":"AZD9291","description":"Starting dose 20 mg, administered once daily. If tolerated subsequent cohorts will test increasing doses of AZD9291, until a maximum tolerated dose or maximum feasible dose is defined","armGroupLabels":["Daily dose of AZD9291"]}]},"outcomesModule":{"primaryOutcomes":[{"measure":"Objective Response Rate (ORR) for Dose Expansion Population","description":"Per Response Evaluation Criteria in Solid Tumours (RECIST v1.1) assessed by MRI or CT: Complete Response (CR): Disappearance of all target and non-target lesions and no new lesions; Partial Response (PR): \\>= 30% decrease in the sum of diameters of Target Lesions (compared to baseline) and no new lesions. ORR is the percentage of patients with at least 1 visit response of CR or PR (by investigator assessment) that was confirmed at least 4 weeks later, prior to progression or further anti-cancer therapy.","timeFrame":"RECIST tumour assessments every 6 weeks from randomisation until objective disease progression, up to approximately 21 months (at time of analysis)"},{"measure":"Best Objective Response (BOR) for Dose Escalation Population","description":"Per Response Evaluation Criteria in Solid Tumours (RECIST v1.1) assessed by MRI or CT: Complete Response (CR): Disappearance of all target and non-target lesions and no new lesions; Partial Response (PR): \\>= 30% decrease in the sum of diameters of Target Lesions (compared to baseline) and no new lesions; Stable disease (SD): Neither sufficient shrinkage to qualify as a response nor sufficient growth to qualify as progression; Progressive Disease (PD): \\>= 20% increase in the sum of diameters of TLs and an absolute increase in sum of diameters of \\>=5mm (compared to the previous minimum sum) or progression of NTLs or a new lesion. Not evaluable (NE): TL response is missing and there is no evidence of progression of NTLs and no new lesions. BOR is the best response (by investigator assessment) a patient has achieved where the order of best to worst is CR, PR, SD, PD, NE prior to or at progression and prior to further anti-cancer therapy.","timeFrame":"RECIST tumour assessments every 6 weeks from randomisation until objective disease progression, up to approximately 25 months (at time of analysis)"},{"measure":"Objective Response Rate (ORR) for Extension Population","description":"Per Response Evaluation Criteria in Solid Tumours (RECIST v1.1) assessed by MRI or CT: Complete Response (CR): Disappearance of all target and non-target lesions and no new lesions; Partial Response (PR): \\>= 30% decrease in the sum of diameters of Target Lesions (compared to baseline) and no new lesions. ORR is the percentage of patients with at least 1 visit response of CR or PR (by independent central review) that was confirmed at least 4 weeks later, prior to progression or further anti-cancer therapy.","timeFrame":"RECIST tumour assessments every 6 weeks from randomisation until objective disease progression, up to approximately 12 months (at the time of analysis)"}],"secondaryOutcomes":[{"measure":"Duration of Response (DoR) for Dose Expansion Population","description":"Per Response Evaluation Criteria in Solid Tumours (RECIST v1.1) assessed by MRI or CT: Complete Response (CR): Disappearance of all target and non-target lesions and no new lesions; Partial Response (PR): \\>= 30% decrease in the sum of diameters of Target Lesions (compared to baseline) and no new lesions. DoR was defined as the time from the date of first documented response (CR or PR that was subsequently confirmed) until the date of documented progression (PD) or death in the absence of disease progression (by investigator assessment).","timeFrame":"RECIST tumour assessments every 6 weeks from randomisation until objective disease progression, up to approximately 21 months (at time of analysis)"},{"measure":"Progression-Free Survival (PFS) for Dose Expansion Population","description":"Per Response Evaluation Criteria in Solid Tumours (RECIST v1.1) assessed by MRI or CT: Progressive Disease (PD): \\>= 20% increase in the sum of diameters of TLs and an absolute increase in sum of diameters of \\>=5mm (compared to the previous minimum sum) or progression of NTLs or a new lesion. PFS is the time from date of first dose until the date of PD (by independent central review) or death (by any cause in the absence of progression) regardless of whether the patient withdrew from AZD9291 therapy or received another anti-cancer therapy prior to progression. Patients who had not progressed or died at the time of analysis were censored at the time of the latest date of assessment from their last evaluable RECIST 1.1 assessment.","timeFrame":"RECIST tumour assessments every 6 weeks from randomisation until objective disease progression, up to approximately 21 months (at time of analysis)"},{"measure":"Best Objective Response (BOR) for 80mg AZD9291 Extension Population","description":"Per Response Evaluation Criteria in Solid Tumours (RECIST v1.1) assessed by MRI or CT: Complete Response (CR): Disappearance of all target and non-target lesions and no new lesions; Partial Response (PR): \\>= 30% decrease in the sum of diameters of Target Lesions (compared to baseline) and no new lesions; Stable disease (SD): Neither sufficient shrinkage to qualify as a response nor sufficient growth to qualify as progression; Progressive Disease (PD): \\>= 20% increase in the sum of diameters of TLs and an absolute increase in sum of diameters of \\>=5mm (compared to the previous minimum sum) or progression of NTLs or a new lesion. Not evaluable (NE): TL response is missing and there is no evidence of progression of NTLs and no new lesions. BOR is the best response (by investigator assessment) a patient has achieved where the order of best to worst is CR, PR, SD, PD, NE prior to or at progression and prior to further anti-cancer therapy.","timeFrame":"RECIST tumour assessments every 6 weeks from randomisation until objective disease progression, up to approximately 12 months (at the time of analysis)"}]},"eligibilityModule":{"eligibilityCriteria":"Inclusion Criteria:\n\n* Provision of signed and dated, written informed consent prior to any study specific procedures, sampling and analyses\n* Aged at least 18 years. Patients from Japan aged at least 20 years.\n* Histological or cytological confirmation diagnosis of Non Small Cell Lung Cancer (NSCLC).\n* Radiological documentation of disease progression while on a previous continuous treatment with an EGFR TKI e.g. gefitinib or erlotinib (with the exception of 1st line expansion cohort). In addition other lines of therapy may have been given. All patients must have documented radiological progression on the last treatment administered prior to enrolling in the study.\n* Patients (with the exception of 1st line expansion cohort) must fulfil one of the following:\n\n  * Confirmation that the tumour harbours an EGFR mutation known to be associated with EGFR TKI sensitivity (including G719X, exon 19 deletion, L858R, L861Q) OR\n  * Must have experienced clinical benefit from EGFR TKI, according to the Jackman criteria (Jackman et al 2010) followed by systemic objective progression (RECIST or WHO) while on continuous treatment with EGFR TKI.\n* Previous treatment with a single-agent EGFR TKI (e.g. gefitinib or erlotinib).\n* Females should be using adequate contraceptive measures, should not be breast feeding and must have a negative pregnancy test prior to start of dosing or evidence of non-child bearing potential.\n* Male patients should be willing to use barrier contraception.\n* For 1st Line expansion cohort ONLY, confirmation that the tumour is EGFRm+ve and have had no prior therapy for their advanced disease (for 1st line patients biopsy will be at time of diagnosis of advanced disease).\n* For dose expansion and extension cohorts, patients must also have confirmation of tumour T790M mutation status (confirmed positive or negative) from a biopsy sample taken after disease progression on the most recent treatment regimen (irrespective of whether this is EGFR TKI or chemotherapy).\n\nPrior to entry a result from the central analysis of the patient's T790M mutation status must be obtained.\n\n\\- World Health Organisation (WHO) performance status 0-1 with no deterioration over the previous 2 weeks and a minimum life expectancy of 12 weeks.\n\nExclusion Criteria:\n\n* Treatment with an EGFR TKI (erlotinib or gefitinib) within 8 days (approximately 5x half-life) of the first dose of study treatment.\n* Any cytotoxic chemotherapy, investigational agents or other anticancer drugs from the treatment of advanced NSCLC from a previous treatment regimen or clinical study within 14 days of the first dose of study treatment.\n* AZD9291 in the present study (ie, dosing with AZD9291 previously initiated in this study).\n* Any evidence of severe or uncontrolled systemic diseases, including uncontrolled hypertension, active bleeding diatheses, or active infection.\n* Past medical history of interstitial lung disease, drug-induced interstitial lung disease, radiation pneumonitis which required steroid treatment, or any evidence of clinically active interstitial lung disease.","healthyVolunteers":false,"sex":"ALL","minimumAge":"18 Years","maximumAge":"130 Years","stdAges":["ADULT","OLDER_ADULT"]},"contactsLocationsModule":{"overallOfficials":[{"name":"Yuri Rukazenkov","affiliation":"AstraZeneca","role":"STUDY_DIRECTOR"}],"locations":[{"facility":"Research Site","city":"Aurora","state":"Colorado","zip":"80045","country":"United States","geoPoint":{"lat":39.72943,"lon":-104.83192}},{"facility":"Research Site","city":"Atlanta","state":"Georgia","zip":"30322","country":"United States","geoPoint":{"lat":33.749,"lon":-84.38798}},{"facility":"Research Site","city":"Boston","state":"Massachusetts","zip":"02114","country":"United States","geoPoint":{"lat":42.35843,"lon":-71.05977}},{"facility":"Research Site","city":"Boston","state":"Massachusetts","zip":"02215","country":"United States","geoPoint":{"lat":42.35843,"lon":-71.05977}},{"facility":"Research Site","city":"Charlotte","state":"North Carolina","zip":"28204","country":"United States","geoPoint":{"lat":35.22709,"lon":-80.84313}},{"facility":"Research Site","city":"Nashville","state":"Tennessee","zip":"37232","country":"United States","geoPoint":{"lat":36.16589,"lon":-86.78444}},{"facility":"Research Site","city":"Houston","state":"Texas","zip":"77030","country":"United States","geoPoint":{"lat":29.76328,"lon":-95.36327}},{"facility":"Research Site","city":"Heidelberg","zip":"3084","country":"Australia","geoPoint":{"lat":-37.75,"lon":145.06667}},{"facility":"Research Site","city":"Kogarah","zip":"2217","country":"Australia","geoPoint":{"lat":-33.9681,"lon":151.13564}},{"facility":"Research Site","city":"Nedlands","zip":"6009","country":"Australia","geoPoint":{"lat":-31.98184,"lon":115.8073}},{"facility":"Research Site","city":"Pierre-Bénite","zip":"69310","country":"France","geoPoint":{"lat":45.70359,"lon":4.82424}},{"facility":"Research Site","city":"Saint-Herblain","zip":"44805","country":"France","geoPoint":{"lat":47.21154,"lon":-1.651}},{"facility":"Research Site","city":"Villejuif","zip":"94800","country":"France","geoPoint":{"lat":48.7939,"lon":2.35992}},{"facility":"Research Site","city":"Cologne","zip":"50924","country":"Germany","geoPoint":{"lat":50.93333,"lon":6.95}},{"facility":"Research Site","city":"Essen","zip":"45122","country":"Germany","geoPoint":{"lat":51.45657,"lon":7.01228}},{"facility":"Research Site","city":"Würzburg","zip":"97080","country":"Germany","geoPoint":{"lat":49.79391,"lon":9.95121}},{"facility":"Research Site","city":"Genova","zip":"16100","country":"Italy","geoPoint":{"lat":45.21604,"lon":11.87211}},{"facility":"Research Site","city":"Orbassano","zip":"10043","country":"Italy","geoPoint":{"lat":45.00547,"lon":7.53813}},{"facility":"Research Site","city":"Roma","zip":"00144","country":"Italy","geoPoint":{"lat":44.99364,"lon":11.10642}},{"facility":"Research Site","city":"Chiba","zip":"260-8717","country":"Japan","geoPoint":{"lat":35.6,"lon":140.11667}},{"facility":"Research Site","city":"Fukuoka","zip":"811-1395","country":"Japan","geoPoint":{"lat":33.6,"lon":130.41667}},{"facility":"Research Site","city":"Fukuoka","zip":"812-8582","country":"Japan","geoPoint":{"lat":33.6,"lon":130.41667}},{"facility":"Research Site","city":"Habikino-shi","zip":"583-8588","country":"Japan"},{"facility":"Research Site","city":"Hirakata-shi","zip":"573-1191","country":"Japan"},{"facility":"Research Site","city":"Hiroshima","zip":"730-8518","country":"Japan","geoPoint":{"lat":34.4,"lon":132.45}},{"facility":"Research Site","city":"Kanazawa","zip":"920-8641","country":"Japan","geoPoint":{"lat":36.6,"lon":136.61667}},{"facility":"Research Site","city":"Kashiwa","zip":"227-8577","country":"Japan","geoPoint":{"lat":35.86224,"lon":139.97732}},{"facility":"Research Site","city":"Kobe","zip":"650-0047","country":"Japan","geoPoint":{"lat":34.6913,"lon":135.183}},{"facility":"Research Site","city":"Matsuyama","zip":"790-0007","country":"Japan","geoPoint":{"lat":33.83916,"lon":132.76574}},{"facility":"Research Site","city":"Okayama","zip":"700-8558","country":"Japan","geoPoint":{"lat":34.65,"lon":133.93333}},{"facility":"Research Site","city":"Shinjuku-ku","zip":"160-0023","country":"Japan"},{"facility":"Research Site","city":"Sunto-gun","zip":"411-8777","country":"Japan"},{"facility":"Research Site","city":"Takatsuki-shi","zip":"569-8686","country":"Japan"},{"facility":"Research Site","city":"Yokohama","zip":"221-0855","country":"Japan","geoPoint":{"lat":35.43333,"lon":139.65}},{"facility":"Research Site","city":"Seoul","zip":"03080","country":"South Korea","geoPoint":{"lat":37.566,"lon":126.9784}},{"facility":"Research Site","city":"Seoul","zip":"03722","country":"South Korea","geoPoint":{"lat":37.566,"lon":126.9784}},{"facility":"Research Site","city":"Seoul","zip":"05505","country":"South Korea","geoPoint":{"lat":37.566,"lon":126.9784}},{"facility":"Research Site","city":"Seoul","zip":"6351","country":"South Korea","geoPoint":{"lat":37.566,"lon":126.9784}},{"facility":"Research Site","city":"Madrid","zip":"08035","country":"Spain","geoPoint":{"lat":40.4165,"lon":-3.70256}},{"facility":"Research Site","city":"Madrid","zip":"28041","country":"Spain","geoPoint":{"lat":40.4165,"lon":-3.70256}},{"facility":"Research Site","city":"Seville","zip":"41013","country":"Spain","geoPoint":{"lat":37.38283,"lon":-5.97317}},{"facility":"Research Site","city":"Tainan","zip":"704","country":"Taiwan","geoPoint":{"lat":22.99083,"lon":120.21333}},{"facility":"Research Site","city":"Taipei","zip":"10002","country":"Taiwan","geoPoint":{"lat":25.05306,"lon":121.52639}},{"facility":"Research Site","city":"Manchester","zip":"M20 4BX","country":"United Kingdom","geoPoint":{"lat":53.48095,"lon":-2.23743}},{"facility":"Research Site","city":"Newcastle upon Tyne","zip":"NE7 7DN","country":"United Kingdom","geoPoint":{"lat":54.97328,"lon":-1.61396}}]},"referencesModule":{"references":[{"pmid":"40311309","type":"DERIVED","citation":"Murat-Onana ML, Ramalingam SS, Janne PA, Gray JE, Ahn MJ, John T, Yatabe Y, Huang X, Rukazenkov Y, Javey M, Brown H, Li-Sucholeiki X. EGFR mutation testing across the osimertinib clinical program. Lung Cancer. 2025 Jun;204:108549. doi: 10.1016/j.lungcan.2025.108549. Epub 2025 Apr 18."},{"pmid":"34056687","type":"DERIVED","citation":"Martin ML, Correll J, Walding A, Ryden A. How patients being treated for non-small cell lung cancer value treatment benefit despite side effects. Qual Life Res. 2022 Jan;31(1):135-146. doi: 10.1007/s11136-021-02882-6. Epub 2021 May 31."},{"pmid":"31345012","type":"DERIVED","citation":"Ahn MJ, Han JY, Kim DW, Cho BC, Kang JH, Kim SW, Yang JC, Mitsudomi T, Lee JS. Osimertinib in Patients with T790M-Positive Advanced Non-small Cell Lung Cancer: Korean Subgroup Analysis from Phase II Studies. Cancer Res Treat. 2020 Jan;52(1):284-291. doi: 10.4143/crt.2019.200. Epub 2019 Jul 23."},{"pmid":"30512189","type":"DERIVED","citation":"Ahn MJ, Tsai CM, Shepherd FA, Bazhenova L, Sequist LV, Hida T, Yang JCH, Ramalingam SS, Mitsudomi T, Janne PA, Mann H, Cantarini M, Goss G. Osimertinib in patients with T790M mutation-positive, advanced non-small cell lung cancer: Long-term follow-up from a pooled analysis of 2 phase 2 studies. Cancer. 2019 Mar 15;125(6):892-901. doi: 10.1002/cncr.31891. Epub 2018 Dec 4."},{"pmid":"30073261","type":"DERIVED","citation":"Oxnard GR, Hu Y, Mileham KF, Husain H, Costa DB, Tracy P, Feeney N, Sholl LM, Dahlberg SE, Redig AJ, Kwiatkowski DJ, Rabin MS, Paweletz CP, Thress KS, Janne PA. Assessment of Resistance Mechanisms and Clinical Implications in Patients With EGFR T790M-Positive Lung Cancer and Acquired Resistance to Osimertinib. JAMA Oncol. 2018 Nov 1;4(11):1527-1534. doi: 10.1001/jamaoncol.2018.2969."},{"pmid":"29363250","type":"DERIVED","citation":"Kiura K, Yoh K, Katakami N, Nogami N, Kasahara K, Takahashi T, Okamoto I, Cantarini M, Hodge R, Uchida H. Osimertinib in patients with epidermal growth factor receptor T790M advanced non-small cell lung cancer selected using cytology samples. Cancer Sci. 2018 Apr;109(4):1177-1184. doi: 10.1111/cas.13511. Epub 2018 Feb 27."},{"pmid":"29293889","type":"DERIVED","citation":"Goss G, Tsai CM, Shepherd FA, Ahn MJ, Bazhenova L, Crino L, de Marinis F, Felip E, Morabito A, Hodge R, Cantarini M, Johnson M, Mitsudomi T, Janne PA, Yang JC. CNS response to osimertinib in patients with T790M-positive advanced NSCLC: pooled data from two phase II trials. Ann Oncol. 2018 Mar 1;29(3):687-693. doi: 10.1093/annonc/mdx820."},{"pmid":"28841389","type":"DERIVED","citation":"Ramalingam SS, Yang JC, Lee CK, Kurata T, Kim DW, John T, Nogami N, Ohe Y, Mann H, Rukazenkov Y, Ghiorghiu S, Stetson D, Markovets A, Barrett JC, Thress KS, Janne PA. Osimertinib As First-Line Treatment of EGFR Mutation-Positive Advanced Non-Small-Cell Lung Cancer. J Clin Oncol. 2018 Mar 20;36(9):841-849. doi: 10.1200/JCO.2017.74.7576. Epub 2017 Aug 25."},{"pmid":"28751247","type":"DERIVED","citation":"Thress KS, Jacobs V, Angell HK, Yang JC, Sequist LV, Blackhall F, Su WC, Schuler M, Wolf J, Gold KA, Cantarini M, Barrett JC, Janne PA. Modulation of Biomarker Expression by Osimertinib: Results of the Paired Tumor Biopsy Cohorts of the AURA Phase I Trial. J Thorac Oncol. 2017 Oct;12(10):1588-1594. doi: 10.1016/j.jtho.2017.07.011. Epub 2017 Jul 24."},{"pmid":"28577957","type":"DERIVED","citation":"Dearden S, Brown H, Jenkins S, Thress KS, Cantarini M, Cole R, Ranson M, Janne PA. EGFR T790M mutation testing within the osimertinib AURA Phase I study. Lung Cancer. 2017 Jul;109:9-13. doi: 10.1016/j.lungcan.2017.04.011. Epub 2017 Apr 19."},{"pmid":"27435396","type":"DERIVED","citation":"Ballard P, Yates JW, Yang Z, Kim DW, Yang JC, Cantarini M, Pickup K, Jordan A, Hickey M, Grist M, Box M, Johnstrom P, Varnas K, Malmquist J, Thress KS, Janne PA, Cross D. Preclinical Comparison of Osimertinib with Other EGFR-TKIs in EGFR-Mutant NSCLC Brain Metastases Models, and Early Evidence of Clinical Brain Metastases Activity. Clin Cancer Res. 2016 Oct 15;22(20):5130-5140. doi: 10.1158/1078-0432.CCR-16-0399. Epub 2016 Jul 19."},{"pmid":"27354477","type":"DERIVED","citation":"Oxnard GR, Thress KS, Alden RS, Lawrance R, Paweletz CP, Cantarini M, Yang JC, Barrett JC, Janne PA. Association Between Plasma Genotyping and Outcomes of Treatment With Osimertinib (AZD9291) in Advanced Non-Small-Cell Lung Cancer. J Clin Oncol. 2016 Oct 1;34(28):3375-82. doi: 10.1200/JCO.2016.66.7162. Epub 2016 Jun 27."},{"pmid":"26494259","type":"DERIVED","citation":"Thress KS, Brant R, Carr TH, Dearden S, Jenkins S, Brown H, Hammett T, Cantarini M, Barrett JC. EGFR mutation detection in ctDNA from NSCLC patient plasma: A cross-platform comparison of leading technologies to support the clinical development of AZD9291. Lung Cancer. 2015 Dec;90(3):509-15. doi: 10.1016/j.lungcan.2015.10.004. Epub 2015 Oct 9."},{"pmid":"26473643","type":"DERIVED","citation":"Kim TM, Song A, Kim DW, Kim S, Ahn YO, Keam B, Jeon YK, Lee SH, Chung DH, Heo DS. Mechanisms of Acquired Resistance to AZD9291: A Mutation-Selective, Irreversible EGFR Inhibitor. J Thorac Oncol. 2015 Dec;10(12):1736-44. doi: 10.1097/JTO.0000000000000688."},{"pmid":"26181354","type":"DERIVED","citation":"Yu HA, Tian SK, Drilon AE, Borsu L, Riely GJ, Arcila ME, Ladanyi M. Acquired Resistance of EGFR-Mutant Lung Cancer to a T790M-Specific EGFR Inhibitor: Emergence of a Third Mutation (C797S) in the EGFR Tyrosine Kinase Domain. JAMA Oncol. 2015 Oct;1(7):982-4. doi: 10.1001/jamaoncol.2015.1066. No abstract available."},{"pmid":"25923549","type":"DERIVED","citation":"Janne PA, Yang JC, Kim DW, Planchard D, Ohe Y, Ramalingam SS, Ahn MJ, Kim SW, Su WC, Horn L, Haggstrom D, Felip E, Kim JH, Frewer P, Cantarini M, Brown KH, Dickinson PA, Ghiorghiu S, Ranson M. AZD9291 in EGFR inhibitor-resistant non-small-cell lung cancer. N Engl J Med. 2015 Apr 30;372(18):1689-99. doi: 10.1056/NEJMoa1411817."}],"seeAlsoLinks":[{"label":"D5160C00001AURA\\_Protocol\\_for\\_AZ\\_ClinTrials\\_Website","url":"http://filehosting.pharmacm.com/DownloadService.ashx?client=CTR_MED_7111&studyid=492&filename=D5160C00001AURA_Protocol_for_AZ_ClinTrials_Website.pdf"}]},"ipdSharingStatementModule":{"ipdSharing":"YES","description":"Qualified researchers can request access to anonymized individual patient-level data from AstraZeneca group of companies sponsored clinical trials via the request portal. All request will be evaluated as per the AZ disclosure commitment: https://astrazenecagrouptrials.pharmacm.com/ST/Submission/Disclosure.\n\nYes, indicates that AZ are accepting requests for IPD, but this does not mean all requests will be shared.","infoTypes":["STUDY_PROTOCOL","SAP"],"timeFrame":"AstraZeneca will meet or exceed data availability as per the commitments made to the EFPIA Pharma Data Sharing Principles. For details of our timelines, please rerefer to our disclosure commitment at https://astrazenecagrouptrials.pharmacm.com/ST/Submission/Disclosure.","accessCriteria":"When a request has been approved AstraZeneca will provide access to the de-identified individual patient-level data in an approved sponsored tool . Signed Data Sharing Agreement (non-negotiable contract for data accessors) must be in place before accessing requested information. Additionally, all users will need to accept the terms and conditions of the SAS MSE to gain access. For additional details, please review the Disclosure Statements at https://astrazenecagrouptrials.pharmacm.com/ST/Submission/Disclosure.","url":"https://astrazenecagroup-dt.pharmacm.com/DT/Home"}},"resultsSection":{"participantFlowModule":{"preAssignmentDetails":"603 patients were enrolled and received treatment.","recruitmentDetails":"Patients recruited to different cohorts. Dose escalation cohort of pre-treated patients in 5 dose groups. Dose expansion cohort (pre-treated) in same 5 dose groups. First line patient cohort. 80mg tablet cohort of pre-treated patients. Japan-only cohort (EGFR T790M+ by cytology). Phase II extension cohort in pre-treated EGFR T790M+ patients.","groups":[{"id":"FG000","title":"AZD9291 80mg Extension","description":"Phase II dose extension cohort in pre-treated EGFR T790M mutation positive patients in AZD9291 80mg tablet."},{"id":"FG001","title":"Dose Escalation","description":"Pre-treated patient cohort in doses 20, 40, 80, 160 and 240mg AZD9291 capsule."},{"id":"FG002","title":"Dose Expansion","description":"Pre-treated EGFR T790M mutation positive (by central testing) patient cohort. Dose groups were expanded to include more patients."},{"id":"FG003","title":"First Line","description":"Cohort of patients receiving first-line treatment for EGFRm advanced NSCLC, in 80mg and 160mg AZD9291 capsule."},{"id":"FG004","title":"80mg Tablet","description":"US-only cohort of pre-treated EGFR patients receiving the tablet formulation of AZD9291 (80 mg)."},{"id":"FG005","title":"Japan Cytology","description":"Japan-only cohort of patients (EGFR T790M mutation status determined from cytology samples) receiving AZD9291 80 mg tablet."}],"periods":[{"title":"Overall Study","milestones":[{"type":"STARTED","achievements":[{"groupId":"FG000","numSubjects":"201"},{"groupId":"FG001","numSubjects":"31"},{"groupId":"FG002","numSubjects":"271"},{"groupId":"FG003","numSubjects":"60"},{"groupId":"FG004","numSubjects":"12"},{"groupId":"FG005","numSubjects":"28"}]},{"type":"COMPLETED","achievements":[{"groupId":"FG000","numSubjects":"0"},{"groupId":"FG001","numSubjects":"0"},{"groupId":"FG002","numSubjects":"0"},{"groupId":"FG003","numSubjects":"0"},{"groupId":"FG004","numSubjects":"0"},{"groupId":"FG005","numSubjects":"0"}]},{"type":"NOT COMPLETED","achievements":[{"groupId":"FG000","numSubjects":"201"},{"groupId":"FG001","numSubjects":"31"},{"groupId":"FG002","numSubjects":"271"},{"groupId":"FG003","numSubjects":"60"},{"groupId":"FG004","numSubjects":"12"},{"groupId":"FG005","numSubjects":"28"}]}],"dropWithdraws":[{"type":"Death","reasons":[{"groupId":"FG000","numSubjects":"28"},{"groupId":"FG001","numSubjects":"1"},{"groupId":"FG002","numSubjects":"38"},{"groupId":"FG003","numSubjects":"0"},{"groupId":"FG004","numSubjects":"2"},{"groupId":"FG005","numSubjects":"0"}]},{"type":"Withdrawal by Subject","reasons":[{"groupId":"FG000","numSubjects":"4"},{"groupId":"FG001","numSubjects":"2"},{"groupId":"FG002","numSubjects":"7"},{"groupId":"FG003","numSubjects":"3"},{"groupId":"FG004","numSubjects":"0"},{"groupId":"FG005","numSubjects":"1"}]},{"type":"Objective Disease Progression","reasons":[{"groupId":"FG000","numSubjects":"1"},{"groupId":"FG001","numSubjects":"12"},{"groupId":"FG002","numSubjects":"104"},{"groupId":"FG003","numSubjects":"6"},{"groupId":"FG004","numSubjects":"4"},{"groupId":"FG005","numSubjects":"4"}]},{"type":"Ongoing Study at Data Cut-off","reasons":[{"groupId":"FG000","numSubjects":"168"},{"groupId":"FG001","numSubjects":"16"},{"groupId":"FG002","numSubjects":"115"},{"groupId":"FG003","numSubjects":"50"},{"groupId":"FG004","numSubjects":"6"},{"groupId":"FG005","numSubjects":"22"}]},{"type":"Other (not specified)","reasons":[{"groupId":"FG000","numSubjects":"0"},{"groupId":"FG001","numSubjects":"0"},{"groupId":"FG002","numSubjects":"7"},{"groupId":"FG003","numSubjects":"1"},{"groupId":"FG004","numSubjects":"0"},{"groupId":"FG005","numSubjects":"1"}]}]}]},"baselineCharacteristicsModule":{"groups":[{"id":"BG000","title":"AZD9291 80mg Extension","description":"Phase II dose extension cohort in pre-treated EGFR T790M mutation positive patients in AZD9291 80mg tablet."},{"id":"BG001","title":"Dose Escalation","description":"Pre-treated patient cohort in doses 20, 40, 80, 160 and 240mg AZD9291 capsule."},{"id":"BG002","title":"Dose Expansion","description":"Pre-treated EGFR T790M mutation positive (by central testing) patient cohort. Dose groups were expanded to include more patients."},{"id":"BG003","title":"First Line","description":"Cohort of patients receiving first-line treatment for EGFRm advanced NSCLC, in 80mg and 160mg AZD9291 capsule."},{"id":"BG004","title":"80mg Tablet","description":"US-only cohort of pre-treated EGFR patients receiving the tablet formulation of AZD9291 (80 mg)."},{"id":"BG005","title":"Japan Cytology","description":"Japan-only cohort of patients (EGFR T790M mutation status determined from cytology samples) receiving AZD9291 80 mg tablet."},{"id":"BG006","title":"Total","description":"Total of all reporting groups"}],"denoms":[{"units":"Participants","counts":[{"groupId":"BG000","value":"201"},{"groupId":"BG001","value":"31"},{"groupId":"BG002","value":"271"},{"groupId":"BG003","value":"60"},{"groupId":"BG004","value":"12"},{"groupId":"BG005","value":"28"},{"groupId":"BG006","value":"603"}]}],"measures":[{"title":"Age, Customized","paramType":"NUMBER","unitOfMeasure":"Participants","classes":[{"title":"<50 Years","categories":[{"measurements":[{"groupId":"BG000","value":"30"},{"groupId":"BG001","value":"3"},{"groupId":"BG002","value":"42"},{"groupId":"BG003","value":"8"},{"groupId":"BG004","value":"3"},{"groupId":"BG005","value":"3"},{"groupId":"BG006","value":"89"}]}]},{"title":">=50-<65 Years","categories":[{"measurements":[{"groupId":"BG000","value":"86"},{"groupId":"BG001","value":"19"},{"groupId":"BG002","value":"142"},{"groupId":"BG003","value":"23"},{"groupId":"BG004","value":"6"},{"groupId":"BG005","value":"13"},{"groupId":"BG006","value":"289"}]}]},{"title":">=65-<75 Years","categories":[{"measurements":[{"groupId":"BG000","value":"64"},{"groupId":"BG001","value":"8"},{"groupId":"BG002","value":"59"},{"groupId":"BG003","value":"22"},{"groupId":"BG004","value":"3"},{"groupId":"BG005","value":"9"},{"groupId":"BG006","value":"165"}]}]},{"title":">=75 Years","categories":[{"measurements":[{"groupId":"BG000","value":"21"},{"groupId":"BG001","value":"1"},{"groupId":"BG002","value":"28"},{"groupId":"BG003","value":"7"},{"groupId":"BG004","value":"0"},{"groupId":"BG005","value":"3"},{"groupId":"BG006","value":"60"}]}]}]},{"title":"Sex: Female, Male","paramType":"COUNT_OF_PARTICIPANTS","unitOfMeasure":"Participants","classes":[{"categories":[{"title":"Female","measurements":[{"groupId":"BG000","value":"133"},{"groupId":"BG001","value":"20"},{"groupId":"BG002","value":"167"},{"groupId":"BG003","value":"45"},{"groupId":"BG004","value":"8"},{"groupId":"BG005","value":"21"},{"groupId":"BG006","value":"394"}]},{"title":"Male","measurements":[{"groupId":"BG000","value":"68"},{"groupId":"BG001","value":"11"},{"groupId":"BG002","value":"104"},{"groupId":"BG003","value":"15"},{"groupId":"BG004","value":"4"},{"groupId":"BG005","value":"7"},{"groupId":"BG006","value":"209"}]}]}]},{"title":"Race/Ethnicity, Customized","paramType":"NUMBER","unitOfMeasure":"Participants","classes":[{"title":"Asian","categories":[{"measurements":[{"groupId":"BG000","value":"114"},{"groupId":"BG001","value":"21"},{"groupId":"BG002","value":"160"},{"groupId":"BG003","value":"43"},{"groupId":"BG004","value":"4"},{"groupId":"BG005","value":"28"},{"groupId":"BG006","value":"370"}]}]},{"title":"Black Or African American","categories":[{"measurements":[{"groupId":"BG000","value":"1"},{"groupId":"BG001","value":"0"},{"groupId":"BG002","value":"3"},{"groupId":"BG003","value":"0"},{"groupId":"BG004","value":"1"},{"groupId":"BG005","value":"0"},{"groupId":"BG006","value":"5"}]}]},{"title":"Missing","categories":[{"measurements":[{"groupId":"BG000","value":"2"},{"groupId":"BG001","value":"0"},{"groupId":"BG002","value":"0"},{"groupId":"BG003","value":"0"},{"groupId":"BG004","value":"0"},{"groupId":"BG005","value":"0"},{"groupId":"BG006","value":"2"}]}]},{"title":"Not Reported","categories":[{"measurements":[{"groupId":"BG000","value":"4"},{"groupId":"BG001","value":"4"},{"groupId":"BG002","value":"11"},{"groupId":"BG003","value":"1"},{"groupId":"BG004","value":"0"},{"groupId":"BG005","value":"0"},{"groupId":"BG006","value":"20"}]}]},{"title":"Other","categories":[{"measurements":[{"groupId":"BG000","value":"4"},{"groupId":"BG001","value":"1"},{"groupId":"BG002","value":"2"},{"groupId":"BG003","value":"1"},{"groupId":"BG004","value":"0"},{"groupId":"BG005","value":"0"},{"groupId":"BG006","value":"8"}]}]},{"title":"White","categories":[{"measurements":[{"groupId":"BG000","value":"76"},{"groupId":"BG001","value":"5"},{"groupId":"BG002","value":"95"},{"groupId":"BG003","value":"14"},{"groupId":"BG004","value":"7"},{"groupId":"BG005","value":"0"},{"groupId":"BG006","value":"197"}]}]},{"title":"American Indian or Alaska Native","categories":[{"measurements":[{"groupId":"BG000","value":"0"},{"groupId":"BG001","value":"0"},{"groupId":"BG002","value":"0"},{"groupId":"BG003","value":"1"},{"groupId":"BG004","value":"0"},{"groupId":"BG005","value":"0"},{"groupId":"BG006","value":"1"}]}]}]}]},"outcomeMeasuresModule":{"outcomeMeasures":[{"type":"PRIMARY","title":"Objective Response Rate (ORR) for Dose Expansion Population","description":"Per Response Evaluation Criteria in Solid Tumours (RECIST v1.1) assessed by MRI or CT: Complete Response (CR): Disappearance of all target and non-target lesions and no new lesions; Partial Response (PR): \\>= 30% decrease in the sum of diameters of Target Lesions (compared to baseline) and no new lesions. ORR is the percentage of patients with at least 1 visit response of CR or PR (by investigator assessment) that was confirmed at least 4 weeks later, prior to progression or further anti-cancer therapy.","populationDescription":"All pre-treated EGFR T790M mutation positive (by central testing) patients who received at least one dose of AZD9291.","reportingStatus":"POSTED","paramType":"NUMBER","dispersionType":"95% Confidence Interval","unitOfMeasure":"% of participants","timeFrame":"RECIST tumour assessments every 6 weeks from randomisation until objective disease progression, up to approximately 21 months (at time of analysis)","groups":[{"id":"OG000","title":"Dose Expansion","description":"Pre-treated EGFR T790M mutation positive (by central testing) patient cohort. Dose groups were expanded to include more patients."}],"denoms":[{"units":"Participants","counts":[{"groupId":"OG000","value":"175"}]}],"classes":[{"categories":[{"measurements":[{"groupId":"OG000","value":"61.7","lowerLimit":"54.1","upperLimit":"68.9"}]}]}]},{"type":"PRIMARY","title":"Best Objective Response (BOR) for Dose Escalation Population","description":"Per Response Evaluation Criteria in Solid Tumours (RECIST v1.1) assessed by MRI or CT: Complete Response (CR): Disappearance of all target and non-target lesions and no new lesions; Partial Response (PR): \\>= 30% decrease in the sum of diameters of Target Lesions (compared to baseline) and no new lesions; Stable disease (SD): Neither sufficient shrinkage to qualify as a response nor sufficient growth to qualify as progression; Progressive Disease (PD): \\>= 20% increase in the sum of diameters of TLs and an absolute increase in sum of diameters of \\>=5mm (compared to the previous minimum sum) or progression of NTLs or a new lesion. Not evaluable (NE): TL response is missing and there is no evidence of progression of NTLs and no new lesions. BOR is the best response (by investigator assessment) a patient has achieved where the order of best to worst is CR, PR, SD, PD, NE prior to or at progression and prior to further anti-cancer therapy.","populationDescription":"All pre-treated EGFR T790M mutation positive (by central testing) patients who received at least one dose of AZD9291.","reportingStatus":"POSTED","paramType":"NUMBER","unitOfMeasure":"% of participants","timeFrame":"RECIST tumour assessments every 6 weeks from randomisation until objective disease progression, up to approximately 25 months (at time of analysis)","groups":[{"id":"OG000","title":"Dose Escalation","description":"Pre-treated patient cohort in doses 20, 40, 80, 160 and 240mg AZD9291 capsule."}],"denoms":[{"units":"Participants","counts":[{"groupId":"OG000","value":"31"}]}],"classes":[{"title":"Partial Response","categories":[{"measurements":[{"groupId":"OG000","value":"58.1","lowerLimit":"54.1","upperLimit":"68.9"}]}]},{"title":"Stable disease","categories":[{"measurements":[{"groupId":"OG000","value":"19.4"}]}]},{"title":"Progressive disease","categories":[{"measurements":[{"groupId":"OG000","value":"16.1"}]}]},{"title":"Not evaluable","categories":[{"measurements":[{"groupId":"OG000","value":"6.5"}]}]}]},{"type":"SECONDARY","title":"Duration of Response (DoR) for Dose Expansion Population","description":"Per Response Evaluation Criteria in Solid Tumours (RECIST v1.1) assessed by MRI or CT: Complete Response (CR): Disappearance of all target and non-target lesions and no new lesions; Partial Response (PR): \\>= 30% decrease in the sum of diameters of Target Lesions (compared to baseline) and no new lesions. DoR was defined as the time from the date of first documented response (CR or PR that was subsequently confirmed) until the date of documented progression (PD) or death in the absence of disease progression (by investigator assessment).","populationDescription":"All pre-treated EGFR T790M mutation positive (by central testing) patients who received at least one dose of AZD9291.","reportingStatus":"POSTED","paramType":"MEDIAN","dispersionType":"95% Confidence Interval","unitOfMeasure":"months","timeFrame":"RECIST tumour assessments every 6 weeks from randomisation until objective disease progression, up to approximately 21 months (at time of analysis)","groups":[{"id":"OG000","title":"Dose Expansion","description":"Pre-treated EGFR T790M mutation positive (by central testing) population. Dose groups were expanded to include more patients."}],"denoms":[{"units":"Participants","counts":[{"groupId":"OG000","value":"108"}]}],"classes":[{"categories":[{"measurements":[{"groupId":"OG000","value":"11.1","lowerLimit":"8.3","upperLimit":"13.8"}]}]}]},{"type":"SECONDARY","title":"Progression-Free Survival (PFS) for Dose Expansion Population","description":"Per Response Evaluation Criteria in Solid Tumours (RECIST v1.1) assessed by MRI or CT: Progressive Disease (PD): \\>= 20% increase in the sum of diameters of TLs and an absolute increase in sum of diameters of \\>=5mm (compared to the previous minimum sum) or progression of NTLs or a new lesion. PFS is the time from date of first dose until the date of PD (by independent central review) or death (by any cause in the absence of progression) regardless of whether the patient withdrew from AZD9291 therapy or received another anti-cancer therapy prior to progression. Patients who had not progressed or died at the time of analysis were censored at the time of the latest date of assessment from their last evaluable RECIST 1.1 assessment.","populationDescription":"All pre-treated EGFR T790M mutation positive (by central testing) patients who received at least one dose of AZD9291.","reportingStatus":"POSTED","paramType":"MEDIAN","dispersionType":"95% Confidence Interval","unitOfMeasure":"months","timeFrame":"RECIST tumour assessments every 6 weeks from randomisation until objective disease progression, up to approximately 21 months (at time of analysis)","groups":[{"id":"OG000","title":"Dose Expansion","description":"Pre-treated EGFR T790M mutation positive (by central testing) population. Dose groups were expanded to include more patients."}],"denoms":[{"units":"Participants","counts":[{"groupId":"OG000","value":"175"}]}],"classes":[{"categories":[{"measurements":[{"groupId":"OG000","value":"9.7","lowerLimit":"8.3","upperLimit":"12.5"}]}]}]},{"type":"PRIMARY","title":"Objective Response Rate (ORR) for Extension Population","description":"Per Response Evaluation Criteria in Solid Tumours (RECIST v1.1) assessed by MRI or CT: Complete Response (CR): Disappearance of all target and non-target lesions and no new lesions; Partial Response (PR): \\>= 30% decrease in the sum of diameters of Target Lesions (compared to baseline) and no new lesions. ORR is the percentage of patients with at least 1 visit response of CR or PR (by independent central review) that was confirmed at least 4 weeks later, prior to progression or further anti-cancer therapy.","populationDescription":"All patients in the 80mg AZD9291 extension part of the study (second line or later, EGFR T790M mutation positive by central testing) who received at least one dose of AZD9291 and had measurable disease (by independent central review) at baseline.","reportingStatus":"POSTED","paramType":"NUMBER","dispersionType":"95% Confidence Interval","unitOfMeasure":"% of participants","timeFrame":"RECIST tumour assessments every 6 weeks from randomisation until objective disease progression, up to approximately 12 months (at the time of analysis)","groups":[{"id":"OG000","title":"80mg AZD9291 Extension","description":"Phase II dose extension cohort in pre-treated EGFR T790M mutation positive patients in AZD9291 80mg tablet."}],"denoms":[{"units":"Participants","counts":[{"groupId":"OG000","value":"199"}]}],"classes":[{"categories":[{"measurements":[{"groupId":"OG000","value":"61.3","lowerLimit":"54.2","upperLimit":"68.1"}]}]}]},{"type":"SECONDARY","title":"Best Objective Response (BOR) for 80mg AZD9291 Extension Population","description":"Per Response Evaluation Criteria in Solid Tumours (RECIST v1.1) assessed by MRI or CT: Complete Response (CR): Disappearance of all target and non-target lesions and no new lesions; Partial Response (PR): \\>= 30% decrease in the sum of diameters of Target Lesions (compared to baseline) and no new lesions; Stable disease (SD): Neither sufficient shrinkage to qualify as a response nor sufficient growth to qualify as progression; Progressive Disease (PD): \\>= 20% increase in the sum of diameters of TLs and an absolute increase in sum of diameters of \\>=5mm (compared to the previous minimum sum) or progression of NTLs or a new lesion. Not evaluable (NE): TL response is missing and there is no evidence of progression of NTLs and no new lesions. BOR is the best response (by investigator assessment) a patient has achieved where the order of best to worst is CR, PR, SD, PD, NE prior to or at progression and prior to further anti-cancer therapy.","populationDescription":"All patients in the 80mg AZD9291 extension part of the study (second line or later, EGFR T790M mutation positive by central testing) who received at least one dose of AZD9291 and had measurable disease (by investigator assessment) at baseline.","reportingStatus":"POSTED","paramType":"NUMBER","unitOfMeasure":"% of participants","timeFrame":"RECIST tumour assessments every 6 weeks from randomisation until objective disease progression, up to approximately 12 months (at the time of analysis)","groups":[{"id":"OG000","title":"80mg AZD9291 Extension","description":"Phase II dose extension cohort in pre-treated EGFR T790M mutation positive patients in AZD9291 80mg tablet."}],"denoms":[{"units":"Participants","counts":[{"groupId":"OG000","value":"201"}]}],"classes":[{"title":"Complete Response","categories":[{"measurements":[{"groupId":"OG000","value":"0.5","lowerLimit":"54.1","upperLimit":"68.9"}]}]},{"title":"Partial response","categories":[{"measurements":[{"groupId":"OG000","value":"70.1"}]}]},{"title":"Stable disease","categories":[{"measurements":[{"groupId":"OG000","value":"22.9"}]}]},{"title":"Progressive disease","categories":[{"measurements":[{"groupId":"OG000","value":"6.0"}]}]},{"title":"Not evaluable","categories":[{"measurements":[{"groupId":"OG000","value":"0.5"}]}]}]}]},"adverseEventsModule":{"frequencyThreshold":"5","timeFrame":"AEs from start of study drug until 28 days post study treatment discontinuation, up to approximately 25 months (at time of analysis).","description":"Different cohorts started at different times and so some cohorts have collected AE data for a shorter length of time, e.g. Extension cohort was the last cohort and follow up is approximately 12 months at time of analysis. Systematic assessment due to regular investigator assessment at study visits.","eventGroups":[{"id":"EG000","title":"AZD9291 80mg Extension","description":"Phase II dose extension cohort in pre-treated EGFR T790M mutation positive patients in AZD9291 80mg tablet.","seriousNumAffected":41,"seriousNumAtRisk":201,"otherNumAffected":191,"otherNumAtRisk":201},{"id":"EG001","title":"Dose Escalation","description":"Pre-treated patient cohort in doses 20, 40, 80, 160 and 240mg AZD9291 capsule.","seriousNumAffected":9,"seriousNumAtRisk":31,"otherNumAffected":31,"otherNumAtRisk":31},{"id":"EG002","title":"Dose Expansion","description":"Pre-treated EGFR T790M mutation positive (by central testing) patient cohort. Dose groups were expanded to include more patients.","seriousNumAffected":78,"seriousNumAtRisk":271,"otherNumAffected":265,"otherNumAtRisk":271},{"id":"EG003","title":"First Line","description":"Cohort of patients receiving first-line treatment for EGFRm advanced NSCLC, in 80mg and 160mg AZD9291 capsule.","seriousNumAffected":14,"seriousNumAtRisk":60,"otherNumAffected":60,"otherNumAtRisk":60},{"id":"EG004","title":"80mg Tablet","description":"US-only cohort of pre-treated EGFR patients receiving the tablet formulation of AZD9291 (80 mg).","seriousNumAffected":4,"seriousNumAtRisk":12,"otherNumAffected":12,"otherNumAtRisk":12},{"id":"EG005","title":"Japan Cytology","description":"Japan-only cohort of patients (EGFR T790M mutation status determined from cytology samples) receiving AZD9291 80 mg tablet.","seriousNumAffected":4,"seriousNumAtRisk":28,"otherNumAffected":24,"otherNumAtRisk":28}],"seriousEvents":[{"term":"Anaemia","organSystem":"Blood and lymphatic system disorders","sourceVocabulary":"MedDRA 18.0","assessmentType":"SYSTEMATIC_ASSESSMENT","stats":[{"groupId":"EG000","numEvents":2,"numAffected":2,"numAtRisk":201},{"groupId":"EG001","numEvents":0,"numAffected":0,"numAtRisk":31},{"groupId":"EG002","numEvents":1,"numAffected":1,"numAtRisk":271},{"groupId":"EG003","numEvents":0,"numAffected":0,"numAtRisk":60},{"groupId":"EG004","numEvents":0,"numAffected":0,"numAtRisk":12},{"groupId":"EG005","numEvents":0,"numAffected":0,"numAtRisk":28}]},{"term":"Disseminated intravascular coagulation","organSystem":"Blood and lymphatic system disorders","sourceVocabulary":"MedDRA 18.0","assessmentType":"SYSTEMATIC_ASSESSMENT","stats":[{"groupId":"EG000","numEvents":1,"numAffected":1,"numAtRisk":201},{"groupId":"EG001","numEvents":0,"numAffected":0,"numAtRisk":31},{"groupId":"EG002","numEvents":0,"numAffected":0,"numAtRisk":271},{"groupId":"EG003","numEvents":0,"numAffected":0,"numAtRisk":60},{"groupId":"EG004","numEvents":0,"numAffected":0,"numAtRisk":12},{"groupId":"EG005","numEvents":0,"numAffected":0,"numAtRisk":28}]},{"term":"Thrombocytopenia","organSystem":"Blood and lymphatic system disorders","sourceVocabulary":"MedDRA 18.0","assessmentType":"SYSTEMATIC_ASSESSMENT","stats":[{"groupId":"EG000","numEvents":1,"numAffected":1,"numAtRisk":201},{"groupId":"EG001","numEvents":0,"numAffected":0,"numAtRisk":31},{"groupId":"EG002","numEvents":0,"numAffected":0,"numAtRisk":271},{"groupId":"EG003","numEvents":0,"numAffected":0,"numAtRisk":60},{"groupId":"EG004","numEvents":0,"numAffected":0,"numAtRisk":12},{"groupId":"EG005","numEvents":0,"numAffected":0,"numAtRisk":28}]},{"term":"Cardiac failure congestive","organSystem":"Cardiac disorders","sourceVocabulary":"MedDRA 18.0","assessmentType":"SYSTEMATIC_ASSESSMENT","stats":[{"groupId":"EG000","numEvents":1,"numAffected":1,"numAtRisk":201},{"groupId":"EG001","numEvents":0,"numAffected":0,"numAtRisk":31},{"groupId":"EG002","numEvents":0,"numAffected":0,"numAtRisk":271},{"groupId":"EG003","numEvents":0,"numAffected":0,"numAtRisk":60},{"groupId":"EG004","numEvents":0,"numAffected":0,"numAtRisk":12},{"groupId":"EG005","numEvents":0,"numAffected":0,"numAtRisk":28}]},{"term":"Constipation","organSystem":"Gastrointestinal disorders","sourceVocabulary":"MedDRA 18.0","assessmentType":"SYSTEMATIC_ASSESSMENT","stats":[{"groupId":"EG000","numEvents":1,"numAffected":1,"numAtRisk":201},{"groupId":"EG001","numEvents":0,"numAffected":0,"numAtRisk":31},{"groupId":"EG002","numEvents":0,"numAffected":0,"numAtRisk":271},{"groupId":"EG003","numEvents":0,"numAffected":0,"numAtRisk":60},{"groupId":"EG004","numEvents":0,"numAffected":0,"numAtRisk":12},{"groupId":"EG005","numEvents":0,"numAffected":0,"numAtRisk":28}]},{"term":"Diarrhoea","organSystem":"Gastrointestinal disorders","sourceVocabulary":"MedDRA 18.0","assessmentType":"SYSTEMATIC_ASSESSMENT","stats":[{"groupId":"EG000","numEvents":1,"numAffected":1,"numAtRisk":201},{"groupId":"EG001","numEvents":1,"numAffected":1,"numAtRisk":31},{"groupId":"EG002","numEvents":4,"numAffected":4,"numAtRisk":271},{"groupId":"EG003","numEvents":2,"numAffected":2,"numAtRisk":60},{"groupId":"EG004","numEvents":0,"numAffected":0,"numAtRisk":12},{"groupId":"EG005","numEvents":0,"numAffected":0,"numAtRisk":28}]},{"term":"Inguinal hernia","organSystem":"Gastrointestinal disorders","sourceVocabulary":"MedDRA 18.0","assessmentType":"SYSTEMATIC_ASSESSMENT","stats":[{"groupId":"EG000","numEvents":1,"numAffected":1,"numAtRisk":201},{"groupId":"EG001","numEvents":0,"numAffected":0,"numAtRisk":31},{"groupId":"EG002","numEvents":0,"numAffected":0,"numAtRisk":271},{"groupId":"EG003","numEvents":0,"numAffected":0,"numAtRisk":60},{"groupId":"EG004","numEvents":0,"numAffected":0,"numAtRisk":12},{"groupId":"EG005","numEvents":0,"numAffected":0,"numAtRisk":28}]},{"term":"Nausea","organSystem":"Gastrointestinal disorders","sourceVocabulary":"MedDRA 18.0","assessmentType":"SYSTEMATIC_ASSESSMENT","stats":[{"groupId":"EG000","numEvents":1,"numAffected":1,"numAtRisk":201},{"groupId":"EG001","numEvents":3,"numAffected":2,"numAtRisk":31},{"groupId":"EG002","numEvents":3,"numAffected":3,"numAtRisk":271},{"groupId":"EG003","numEvents":0,"numAffected":0,"numAtRisk":60},{"groupId":"EG004","numEvents":0,"numAffected":0,"numAtRisk":12},{"groupId":"EG005","numEvents":0,"numAffected":0,"numAtRisk":28}]},{"term":"Vomiting","organSystem":"Gastrointestinal disorders","sourceVocabulary":"MedDRA 18.0","assessmentType":"SYSTEMATIC_ASSESSMENT","stats":[{"groupId":"EG000","numEvents":1,"numAffected":1,"numAtRisk":201},{"groupId":"EG001","numEvents":1,"numAffected":1,"numAtRisk":31},{"groupId":"EG002","numEvents":2,"numAffected":2,"numAtRisk":271},{"groupId":"EG003","numEvents":0,"numAffected":0,"numAtRisk":60},{"groupId":"EG004","numEvents":0,"numAffected":0,"numAtRisk":12},{"groupId":"EG005","numEvents":0,"numAffected":0,"numAtRisk":28}]},{"term":"Asthenia","organSystem":"General disorders","sourceVocabulary":"MedDRA 18.0","assessmentType":"SYSTEMATIC_ASSESSMENT","stats":[{"groupId":"EG000","numEvents":1,"numAffected":1,"numAtRisk":201},{"groupId":"EG001","numEvents":0,"numAffected":0,"numAtRisk":31},{"groupId":"EG002","numEvents":2,"numAffected":2,"numAtRisk":271},{"groupId":"EG003","numEvents":0,"numAffected":0,"numAtRisk":60},{"groupId":"EG004","numEvents":0,"numAffected":0,"numAtRisk":12},{"groupId":"EG005","numEvents":0,"numAffected":0,"numAtRisk":28}]},{"term":"Fatigue","organSystem":"General disorders","sourceVocabulary":"MedDRA 18.0","assessmentType":"SYSTEMATIC_ASSESSMENT","stats":[{"groupId":"EG000","numEvents":1,"numAffected":1,"numAtRisk":201},{"groupId":"EG001","numEvents":1,"numAffected":1,"numAtRisk":31},{"groupId":"EG002","numEvents":1,"numAffected":1,"numAtRisk":271},{"groupId":"EG003","numEvents":0,"numAffected":0,"numAtRisk":60},{"groupId":"EG004","numEvents":0,"numAffected":0,"numAtRisk":12},{"groupId":"EG005","numEvents":0,"numAffected":0,"numAtRisk":28}]},{"term":"Localised oedema","organSystem":"General disorders","sourceVocabulary":"MedDRA 18.0","assessmentType":"SYSTEMATIC_ASSESSMENT","stats":[{"groupId":"EG000","numEvents":1,"numAffected":1,"numAtRisk":201},{"groupId":"EG001","numEvents":0,"numAffected":0,"numAtRisk":31},{"groupId":"EG002","numEvents":0,"numAffected":0,"numAtRisk":271},{"groupId":"EG003","numEvents":0,"numAffected":0,"numAtRisk":60},{"groupId":"EG004","numEvents":0,"numAffected":0,"numAtRisk":12},{"groupId":"EG005","numEvents":0,"numAffected":0,"numAtRisk":28}]},{"term":"Oedema peripheral","organSystem":"General disorders","sourceVocabulary":"MedDRA 18.0","assessmentType":"SYSTEMATIC_ASSESSMENT","stats":[{"groupId":"EG000","numEvents":1,"numAffected":1,"numAtRisk":201},{"groupId":"EG001","numEvents":0,"numAffected":0,"numAtRisk":31},{"groupId":"EG002","numEvents":0,"numAffected":0,"numAtRisk":271},{"groupId":"EG003","numEvents":0,"numAffected":0,"numAtRisk":60},{"groupId":"EG004","numEvents":0,"numAffected":0,"numAtRisk":12},{"groupId":"EG005","numEvents":0,"numAffected":0,"numAtRisk":28}]},{"term":"Hepatic function abnormal","organSystem":"Hepatobiliary disorders","sourceVocabulary":"MedDRA 18.0","assessmentType":"SYSTEMATIC_ASSESSMENT","stats":[{"groupId":"EG000","numEvents":1,"numAffected":1,"numAtRisk":201},{"groupId":"EG001","numEvents":0,"numAffected":0,"numAtRisk":31},{"groupId":"EG002","numEvents":0,"numAffected":0,"numAtRisk":271},{"groupId":"EG003","numEvents":0,"numAffected":0,"numAtRisk":60},{"groupId":"EG004","numEvents":0,"numAffected":0,"numAtRisk":12},{"groupId":"EG005","numEvents":0,"numAffected":0,"numAtRisk":28}]},{"term":"Jaundice","organSystem":"Hepatobiliary disorders","sourceVocabulary":"MedDRA 18.0","assessmentType":"SYSTEMATIC_ASSESSMENT","stats":[{"groupId":"EG000","numEvents":1,"numAffected":1,"numAtRisk":201},{"groupId":"EG001","numEvents":0,"numAffected":0,"numAtRisk":31},{"groupId":"EG002","numEvents":0,"numAffected":0,"numAtRisk":271},{"groupId":"EG003","numEvents":0,"numAffected":0,"numAtRisk":60},{"groupId":"EG004","numEvents":0,"numAffected":0,"numAtRisk":12},{"groupId":"EG005","numEvents":0,"numAffected":0,"numAtRisk":28}]},{"term":"Liver disorder","organSystem":"Hepatobiliary disorders","sourceVocabulary":"MedDRA 18.0","assessmentType":"SYSTEMATIC_ASSESSMENT","stats":[{"groupId":"EG000","numEvents":1,"numAffected":1,"numAtRisk":201},{"groupId":"EG001","numEvents":0,"numAffected":0,"numAtRisk":31},{"groupId":"EG002","numEvents":0,"numAffected":0,"numAtRisk":271},{"groupId":"EG003","numEvents":0,"numAffected":0,"numAtRisk":60},{"groupId":"EG004","numEvents":0,"numAffected":0,"numAtRisk":12},{"groupId":"EG005","numEvents":0,"numAffected":0,"numAtRisk":28}]},{"term":"Appendicitis","organSystem":"Infections and infestations","sourceVocabulary":"MedDRA 18.0","assessmentType":"SYSTEMATIC_ASSESSMENT","stats":[{"groupId":"EG000","numEvents":1,"numAffected":1,"numAtRisk":201},{"groupId":"EG001","numEvents":0,"numAffected":0,"numAtRisk":31},{"groupId":"EG002","numEvents":0,"numAffected":0,"numAtRisk":271},{"groupId":"EG003","numEvents":0,"numAffected":0,"numAtRisk":60},{"groupId":"EG004","numEvents":0,"numAffected":0,"numAtRisk":12},{"groupId":"EG005","numEvents":0,"numAffected":0,"numAtRisk":28}]},{"term":"Bronchopneumonia","organSystem":"Infections and infestations","sourceVocabulary":"MedDRA 18.0","assessmentType":"SYSTEMATIC_ASSESSMENT","stats":[{"groupId":"EG000","numEvents":1,"numAffected":1,"numAtRisk":201},{"groupId":"EG001","numEvents":0,"numAffected":0,"numAtRisk":31},{"groupId":"EG002","numEvents":0,"numAffected":0,"numAtRisk":271},{"groupId":"EG003","numEvents":0,"numAffected":0,"numAtRisk":60},{"groupId":"EG004","numEvents":0,"numAffected":0,"numAtRisk":12},{"groupId":"EG005","numEvents":0,"numAffected":0,"numAtRisk":28}]},{"term":"Influenza","organSystem":"Infections and infestations","sourceVocabulary":"MedDRA 18.0","assessmentType":"SYSTEMATIC_ASSESSMENT","stats":[{"groupId":"EG000","numEvents":2,"numAffected":2,"numAtRisk":201},{"groupId":"EG001","numEvents":0,"numAffected":0,"numAtRisk":31},{"groupId":"EG002","numEvents":0,"numAffected":0,"numAtRisk":271},{"groupId":"EG003","numEvents":0,"numAffected":0,"numAtRisk":60},{"groupId":"EG004","numEvents":0,"numAffected":0,"numAtRisk":12},{"groupId":"EG005","numEvents":0,"numAffected":0,"numAtRisk":28}]},{"term":"Pneumonia","organSystem":"Infections and infestations","sourceVocabulary":"MedDRA 18.0","assessmentType":"SYSTEMATIC_ASSESSMENT","stats":[{"groupId":"EG000","numEvents":7,"numAffected":7,"numAtRisk":201},{"groupId":"EG001","numEvents":3,"numAffected":3,"numAtRisk":31},{"groupId":"EG002","numEvents":8,"numAffected":8,"numAtRisk":271},{"groupId":"EG003","numEvents":2,"numAffected":2,"numAtRisk":60},{"groupId":"EG004","numEvents":0,"numAffected":0,"numAtRisk":12},{"groupId":"EG005","numEvents":0,"numAffected":0,"numAtRisk":28}]},{"term":"Salmonella sepsis","organSystem":"Infections and infestations","sourceVocabulary":"MedDRA 18.0","assessmentType":"SYSTEMATIC_ASSESSMENT","stats":[{"groupId":"EG000","numEvents":1,"numAffected":1,"numAtRisk":201},{"groupId":"EG001","numEvents":0,"numAffected":0,"numAtRisk":31},{"groupId":"EG002","numEvents":0,"numAffected":0,"numAtRisk":271},{"groupId":"EG003","numEvents":0,"numAffected":0,"numAtRisk":60},{"groupId":"EG004","numEvents":0,"numAffected":0,"numAtRisk":12},{"groupId":"EG005","numEvents":0,"numAffected":0,"numAtRisk":28}]},{"term":"Urinary tract infection","organSystem":"Infections and infestations","sourceVocabulary":"MedDRA 18.0","assessmentType":"SYSTEMATIC_ASSESSMENT","stats":[{"groupId":"EG000","numEvents":1,"numAffected":1,"numAtRisk":201},{"groupId":"EG001","numEvents":0,"numAffected":0,"numAtRisk":31},{"groupId":"EG002","numEvents":0,"numAffected":0,"numAtRisk":271},{"groupId":"EG003","numEvents":0,"numAffected":0,"numAtRisk":60},{"groupId":"EG004","numEvents":0,"numAffected":0,"numAtRisk":12},{"groupId":"EG005","numEvents":0,"numAffected":0,"numAtRisk":28}]},{"term":"Urinary tract infection bacterial","organSystem":"Infections and infestations","sourceVocabulary":"MedDRA 18.0","assessmentType":"SYSTEMATIC_ASSESSMENT","stats":[{"groupId":"EG000","numEvents":1,"numAffected":1,"numAtRisk":201},{"groupId":"EG001","numEvents":0,"numAffected":0,"numAtRisk":31},{"groupId":"EG002","numEvents":0,"numAffected":0,"numAtRisk":271},{"groupId":"EG003","numEvents":0,"numAffected":0,"numAtRisk":60},{"groupId":"EG004","numEvents":0,"numAffected":0,"numAtRisk":12},{"groupId":"EG005","numEvents":0,"numAffected":0,"numAtRisk":28}]},{"term":"Viral infection","organSystem":"Infections and infestations","sourceVocabulary":"MedDRA 18.0","assessmentType":"SYSTEMATIC_ASSESSMENT","stats":[{"groupId":"EG000","numEvents":1,"numAffected":1,"numAtRisk":201},{"groupId":"EG001","numEvents":0,"numAffected":0,"numAtRisk":31},{"groupId":"EG002","numEvents":0,"numAffected":0,"numAtRisk":271},{"groupId":"EG003","numEvents":0,"numAffected":0,"numAtRisk":60},{"groupId":"EG004","numEvents":0,"numAffected":0,"numAtRisk":12},{"groupId":"EG005","numEvents":0,"numAffected":0,"numAtRisk":28}]},{"term":"Traumatic fracture","organSystem":"Injury, poisoning and procedural complications","sourceVocabulary":"MedDRA 18.0","assessmentType":"SYSTEMATIC_ASSESSMENT","stats":[{"groupId":"EG000","numEvents":1,"numAffected":1,"numAtRisk":201},{"groupId":"EG001","numEvents":0,"numAffected":0,"numAtRisk":31},{"groupId":"EG002","numEvents":1,"numAffected":1,"numAtRisk":271},{"groupId":"EG003","numEvents":0,"numAffected":0,"numAtRisk":60},{"groupId":"EG004","numEvents":0,"numAffected":0,"numAtRisk":12},{"groupId":"EG005","numEvents":0,"numAffected":0,"numAtRisk":28}]},{"term":"Blood bilirubin increased","organSystem":"Investigations","sourceVocabulary":"MedDRA 18.0","assessmentType":"SYSTEMATIC_ASSESSMENT","stats":[{"groupId":"EG000","numEvents":1,"numAffected":1,"numAtRisk":201},{"groupId":"EG001","numEvents":1,"numAffected":1,"numAtRisk":31},{"groupId":"EG002","numEvents":0,"numAffected":0,"numAtRisk":271},{"groupId":"EG003","numEvents":0,"numAffected":0,"numAtRisk":60},{"groupId":"EG004","numEvents":0,"numAffected":0,"numAtRisk":12},{"groupId":"EG005","numEvents":0,"numAffected":0,"numAtRisk":28}]},{"term":"Neutrophil count decreased","organSystem":"Investigations","sourceVocabulary":"MedDRA 18.0","assessmentType":"SYSTEMATIC_ASSESSMENT","stats":[{"groupId":"EG000","numEvents":1,"numAffected":1,"numAtRisk":201},{"groupId":"EG001","numEvents":0,"numAffected":0,"numAtRisk":31},{"groupId":"EG002","numEvents":0,"numAffected":0,"numAtRisk":271},{"groupId":"EG003","numEvents":0,"numAffected":0,"numAtRisk":60},{"groupId":"EG004","numEvents":0,"numAffected":0,"numAtRisk":12},{"groupId":"EG005","numEvents":0,"numAffected":0,"numAtRisk":28}]},{"term":"Platelet count decreased","organSystem":"Investigations","sourceVocabulary":"MedDRA 18.0","assessmentType":"SYSTEMATIC_ASSESSMENT","stats":[{"groupId":"EG000","numEvents":1,"numAffected":1,"numAtRisk":201},{"groupId":"EG001","numEvents":0,"numAffected":0,"numAtRisk":31},{"groupId":"EG002","numEvents":0,"numAffected":0,"numAtRisk":271},{"groupId":"EG003","numEvents":0,"numAffected":0,"numAtRisk":60},{"groupId":"EG004","numEvents":0,"numAffected":0,"numAtRisk":12},{"groupId":"EG005","numEvents":0,"numAffected":0,"numAtRisk":28}]},{"term":"Decreased appetite","organSystem":"Metabolism and nutrition disorders","sourceVocabulary":"MedDRA 18.0","assessmentType":"SYSTEMATIC_ASSESSMENT","stats":[{"groupId":"EG000","numEvents":1,"numAffected":1,"numAtRisk":201},{"groupId":"EG001","numEvents":2,"numAffected":2,"numAtRisk":31},{"groupId":"EG002","numEvents":1,"numAffected":1,"numAtRisk":271},{"groupId":"EG003","numEvents":0,"numAffected":0,"numAtRisk":60},{"groupId":"EG004","numEvents":0,"numAffected":0,"numAtRisk":12},{"groupId":"EG005","numEvents":0,"numAffected":0,"numAtRisk":28}]},{"term":"Hyponatraemia","organSystem":"Metabolism and nutrition disorders","sourceVocabulary":"MedDRA 18.0","assessmentType":"SYSTEMATIC_ASSESSMENT","stats":[{"groupId":"EG000","numEvents":1,"numAffected":1,"numAtRisk":201},{"groupId":"EG001","numEvents":0,"numAffected":0,"numAtRisk":31},{"groupId":"EG002","numEvents":0,"numAffected":0,"numAtRisk":271},{"groupId":"EG003","numEvents":0,"numAffected":0,"numAtRisk":60},{"groupId":"EG004","numEvents":0,"numAffected":0,"numAtRisk":12},{"groupId":"EG005","numEvents":0,"numAffected":0,"numAtRisk":28}]},{"term":"Breast cancer","organSystem":"Neoplasms benign, malignant and unspecified (incl cysts and polyps)","sourceVocabulary":"MedDRA 18.0","assessmentType":"SYSTEMATIC_ASSESSMENT","stats":[{"groupId":"EG000","numEvents":1,"numAffected":1,"numAtRisk":201},{"groupId":"EG001","numEvents":0,"numAffected":0,"numAtRisk":31},{"groupId":"EG002","numEvents":0,"numAffected":0,"numAtRisk":271},{"groupId":"EG003","numEvents":0,"numAffected":0,"numAtRisk":60},{"groupId":"EG004","numEvents":0,"numAffected":0,"numAtRisk":12},{"groupId":"EG005","numEvents":0,"numAffected":0,"numAtRisk":28}]},{"term":"Metastatic pain","organSystem":"Neoplasms benign, malignant and unspecified (incl cysts and polyps)","sourceVocabulary":"MedDRA 18.0","assessmentType":"SYSTEMATIC_ASSESSMENT","stats":[{"groupId":"EG000","numEvents":1,"numAffected":1,"numAtRisk":201},{"groupId":"EG001","numEvents":0,"numAffected":0,"numAtRisk":31},{"groupId":"EG002","numEvents":0,"numAffected":0,"numAtRisk":271},{"groupId":"EG003","numEvents":0,"numAffected":0,"numAtRisk":60},{"groupId":"EG004","numEvents":0,"numAffected":0,"numAtRisk":12},{"groupId":"EG005","numEvents":0,"numAffected":0,"numAtRisk":28}]},{"term":"Cerebral haemorrhage","organSystem":"Nervous system disorders","sourceVocabulary":"MedDRA 18.0","assessmentType":"SYSTEMATIC_ASSESSMENT","stats":[{"groupId":"EG000","numEvents":1,"numAffected":1,"numAtRisk":201},{"groupId":"EG001","numEvents":0,"numAffected":0,"numAtRisk":31},{"groupId":"EG002","numEvents":0,"numAffected":0,"numAtRisk":271},{"groupId":"EG003","numEvents":0,"numAffected":0,"numAtRisk":60},{"groupId":"EG004","numEvents":0,"numAffected":0,"numAtRisk":12},{"groupId":"EG005","numEvents":0,"numAffected":0,"numAtRisk":28}]},{"term":"Cerebrovascular accident","organSystem":"Nervous system disorders","sourceVocabulary":"MedDRA 18.0","assessmentType":"SYSTEMATIC_ASSESSMENT","stats":[{"groupId":"EG000","numEvents":2,"numAffected":2,"numAtRisk":201},{"groupId":"EG001","numEvents":0,"numAffected":0,"numAtRisk":31},{"groupId":"EG002","numEvents":0,"numAffected":0,"numAtRisk":271},{"groupId":"EG003","numEvents":0,"numAffected":0,"numAtRisk":60},{"groupId":"EG004","numEvents":1,"numAffected":1,"numAtRisk":12},{"groupId":"EG005","numEvents":0,"numAffected":0,"numAtRisk":28}]},{"term":"Embolic stroke","organSystem":"Nervous system disorders","sourceVocabulary":"MedDRA 18.0","assessmentType":"SYSTEMATIC_ASSESSMENT","stats":[{"groupId":"EG000","numEvents":1,"numAffected":1,"numAtRisk":201},{"groupId":"EG001","numEvents":0,"numAffected":0,"numAtRisk":31},{"groupId":"EG002","numEvents":0,"numAffected":0,"numAtRisk":271},{"groupId":"EG003","numEvents":0,"numAffected":0,"numAtRisk":60},{"groupId":"EG004","numEvents":0,"numAffected":0,"numAtRisk":12},{"groupId":"EG005","numEvents":0,"numAffected":0,"numAtRisk":28}]},{"term":"Renal failure","organSystem":"Renal and urinary disorders","sourceVocabulary":"MedDRA 18.0","assessmentType":"SYSTEMATIC_ASSESSMENT","stats":[{"groupId":"EG000","numEvents":1,"numAffected":1,"numAtRisk":201},{"groupId":"EG001","numEvents":0,"numAffected":0,"numAtRisk":31},{"groupId":"EG002","numEvents":2,"numAffected":1,"numAtRisk":271},{"groupId":"EG003","numEvents":0,"numAffected":0,"numAtRisk":60},{"groupId":"EG004","numEvents":1,"numAffected":1,"numAtRisk":12},{"groupId":"EG005","numEvents":0,"numAffected":0,"numAtRisk":28}]},{"term":"Dyspnoea","organSystem":"Respiratory, thoracic and mediastinal disorders","sourceVocabulary":"MedDRA 18.0","assessmentType":"SYSTEMATIC_ASSESSMENT","stats":[{"groupId":"EG000","numEvents":2,"numAffected":2,"numAtRisk":201},{"groupId":"EG001","numEvents":0,"numAffected":0,"numAtRisk":31},{"groupId":"EG002","numEvents":4,"numAffected":4,"numAtRisk":271},{"groupId":"EG003","numEvents":0,"numAffected":0,"numAtRisk":60},{"groupId":"EG004","numEvents":0,"numAffected":0,"numAtRisk":12},{"groupId":"EG005","numEvents":0,"numAffected":0,"numAtRisk":28}]},{"term":"Hypoxia","organSystem":"Respiratory, thoracic and mediastinal disorders","sourceVocabulary":"MedDRA 18.0","assessmentType":"SYSTEMATIC_ASSESSMENT","stats":[{"groupId":"EG000","numEvents":1,"numAffected":1,"numAtRisk":201},{"groupId":"EG001","numEvents":0,"numAffected":0,"numAtRisk":31},{"groupId":"EG002","numEvents":0,"numAffected":0,"numAtRisk":271},{"groupId":"EG003","numEvents":0,"numAffected":0,"numAtRisk":60},{"groupId":"EG004","numEvents":1,"numAffected":1,"numAtRisk":12},{"groupId":"EG005","numEvents":0,"numAffected":0,"numAtRisk":28}]},{"term":"Interstitial lung disease","organSystem":"Respiratory, thoracic and mediastinal disorders","sourceVocabulary":"MedDRA 18.0","assessmentType":"SYSTEMATIC_ASSESSMENT","stats":[{"groupId":"EG000","numEvents":2,"numAffected":2,"numAtRisk":201},{"groupId":"EG001","numEvents":0,"numAffected":0,"numAtRisk":31},{"groupId":"EG002","numEvents":1,"numAffected":1,"numAtRisk":271},{"groupId":"EG003","numEvents":0,"numAffected":0,"numAtRisk":60},{"groupId":"EG004","numEvents":0,"numAffected":0,"numAtRisk":12},{"groupId":"EG005","numEvents":1,"numAffected":1,"numAtRisk":28}]},{"term":"Pleural effusion","organSystem":"Respiratory, thoracic and mediastinal disorders","sourceVocabulary":"MedDRA 18.0","assessmentType":"SYSTEMATIC_ASSESSMENT","stats":[{"groupId":"EG000","numEvents":3,"numAffected":2,"numAtRisk":201},{"groupId":"EG001","numEvents":1,"numAffected":1,"numAtRisk":31},{"groupId":"EG002","numEvents":3,"numAffected":3,"numAtRisk":271},{"groupId":"EG003","numEvents":0,"numAffected":0,"numAtRisk":60},{"groupId":"EG004","numEvents":0,"numAffected":0,"numAtRisk":12},{"groupId":"EG005","numEvents":0,"numAffected":0,"numAtRisk":28}]},{"term":"Pneumonia aspiration","organSystem":"Respiratory, thoracic and mediastinal disorders","sourceVocabulary":"MedDRA 18.0","assessmentType":"SYSTEMATIC_ASSESSMENT","stats":[{"groupId":"EG000","numEvents":1,"numAffected":1,"numAtRisk":201},{"groupId":"EG001","numEvents":0,"numAffected":0,"numAtRisk":31},{"groupId":"EG002","numEvents":0,"numAffected":0,"numAtRisk":271},{"groupId":"EG003","numEvents":0,"numAffected":0,"numAtRisk":60},{"groupId":"EG004","numEvents":0,"numAffected":0,"numAtRisk":12},{"groupId":"EG005","numEvents":0,"numAffected":0,"numAtRisk":28}]},{"term":"Pneumonitis","organSystem":"Respiratory, thoracic and mediastinal disorders","sourceVocabulary":"MedDRA 18.0","assessmentType":"SYSTEMATIC_ASSESSMENT","stats":[{"groupId":"EG000","numEvents":3,"numAffected":3,"numAtRisk":201},{"groupId":"EG001","numEvents":0,"numAffected":0,"numAtRisk":31},{"groupId":"EG002","numEvents":3,"numAffected":3,"numAtRisk":271},{"groupId":"EG003","numEvents":2,"numAffected":2,"numAtRisk":60},{"groupId":"EG004","numEvents":0,"numAffected":0,"numAtRisk":12},{"groupId":"EG005","numEvents":2,"numAffected":2,"numAtRisk":28}]},{"term":"Pneumothorax spontaneous","organSystem":"Respiratory, thoracic and mediastinal disorders","sourceVocabulary":"MedDRA 18.0","assessmentType":"SYSTEMATIC_ASSESSMENT","stats":[{"groupId":"EG000","numEvents":1,"numAffected":1,"numAtRisk":201},{"groupId":"EG001","numEvents":0,"numAffected":0,"numAtRisk":31},{"groupId":"EG002","numEvents":0,"numAffected":0,"numAtRisk":271},{"groupId":"EG003","numEvents":0,"numAffected":0,"numAtRisk":60},{"groupId":"EG004","numEvents":0,"numAffected":0,"numAtRisk":12},{"groupId":"EG005","numEvents":0,"numAffected":0,"numAtRisk":28}]},{"term":"Pulmonary embolism","organSystem":"Respiratory, thoracic and mediastinal disorders","sourceVocabulary":"MedDRA 18.0","assessmentType":"SYSTEMATIC_ASSESSMENT","stats":[{"groupId":"EG000","numEvents":3,"numAffected":3,"numAtRisk":201},{"groupId":"EG001","numEvents":0,"numAffected":0,"numAtRisk":31},{"groupId":"EG002","numEvents":13,"numAffected":10,"numAtRisk":271},{"groupId":"EG003","numEvents":2,"numAffected":2,"numAtRisk":60},{"groupId":"EG004","numEvents":0,"numAffected":0,"numAtRisk":12},{"groupId":"EG005","numEvents":0,"numAffected":0,"numAtRisk":28}]},{"term":"Respiratory failure","organSystem":"Respiratory, thoracic and mediastinal disorders","sourceVocabulary":"MedDRA 18.0","assessmentType":"SYSTEMATIC_ASSESSMENT","stats":[{"groupId":"EG000","numEvents":2,"numAffected":2,"numAtRisk":201},{"groupId":"EG001","numEvents":0,"numAffected":0,"numAtRisk":31},{"groupId":"EG002","numEvents":0,"numAffected":0,"numAtRisk":271},{"groupId":"EG003","numEvents":0,"numAffected":0,"numAtRisk":60},{"groupId":"EG004","numEvents":0,"numAffected":0,"numAtRisk":12},{"groupId":"EG005","numEvents":0,"numAffected":0,"numAtRisk":28}]},{"term":"Food poisoning","organSystem":"Gastrointestinal disorders","sourceVocabulary":"MedDRA 18.0","assessmentType":"SYSTEMATIC_ASSESSMENT","stats":[{"groupId":"EG000","numEvents":0,"numAffected":0,"numAtRisk":201},{"groupId":"EG001","numEvents":0,"numAffected":0,"numAtRisk":31},{"groupId":"EG002","numEvents":0,"numAffected":0,"numAtRisk":271},{"groupId":"EG003","numEvents":0,"numAffected":0,"numAtRisk":60},{"groupId":"EG004","numEvents":1,"numAffected":1,"numAtRisk":12},{"groupId":"EG005","numEvents":0,"numAffected":0,"numAtRisk":28}]},{"term":"Pancreatitis","organSystem":"Gastrointestinal disorders","sourceVocabulary":"MedDRA 18.0","assessmentType":"SYSTEMATIC_ASSESSMENT","stats":[{"groupId":"EG000","numEvents":0,"numAffected":0,"numAtRisk":201},{"groupId":"EG001","numEvents":1,"numAffected":1,"numAtRisk":31},{"groupId":"EG002","numEvents":0,"numAffected":0,"numAtRisk":271},{"groupId":"EG003","numEvents":0,"numAffected":0,"numAtRisk":60},{"groupId":"EG004","numEvents":0,"numAffected":0,"numAtRisk":12},{"groupId":"EG005","numEvents":0,"numAffected":0,"numAtRisk":28}]},{"term":"General physical health deterioration","organSystem":"General disorders","sourceVocabulary":"MedDRA 18.0","assessmentType":"SYSTEMATIC_ASSESSMENT","stats":[{"groupId":"EG000","numEvents":0,"numAffected":0,"numAtRisk":201},{"groupId":"EG001","numEvents":1,"numAffected":1,"numAtRisk":31},{"groupId":"EG002","numEvents":1,"numAffected":1,"numAtRisk":271},{"groupId":"EG003","numEvents":0,"numAffected":0,"numAtRisk":60},{"groupId":"EG004","numEvents":0,"numAffected":0,"numAtRisk":12},{"groupId":"EG005","numEvents":0,"numAffected":0,"numAtRisk":28}]},{"term":"Lower respiratory tract infection","organSystem":"Infections and infestations","sourceVocabulary":"MedDRA 18.0","assessmentType":"SYSTEMATIC_ASSESSMENT","stats":[{"groupId":"EG000","numEvents":0,"numAffected":0,"numAtRisk":201},{"groupId":"EG001","numEvents":1,"numAffected":1,"numAtRisk":31},{"groupId":"EG002","numEvents":0,"numAffected":0,"numAtRisk":271},{"groupId":"EG003","numEvents":0,"numAffected":0,"numAtRisk":60},{"groupId":"EG004","numEvents":0,"numAffected":0,"numAtRisk":12},{"groupId":"EG005","numEvents":0,"numAffected":0,"numAtRisk":28}]},{"term":"Streptococcal bacteraemia","organSystem":"Infections and infestations","sourceVocabulary":"MedDRA 18.0","assessmentType":"SYSTEMATIC_ASSESSMENT","stats":[{"groupId":"EG000","numEvents":0,"numAffected":0,"numAtRisk":201},{"groupId":"EG001","numEvents":0,"numAffected":0,"numAtRisk":31},{"groupId":"EG002","numEvents":0,"numAffected":0,"numAtRisk":271},{"groupId":"EG003","numEvents":0,"numAffected":0,"numAtRisk":60},{"groupId":"EG004","numEvents":1,"numAffected":1,"numAtRisk":12},{"groupId":"EG005","numEvents":0,"numAffected":0,"numAtRisk":28}]},{"term":"Alanine aminotransferase increased","organSystem":"Investigations","sourceVocabulary":"MedDRA 18.0","assessmentType":"SYSTEMATIC_ASSESSMENT","stats":[{"groupId":"EG000","numEvents":0,"numAffected":0,"numAtRisk":201},{"groupId":"EG001","numEvents":1,"numAffected":1,"numAtRisk":31},{"groupId":"EG002","numEvents":0,"numAffected":0,"numAtRisk":271},{"groupId":"EG003","numEvents":0,"numAffected":0,"numAtRisk":60},{"groupId":"EG004","numEvents":0,"numAffected":0,"numAtRisk":12},{"groupId":"EG005","numEvents":0,"numAffected":0,"numAtRisk":28}]},{"term":"Aspartate aminotransferase increased","organSystem":"Investigations","sourceVocabulary":"MedDRA 18.0","assessmentType":"SYSTEMATIC_ASSESSMENT","stats":[{"groupId":"EG000","numEvents":0,"numAffected":0,"numAtRisk":201},{"groupId":"EG001","numEvents":1,"numAffected":1,"numAtRisk":31},{"groupId":"EG002","numEvents":0,"numAffected":0,"numAtRisk":271},{"groupId":"EG003","numEvents":0,"numAffected":0,"numAtRisk":60},{"groupId":"EG004","numEvents":0,"numAffected":0,"numAtRisk":12},{"groupId":"EG005","numEvents":0,"numAffected":0,"numAtRisk":28}]},{"term":"Seizure","organSystem":"Nervous system disorders","sourceVocabulary":"MedDRA 18.0","assessmentType":"SYSTEMATIC_ASSESSMENT","stats":[{"groupId":"EG000","numEvents":0,"numAffected":0,"numAtRisk":201},{"groupId":"EG001","numEvents":0,"numAffected":0,"numAtRisk":31},{"groupId":"EG002","numEvents":0,"numAffected":0,"numAtRisk":271},{"groupId":"EG003","numEvents":0,"numAffected":0,"numAtRisk":60},{"groupId":"EG004","numEvents":1,"numAffected":1,"numAtRisk":12},{"groupId":"EG005","numEvents":0,"numAffected":0,"numAtRisk":28}]},{"term":"Syncope","organSystem":"Nervous system disorders","sourceVocabulary":"MedDRA 18.0","assessmentType":"SYSTEMATIC_ASSESSMENT","stats":[{"groupId":"EG000","numEvents":0,"numAffected":0,"numAtRisk":201},{"groupId":"EG001","numEvents":0,"numAffected":0,"numAtRisk":31},{"groupId":"EG002","numEvents":0,"numAffected":0,"numAtRisk":271},{"groupId":"EG003","numEvents":0,"numAffected":0,"numAtRisk":60},{"groupId":"EG004","numEvents":1,"numAffected":1,"numAtRisk":12},{"groupId":"EG005","numEvents":0,"numAffected":0,"numAtRisk":28}]},{"term":"Pulmonary artery thrombosis","organSystem":"Respiratory, thoracic and mediastinal disorders","sourceVocabulary":"MedDRA 18.0","assessmentType":"SYSTEMATIC_ASSESSMENT","stats":[{"groupId":"EG000","numEvents":0,"numAffected":0,"numAtRisk":201},{"groupId":"EG001","numEvents":1,"numAffected":1,"numAtRisk":31},{"groupId":"EG002","numEvents":0,"numAffected":0,"numAtRisk":271},{"groupId":"EG003","numEvents":0,"numAffected":0,"numAtRisk":60},{"groupId":"EG004","numEvents":0,"numAffected":0,"numAtRisk":12},{"groupId":"EG005","numEvents":0,"numAffected":0,"numAtRisk":28}]},{"term":"Pancytopenia","organSystem":"Blood and lymphatic system disorders","sourceVocabulary":"MedDRA 18.0","assessmentType":"SYSTEMATIC_ASSESSMENT","stats":[{"groupId":"EG000","numEvents":0,"numAffected":0,"numAtRisk":201},{"groupId":"EG001","numEvents":0,"numAffected":0,"numAtRisk":31},{"groupId":"EG002","numEvents":1,"numAffected":1,"numAtRisk":271},{"groupId":"EG003","numEvents":0,"numAffected":0,"numAtRisk":60},{"groupId":"EG004","numEvents":0,"numAffected":0,"numAtRisk":12},{"groupId":"EG005","numEvents":0,"numAffected":0,"numAtRisk":28}]},{"term":"Cardiac failure acute","organSystem":"Cardiac disorders","sourceVocabulary":"MedDRA 18.0","assessmentType":"SYSTEMATIC_ASSESSMENT","stats":[{"groupId":"EG000","numEvents":0,"numAffected":0,"numAtRisk":201},{"groupId":"EG001","numEvents":0,"numAffected":0,"numAtRisk":31},{"groupId":"EG002","numEvents":1,"numAffected":1,"numAtRisk":271},{"groupId":"EG003","numEvents":0,"numAffected":0,"numAtRisk":60},{"groupId":"EG004","numEvents":0,"numAffected":0,"numAtRisk":12},{"groupId":"EG005","numEvents":0,"numAffected":0,"numAtRisk":28}]},{"term":"Myocardial infarction","organSystem":"Cardiac disorders","sourceVocabulary":"MedDRA 18.0","assessmentType":"SYSTEMATIC_ASSESSMENT","stats":[{"groupId":"EG000","numEvents":0,"numAffected":0,"numAtRisk":201},{"groupId":"EG001","numEvents":0,"numAffected":0,"numAtRisk":31},{"groupId":"EG002","numEvents":1,"numAffected":1,"numAtRisk":271},{"groupId":"EG003","numEvents":0,"numAffected":0,"numAtRisk":60},{"groupId":"EG004","numEvents":0,"numAffected":0,"numAtRisk":12},{"groupId":"EG005","numEvents":0,"numAffected":0,"numAtRisk":28}]},{"term":"Pulseless electrical activity","organSystem":"Cardiac disorders","sourceVocabulary":"MedDRA 18.0","assessmentType":"SYSTEMATIC_ASSESSMENT","stats":[{"groupId":"EG000","numEvents":0,"numAffected":0,"numAtRisk":201},{"groupId":"EG001","numEvents":0,"numAffected":0,"numAtRisk":31},{"groupId":"EG002","numEvents":1,"numAffected":1,"numAtRisk":271},{"groupId":"EG003","numEvents":0,"numAffected":0,"numAtRisk":60},{"groupId":"EG004","numEvents":0,"numAffected":0,"numAtRisk":12},{"groupId":"EG005","numEvents":0,"numAffected":0,"numAtRisk":28}]},{"term":"Stress cardiomyopathy","organSystem":"Cardiac disorders","sourceVocabulary":"MedDRA 18.0","assessmentType":"SYSTEMATIC_ASSESSMENT","stats":[{"groupId":"EG000","numEvents":0,"numAffected":0,"numAtRisk":201},{"groupId":"EG001","numEvents":0,"numAffected":0,"numAtRisk":31},{"groupId":"EG002","numEvents":1,"numAffected":1,"numAtRisk":271},{"groupId":"EG003","numEvents":0,"numAffected":0,"numAtRisk":60},{"groupId":"EG004","numEvents":0,"numAffected":0,"numAtRisk":12},{"groupId":"EG005","numEvents":0,"numAffected":0,"numAtRisk":28}]},{"term":"Corneal erosion","organSystem":"Eye disorders","sourceVocabulary":"MedDRA 18.0","assessmentType":"SYSTEMATIC_ASSESSMENT","stats":[{"groupId":"EG000","numEvents":0,"numAffected":0,"numAtRisk":201},{"groupId":"EG001","numEvents":0,"numAffected":0,"numAtRisk":31},{"groupId":"EG002","numEvents":0,"numAffected":0,"numAtRisk":271},{"groupId":"EG003","numEvents":1,"numAffected":1,"numAtRisk":60},{"groupId":"EG004","numEvents":0,"numAffected":0,"numAtRisk":12},{"groupId":"EG005","numEvents":0,"numAffected":0,"numAtRisk":28}]},{"term":"Abdominal pain upper","organSystem":"Gastrointestinal disorders","sourceVocabulary":"MedDRA 18.0","assessmentType":"SYSTEMATIC_ASSESSMENT","stats":[{"groupId":"EG000","numEvents":0,"numAffected":0,"numAtRisk":201},{"groupId":"EG001","numEvents":0,"numAffected":0,"numAtRisk":31},{"groupId":"EG002","numEvents":1,"numAffected":1,"numAtRisk":271},{"groupId":"EG003","numEvents":0,"numAffected":0,"numAtRisk":60},{"groupId":"EG004","numEvents":0,"numAffected":0,"numAtRisk":12},{"groupId":"EG005","numEvents":0,"numAffected":0,"numAtRisk":28}]},{"term":"Dysphagia","organSystem":"Gastrointestinal disorders","sourceVocabulary":"MedDRA 18.0","assessmentType":"SYSTEMATIC_ASSESSMENT","stats":[{"groupId":"EG000","numEvents":0,"numAffected":0,"numAtRisk":201},{"groupId":"EG001","numEvents":0,"numAffected":0,"numAtRisk":31},{"groupId":"EG002","numEvents":2,"numAffected":2,"numAtRisk":271},{"groupId":"EG003","numEvents":0,"numAffected":0,"numAtRisk":60},{"groupId":"EG004","numEvents":0,"numAffected":0,"numAtRisk":12},{"groupId":"EG005","numEvents":0,"numAffected":0,"numAtRisk":28}]},{"term":"Haematemesis","organSystem":"Gastrointestinal disorders","sourceVocabulary":"MedDRA 18.0","assessmentType":"SYSTEMATIC_ASSESSMENT","stats":[{"groupId":"EG000","numEvents":0,"numAffected":0,"numAtRisk":201},{"groupId":"EG001","numEvents":0,"numAffected":0,"numAtRisk":31},{"groupId":"EG002","numEvents":1,"numAffected":1,"numAtRisk":271},{"groupId":"EG003","numEvents":0,"numAffected":0,"numAtRisk":60},{"groupId":"EG004","numEvents":0,"numAffected":0,"numAtRisk":12},{"groupId":"EG005","numEvents":0,"numAffected":0,"numAtRisk":28}]},{"term":"Intestinal obstruction","organSystem":"Gastrointestinal disorders","sourceVocabulary":"MedDRA 18.0","assessmentType":"SYSTEMATIC_ASSESSMENT","stats":[{"groupId":"EG000","numEvents":0,"numAffected":0,"numAtRisk":201},{"groupId":"EG001","numEvents":0,"numAffected":0,"numAtRisk":31},{"groupId":"EG002","numEvents":1,"numAffected":1,"numAtRisk":271},{"groupId":"EG003","numEvents":0,"numAffected":0,"numAtRisk":60},{"groupId":"EG004","numEvents":0,"numAffected":0,"numAtRisk":12},{"groupId":"EG005","numEvents":0,"numAffected":0,"numAtRisk":28}]},{"term":"Oesophageal stenosis","organSystem":"Gastrointestinal disorders","sourceVocabulary":"MedDRA 18.0","assessmentType":"SYSTEMATIC_ASSESSMENT","stats":[{"groupId":"EG000","numEvents":0,"numAffected":0,"numAtRisk":201},{"groupId":"EG001","numEvents":0,"numAffected":0,"numAtRisk":31},{"groupId":"EG002","numEvents":2,"numAffected":1,"numAtRisk":271},{"groupId":"EG003","numEvents":0,"numAffected":0,"numAtRisk":60},{"groupId":"EG004","numEvents":0,"numAffected":0,"numAtRisk":12},{"groupId":"EG005","numEvents":0,"numAffected":0,"numAtRisk":28}]},{"term":"Oesophagitis","organSystem":"Gastrointestinal disorders","sourceVocabulary":"MedDRA 18.0","assessmentType":"SYSTEMATIC_ASSESSMENT","stats":[{"groupId":"EG000","numEvents":0,"numAffected":0,"numAtRisk":201},{"groupId":"EG001","numEvents":0,"numAffected":0,"numAtRisk":31},{"groupId":"EG002","numEvents":1,"numAffected":1,"numAtRisk":271},{"groupId":"EG003","numEvents":0,"numAffected":0,"numAtRisk":60},{"groupId":"EG004","numEvents":0,"numAffected":0,"numAtRisk":12},{"groupId":"EG005","numEvents":0,"numAffected":0,"numAtRisk":28}]},{"term":"Small intestine ulcer","organSystem":"Gastrointestinal disorders","sourceVocabulary":"MedDRA 18.0","assessmentType":"SYSTEMATIC_ASSESSMENT","stats":[{"groupId":"EG000","numEvents":0,"numAffected":0,"numAtRisk":201},{"groupId":"EG001","numEvents":0,"numAffected":0,"numAtRisk":31},{"groupId":"EG002","numEvents":0,"numAffected":0,"numAtRisk":271},{"groupId":"EG003","numEvents":1,"numAffected":1,"numAtRisk":60},{"groupId":"EG004","numEvents":0,"numAffected":0,"numAtRisk":12},{"groupId":"EG005","numEvents":0,"numAffected":0,"numAtRisk":28}]},{"term":"Pyrexia","organSystem":"General disorders","sourceVocabulary":"MedDRA 18.0","assessmentType":"SYSTEMATIC_ASSESSMENT","stats":[{"groupId":"EG000","numEvents":0,"numAffected":0,"numAtRisk":201},{"groupId":"EG001","numEvents":0,"numAffected":0,"numAtRisk":31},{"groupId":"EG002","numEvents":1,"numAffected":1,"numAtRisk":271},{"groupId":"EG003","numEvents":0,"numAffected":0,"numAtRisk":60},{"groupId":"EG004","numEvents":0,"numAffected":0,"numAtRisk":12},{"groupId":"EG005","numEvents":0,"numAffected":0,"numAtRisk":28}]},{"term":"Cholangitis","organSystem":"Hepatobiliary disorders","sourceVocabulary":"MedDRA 18.0","assessmentType":"SYSTEMATIC_ASSESSMENT","stats":[{"groupId":"EG000","numEvents":0,"numAffected":0,"numAtRisk":201},{"groupId":"EG001","numEvents":0,"numAffected":0,"numAtRisk":31},{"groupId":"EG002","numEvents":1,"numAffected":1,"numAtRisk":271},{"groupId":"EG003","numEvents":0,"numAffected":0,"numAtRisk":60},{"groupId":"EG004","numEvents":0,"numAffected":0,"numAtRisk":12},{"groupId":"EG005","numEvents":0,"numAffected":0,"numAtRisk":28}]},{"term":"Cholecystitis","organSystem":"Hepatobiliary disorders","sourceVocabulary":"MedDRA 18.0","assessmentType":"SYSTEMATIC_ASSESSMENT","stats":[{"groupId":"EG000","numEvents":0,"numAffected":0,"numAtRisk":201},{"groupId":"EG001","numEvents":0,"numAffected":0,"numAtRisk":31},{"groupId":"EG002","numEvents":1,"numAffected":1,"numAtRisk":271},{"groupId":"EG003","numEvents":0,"numAffected":0,"numAtRisk":60},{"groupId":"EG004","numEvents":0,"numAffected":0,"numAtRisk":12},{"groupId":"EG005","numEvents":0,"numAffected":0,"numAtRisk":28}]},{"term":"Anaphylactic reaction","organSystem":"Immune system disorders","sourceVocabulary":"MedDRA 18.0","assessmentType":"SYSTEMATIC_ASSESSMENT","stats":[{"groupId":"EG000","numEvents":0,"numAffected":0,"numAtRisk":201},{"groupId":"EG001","numEvents":0,"numAffected":0,"numAtRisk":31},{"groupId":"EG002","numEvents":0,"numAffected":0,"numAtRisk":271},{"groupId":"EG003","numEvents":1,"numAffected":1,"numAtRisk":60},{"groupId":"EG004","numEvents":0,"numAffected":0,"numAtRisk":12},{"groupId":"EG005","numEvents":0,"numAffected":0,"numAtRisk":28}]},{"term":"Abscess","organSystem":"Infections and infestations","sourceVocabulary":"MedDRA 18.0","assessmentType":"SYSTEMATIC_ASSESSMENT","stats":[{"groupId":"EG000","numEvents":0,"numAffected":0,"numAtRisk":201},{"groupId":"EG001","numEvents":0,"numAffected":0,"numAtRisk":31},{"groupId":"EG002","numEvents":1,"numAffected":1,"numAtRisk":271},{"groupId":"EG003","numEvents":0,"numAffected":0,"numAtRisk":60},{"groupId":"EG004","numEvents":0,"numAffected":0,"numAtRisk":12},{"groupId":"EG005","numEvents":0,"numAffected":0,"numAtRisk":28}]},{"term":"Bacteraemia","organSystem":"Infections and infestations","sourceVocabulary":"MedDRA 18.0","assessmentType":"SYSTEMATIC_ASSESSMENT","stats":[{"groupId":"EG000","numEvents":0,"numAffected":0,"numAtRisk":201},{"groupId":"EG001","numEvents":0,"numAffected":0,"numAtRisk":31},{"groupId":"EG002","numEvents":1,"numAffected":1,"numAtRisk":271},{"groupId":"EG003","numEvents":0,"numAffected":0,"numAtRisk":60},{"groupId":"EG004","numEvents":0,"numAffected":0,"numAtRisk":12},{"groupId":"EG005","numEvents":0,"numAffected":0,"numAtRisk":28}]},{"term":"Bacterial sepsis","organSystem":"Infections and infestations","sourceVocabulary":"MedDRA 18.0","assessmentType":"SYSTEMATIC_ASSESSMENT","stats":[{"groupId":"EG000","numEvents":0,"numAffected":0,"numAtRisk":201},{"groupId":"EG001","numEvents":0,"numAffected":0,"numAtRisk":31},{"groupId":"EG002","numEvents":1,"numAffected":1,"numAtRisk":271},{"groupId":"EG003","numEvents":0,"numAffected":0,"numAtRisk":60},{"groupId":"EG004","numEvents":0,"numAffected":0,"numAtRisk":12},{"groupId":"EG005","numEvents":0,"numAffected":0,"numAtRisk":28}]},{"term":"Bronchitis","organSystem":"Infections and infestations","sourceVocabulary":"MedDRA 18.0","assessmentType":"SYSTEMATIC_ASSESSMENT","stats":[{"groupId":"EG000","numEvents":0,"numAffected":0,"numAtRisk":201},{"groupId":"EG001","numEvents":0,"numAffected":0,"numAtRisk":31},{"groupId":"EG002","numEvents":1,"numAffected":1,"numAtRisk":271},{"groupId":"EG003","numEvents":0,"numAffected":0,"numAtRisk":60},{"groupId":"EG004","numEvents":0,"numAffected":0,"numAtRisk":12},{"groupId":"EG005","numEvents":0,"numAffected":0,"numAtRisk":28}]},{"term":"Cellulitis","organSystem":"Infections and infestations","sourceVocabulary":"MedDRA 18.0","assessmentType":"SYSTEMATIC_ASSESSMENT","stats":[{"groupId":"EG000","numEvents":0,"numAffected":0,"numAtRisk":201},{"groupId":"EG001","numEvents":0,"numAffected":0,"numAtRisk":31},{"groupId":"EG002","numEvents":1,"numAffected":1,"numAtRisk":271},{"groupId":"EG003","numEvents":0,"numAffected":0,"numAtRisk":60},{"groupId":"EG004","numEvents":0,"numAffected":0,"numAtRisk":12},{"groupId":"EG005","numEvents":0,"numAffected":0,"numAtRisk":28}]},{"term":"Device related infection","organSystem":"Infections and infestations","sourceVocabulary":"MedDRA 18.0","assessmentType":"SYSTEMATIC_ASSESSMENT","stats":[{"groupId":"EG000","numEvents":0,"numAffected":0,"numAtRisk":201},{"groupId":"EG001","numEvents":0,"numAffected":0,"numAtRisk":31},{"groupId":"EG002","numEvents":1,"numAffected":1,"numAtRisk":271},{"groupId":"EG003","numEvents":0,"numAffected":0,"numAtRisk":60},{"groupId":"EG004","numEvents":0,"numAffected":0,"numAtRisk":12},{"groupId":"EG005","numEvents":0,"numAffected":0,"numAtRisk":28}]},{"term":"Erysipelas","organSystem":"Infections and infestations","sourceVocabulary":"MedDRA 18.0","assessmentType":"SYSTEMATIC_ASSESSMENT","stats":[{"groupId":"EG000","numEvents":0,"numAffected":0,"numAtRisk":201},{"groupId":"EG001","numEvents":0,"numAffected":0,"numAtRisk":31},{"groupId":"EG002","numEvents":1,"numAffected":1,"numAtRisk":271},{"groupId":"EG003","numEvents":0,"numAffected":0,"numAtRisk":60},{"groupId":"EG004","numEvents":0,"numAffected":0,"numAtRisk":12},{"groupId":"EG005","numEvents":0,"numAffected":0,"numAtRisk":28}]},{"term":"Klebsiella infection","organSystem":"Infections and infestations","sourceVocabulary":"MedDRA 18.0","assessmentType":"SYSTEMATIC_ASSESSMENT","stats":[{"groupId":"EG000","numEvents":0,"numAffected":0,"numAtRisk":201},{"groupId":"EG001","numEvents":0,"numAffected":0,"numAtRisk":31},{"groupId":"EG002","numEvents":0,"numAffected":0,"numAtRisk":271},{"groupId":"EG003","numEvents":1,"numAffected":1,"numAtRisk":60},{"groupId":"EG004","numEvents":0,"numAffected":0,"numAtRisk":12},{"groupId":"EG005","numEvents":0,"numAffected":0,"numAtRisk":28}]},{"term":"Lung infection","organSystem":"Infections and infestations","sourceVocabulary":"MedDRA 18.0","assessmentType":"SYSTEMATIC_ASSESSMENT","stats":[{"groupId":"EG000","numEvents":0,"numAffected":0,"numAtRisk":201},{"groupId":"EG001","numEvents":0,"numAffected":0,"numAtRisk":31},{"groupId":"EG002","numEvents":2,"numAffected":2,"numAtRisk":271},{"groupId":"EG003","numEvents":0,"numAffected":0,"numAtRisk":60},{"groupId":"EG004","numEvents":0,"numAffected":0,"numAtRisk":12},{"groupId":"EG005","numEvents":0,"numAffected":0,"numAtRisk":28}]},{"term":"Mediastinitis","organSystem":"Infections and infestations","sourceVocabulary":"MedDRA 18.0","assessmentType":"SYSTEMATIC_ASSESSMENT","stats":[{"groupId":"EG000","numEvents":0,"numAffected":0,"numAtRisk":201},{"groupId":"EG001","numEvents":0,"numAffected":0,"numAtRisk":31},{"groupId":"EG002","numEvents":1,"numAffected":1,"numAtRisk":271},{"groupId":"EG003","numEvents":0,"numAffected":0,"numAtRisk":60},{"groupId":"EG004","numEvents":0,"numAffected":0,"numAtRisk":12},{"groupId":"EG005","numEvents":0,"numAffected":0,"numAtRisk":28}]},{"term":"Pneumonia pneumococcal","organSystem":"Infections and infestations","sourceVocabulary":"MedDRA 18.0","assessmentType":"SYSTEMATIC_ASSESSMENT","stats":[{"groupId":"EG000","numEvents":0,"numAffected":0,"numAtRisk":201},{"groupId":"EG001","numEvents":0,"numAffected":0,"numAtRisk":31},{"groupId":"EG002","numEvents":1,"numAffected":1,"numAtRisk":271},{"groupId":"EG003","numEvents":0,"numAffected":0,"numAtRisk":60},{"groupId":"EG004","numEvents":0,"numAffected":0,"numAtRisk":12},{"groupId":"EG005","numEvents":0,"numAffected":0,"numAtRisk":28}]},{"term":"Post procedural infection","organSystem":"Infections and infestations","sourceVocabulary":"MedDRA 18.0","assessmentType":"SYSTEMATIC_ASSESSMENT","stats":[{"groupId":"EG000","numEvents":0,"numAffected":0,"numAtRisk":201},{"groupId":"EG001","numEvents":0,"numAffected":0,"numAtRisk":31},{"groupId":"EG002","numEvents":1,"numAffected":1,"numAtRisk":271},{"groupId":"EG003","numEvents":0,"numAffected":0,"numAtRisk":60},{"groupId":"EG004","numEvents":0,"numAffected":0,"numAtRisk":12},{"groupId":"EG005","numEvents":0,"numAffected":0,"numAtRisk":28}]},{"term":"Pyelonephritis acute","organSystem":"Infections and infestations","sourceVocabulary":"MedDRA 18.0","assessmentType":"SYSTEMATIC_ASSESSMENT","stats":[{"groupId":"EG000","numEvents":0,"numAffected":0,"numAtRisk":201},{"groupId":"EG001","numEvents":0,"numAffected":0,"numAtRisk":31},{"groupId":"EG002","numEvents":1,"numAffected":1,"numAtRisk":271},{"groupId":"EG003","numEvents":0,"numAffected":0,"numAtRisk":60},{"groupId":"EG004","numEvents":0,"numAffected":0,"numAtRisk":12},{"groupId":"EG005","numEvents":0,"numAffected":0,"numAtRisk":28}]},{"term":"Respiratory tract infection bacterial","organSystem":"Infections and infestations","sourceVocabulary":"MedDRA 18.0","assessmentType":"SYSTEMATIC_ASSESSMENT","stats":[{"groupId":"EG000","numEvents":0,"numAffected":0,"numAtRisk":201},{"groupId":"EG001","numEvents":0,"numAffected":0,"numAtRisk":31},{"groupId":"EG002","numEvents":1,"numAffected":1,"numAtRisk":271},{"groupId":"EG003","numEvents":0,"numAffected":0,"numAtRisk":60},{"groupId":"EG004","numEvents":0,"numAffected":0,"numAtRisk":12},{"groupId":"EG005","numEvents":0,"numAffected":0,"numAtRisk":28}]},{"term":"Sepsis","organSystem":"Infections and infestations","sourceVocabulary":"MedDRA 18.0","assessmentType":"SYSTEMATIC_ASSESSMENT","stats":[{"groupId":"EG000","numEvents":0,"numAffected":0,"numAtRisk":201},{"groupId":"EG001","numEvents":0,"numAffected":0,"numAtRisk":31},{"groupId":"EG002","numEvents":1,"numAffected":1,"numAtRisk":271},{"groupId":"EG003","numEvents":0,"numAffected":0,"numAtRisk":60},{"groupId":"EG004","numEvents":0,"numAffected":0,"numAtRisk":12},{"groupId":"EG005","numEvents":0,"numAffected":0,"numAtRisk":28}]},{"term":"Septic shock","organSystem":"Infections and infestations","sourceVocabulary":"MedDRA 18.0","assessmentType":"SYSTEMATIC_ASSESSMENT","stats":[{"groupId":"EG000","numEvents":0,"numAffected":0,"numAtRisk":201},{"groupId":"EG001","numEvents":0,"numAffected":0,"numAtRisk":31},{"groupId":"EG002","numEvents":1,"numAffected":1,"numAtRisk":271},{"groupId":"EG003","numEvents":0,"numAffected":0,"numAtRisk":60},{"groupId":"EG004","numEvents":0,"numAffected":0,"numAtRisk":12},{"groupId":"EG005","numEvents":0,"numAffected":0,"numAtRisk":28}]},{"term":"Upper respiratory tract infection","organSystem":"Infections and infestations","sourceVocabulary":"MedDRA 18.0","assessmentType":"SYSTEMATIC_ASSESSMENT","stats":[{"groupId":"EG000","numEvents":0,"numAffected":0,"numAtRisk":201},{"groupId":"EG001","numEvents":0,"numAffected":0,"numAtRisk":31},{"groupId":"EG002","numEvents":1,"numAffected":1,"numAtRisk":271},{"groupId":"EG003","numEvents":0,"numAffected":0,"numAtRisk":60},{"groupId":"EG004","numEvents":0,"numAffected":0,"numAtRisk":12},{"groupId":"EG005","numEvents":0,"numAffected":0,"numAtRisk":28}]},{"term":"Urinary tract infection bacterial","organSystem":"Infections and infestations","sourceVocabulary":"MedDRA 18.0","assessmentType":"SYSTEMATIC_ASSESSMENT","stats":[{"groupId":"EG000","numEvents":0,"numAffected":0,"numAtRisk":201},{"groupId":"EG001","numEvents":0,"numAffected":0,"numAtRisk":31},{"groupId":"EG002","numEvents":1,"numAffected":1,"numAtRisk":271},{"groupId":"EG003","numEvents":0,"numAffected":0,"numAtRisk":60},{"groupId":"EG004","numEvents":0,"numAffected":0,"numAtRisk":12},{"groupId":"EG005","numEvents":0,"numAffected":0,"numAtRisk":28}]},{"term":"Viraemia","organSystem":"Infections and infestations","sourceVocabulary":"MedDRA 18.0","assessmentType":"SYSTEMATIC_ASSESSMENT","stats":[{"groupId":"EG000","numEvents":0,"numAffected":0,"numAtRisk":201},{"groupId":"EG001","numEvents":0,"numAffected":0,"numAtRisk":31},{"groupId":"EG002","numEvents":1,"numAffected":1,"numAtRisk":271},{"groupId":"EG003","numEvents":0,"numAffected":0,"numAtRisk":60},{"groupId":"EG004","numEvents":0,"numAffected":0,"numAtRisk":12},{"groupId":"EG005","numEvents":0,"numAffected":0,"numAtRisk":28}]},{"term":"Fall","organSystem":"Injury, poisoning and procedural complications","sourceVocabulary":"MedDRA 18.0","assessmentType":"SYSTEMATIC_ASSESSMENT","stats":[{"groupId":"EG000","numEvents":0,"numAffected":0,"numAtRisk":201},{"groupId":"EG001","numEvents":0,"numAffected":0,"numAtRisk":31},{"groupId":"EG002","numEvents":1,"numAffected":1,"numAtRisk":271},{"groupId":"EG003","numEvents":0,"numAffected":0,"numAtRisk":60},{"groupId":"EG004","numEvents":0,"numAffected":0,"numAtRisk":12},{"groupId":"EG005","numEvents":0,"numAffected":0,"numAtRisk":28}]},{"term":"Overdose","organSystem":"Injury, poisoning and procedural complications","sourceVocabulary":"MedDRA 18.0","assessmentType":"SYSTEMATIC_ASSESSMENT","stats":[{"groupId":"EG000","numEvents":0,"numAffected":0,"numAtRisk":201},{"groupId":"EG001","numEvents":0,"numAffected":0,"numAtRisk":31},{"groupId":"EG002","numEvents":1,"numAffected":1,"numAtRisk":271},{"groupId":"EG003","numEvents":0,"numAffected":0,"numAtRisk":60},{"groupId":"EG004","numEvents":0,"numAffected":0,"numAtRisk":12},{"groupId":"EG005","numEvents":0,"numAffected":0,"numAtRisk":28}]},{"term":"Spinal fracture","organSystem":"Injury, poisoning and procedural complications","sourceVocabulary":"MedDRA 18.0","assessmentType":"SYSTEMATIC_ASSESSMENT","stats":[{"groupId":"EG000","numEvents":0,"numAffected":0,"numAtRisk":201},{"groupId":"EG001","numEvents":0,"numAffected":0,"numAtRisk":31},{"groupId":"EG002","numEvents":1,"numAffected":1,"numAtRisk":271},{"groupId":"EG003","numEvents":0,"numAffected":0,"numAtRisk":60},{"groupId":"EG004","numEvents":0,"numAffected":0,"numAtRisk":12},{"groupId":"EG005","numEvents":0,"numAffected":0,"numAtRisk":28}]},{"term":"Subdural haematoma","organSystem":"Injury, poisoning and procedural complications","sourceVocabulary":"MedDRA 18.0","assessmentType":"SYSTEMATIC_ASSESSMENT","stats":[{"groupId":"EG000","numEvents":0,"numAffected":0,"numAtRisk":201},{"groupId":"EG001","numEvents":0,"numAffected":0,"numAtRisk":31},{"groupId":"EG002","numEvents":0,"numAffected":0,"numAtRisk":271},{"groupId":"EG003","numEvents":2,"numAffected":2,"numAtRisk":60},{"groupId":"EG004","numEvents":0,"numAffected":0,"numAtRisk":12},{"groupId":"EG005","numEvents":0,"numAffected":0,"numAtRisk":28}]},{"term":"Thoracic vertebral fracture","organSystem":"Injury, poisoning and procedural complications","sourceVocabulary":"MedDRA 18.0","assessmentType":"SYSTEMATIC_ASSESSMENT","stats":[{"groupId":"EG000","numEvents":0,"numAffected":0,"numAtRisk":201},{"groupId":"EG001","numEvents":0,"numAffected":0,"numAtRisk":31},{"groupId":"EG002","numEvents":1,"numAffected":1,"numAtRisk":271},{"groupId":"EG003","numEvents":0,"numAffected":0,"numAtRisk":60},{"groupId":"EG004","numEvents":0,"numAffected":0,"numAtRisk":12},{"groupId":"EG005","numEvents":0,"numAffected":0,"numAtRisk":28}]},{"term":"Dehydration","organSystem":"Metabolism and nutrition disorders","sourceVocabulary":"MedDRA 18.0","assessmentType":"SYSTEMATIC_ASSESSMENT","stats":[{"groupId":"EG000","numEvents":0,"numAffected":0,"numAtRisk":201},{"groupId":"EG001","numEvents":0,"numAffected":0,"numAtRisk":31},{"groupId":"EG002","numEvents":0,"numAffected":0,"numAtRisk":271},{"groupId":"EG003","numEvents":1,"numAffected":1,"numAtRisk":60},{"groupId":"EG004","numEvents":0,"numAffected":0,"numAtRisk":12},{"groupId":"EG005","numEvents":0,"numAffected":0,"numAtRisk":28}]},{"term":"Hypoglycaemia","organSystem":"Metabolism and nutrition disorders","sourceVocabulary":"MedDRA 18.0","assessmentType":"SYSTEMATIC_ASSESSMENT","stats":[{"groupId":"EG000","numEvents":0,"numAffected":0,"numAtRisk":201},{"groupId":"EG001","numEvents":0,"numAffected":0,"numAtRisk":31},{"groupId":"EG002","numEvents":1,"numAffected":1,"numAtRisk":271},{"groupId":"EG003","numEvents":0,"numAffected":0,"numAtRisk":60},{"groupId":"EG004","numEvents":0,"numAffected":0,"numAtRisk":12},{"groupId":"EG005","numEvents":0,"numAffected":0,"numAtRisk":28}]},{"term":"Hypokalaemia","organSystem":"Metabolism and nutrition disorders","sourceVocabulary":"MedDRA 18.0","assessmentType":"SYSTEMATIC_ASSESSMENT","stats":[{"groupId":"EG000","numEvents":0,"numAffected":0,"numAtRisk":201},{"groupId":"EG001","numEvents":0,"numAffected":0,"numAtRisk":31},{"groupId":"EG002","numEvents":1,"numAffected":1,"numAtRisk":271},{"groupId":"EG003","numEvents":0,"numAffected":0,"numAtRisk":60},{"groupId":"EG004","numEvents":0,"numAffected":0,"numAtRisk":12},{"groupId":"EG005","numEvents":0,"numAffected":0,"numAtRisk":28}]},{"term":"Back pain","organSystem":"Musculoskeletal and connective tissue disorders","sourceVocabulary":"MedDRA 18.0","assessmentType":"SYSTEMATIC_ASSESSMENT","stats":[{"groupId":"EG000","numEvents":0,"numAffected":0,"numAtRisk":201},{"groupId":"EG001","numEvents":0,"numAffected":0,"numAtRisk":31},{"groupId":"EG002","numEvents":1,"numAffected":1,"numAtRisk":271},{"groupId":"EG003","numEvents":0,"numAffected":0,"numAtRisk":60},{"groupId":"EG004","numEvents":0,"numAffected":0,"numAtRisk":12},{"groupId":"EG005","numEvents":1,"numAffected":1,"numAtRisk":28}]},{"term":"Costochondritis","organSystem":"Musculoskeletal and connective tissue disorders","sourceVocabulary":"MedDRA 18.0","assessmentType":"SYSTEMATIC_ASSESSMENT","stats":[{"groupId":"EG000","numEvents":0,"numAffected":0,"numAtRisk":201},{"groupId":"EG001","numEvents":0,"numAffected":0,"numAtRisk":31},{"groupId":"EG002","numEvents":0,"numAffected":0,"numAtRisk":271},{"groupId":"EG003","numEvents":1,"numAffected":1,"numAtRisk":60},{"groupId":"EG004","numEvents":0,"numAffected":0,"numAtRisk":12},{"groupId":"EG005","numEvents":0,"numAffected":0,"numAtRisk":28}]},{"term":"Musculoskeletal chest pain","organSystem":"Musculoskeletal and connective tissue disorders","sourceVocabulary":"MedDRA 18.0","assessmentType":"SYSTEMATIC_ASSESSMENT","stats":[{"groupId":"EG000","numEvents":0,"numAffected":0,"numAtRisk":201},{"groupId":"EG001","numEvents":0,"numAffected":0,"numAtRisk":31},{"groupId":"EG002","numEvents":2,"numAffected":2,"numAtRisk":271},{"groupId":"EG003","numEvents":0,"numAffected":0,"numAtRisk":60},{"groupId":"EG004","numEvents":0,"numAffected":0,"numAtRisk":12},{"groupId":"EG005","numEvents":0,"numAffected":0,"numAtRisk":28}]},{"term":"Spinal pain","organSystem":"Musculoskeletal and connective tissue disorders","sourceVocabulary":"MedDRA 18.0","assessmentType":"SYSTEMATIC_ASSESSMENT","stats":[{"groupId":"EG000","numEvents":0,"numAffected":0,"numAtRisk":201},{"groupId":"EG001","numEvents":0,"numAffected":0,"numAtRisk":31},{"groupId":"EG002","numEvents":1,"numAffected":1,"numAtRisk":271},{"groupId":"EG003","numEvents":0,"numAffected":0,"numAtRisk":60},{"groupId":"EG004","numEvents":0,"numAffected":0,"numAtRisk":12},{"groupId":"EG005","numEvents":0,"numAffected":0,"numAtRisk":28}]},{"term":"Tumour pain","organSystem":"Neoplasms benign, malignant and unspecified (incl cysts and polyps)","sourceVocabulary":"MedDRA 18.0","assessmentType":"SYSTEMATIC_ASSESSMENT","stats":[{"groupId":"EG000","numEvents":0,"numAffected":0,"numAtRisk":201},{"groupId":"EG001","numEvents":0,"numAffected":0,"numAtRisk":31},{"groupId":"EG002","numEvents":3,"numAffected":2,"numAtRisk":271},{"groupId":"EG003","numEvents":0,"numAffected":0,"numAtRisk":60},{"groupId":"EG004","numEvents":0,"numAffected":0,"numAtRisk":12},{"groupId":"EG005","numEvents":0,"numAffected":0,"numAtRisk":28}]},{"term":"Uterine leiomyoma","organSystem":"Neoplasms benign, malignant and unspecified (incl cysts and polyps)","sourceVocabulary":"MedDRA 18.0","assessmentType":"SYSTEMATIC_ASSESSMENT","stats":[{"groupId":"EG000","numEvents":0,"numAffected":0,"numAtRisk":201},{"groupId":"EG001","numEvents":0,"numAffected":0,"numAtRisk":31},{"groupId":"EG002","numEvents":1,"numAffected":1,"numAtRisk":271},{"groupId":"EG003","numEvents":0,"numAffected":0,"numAtRisk":60},{"groupId":"EG004","numEvents":0,"numAffected":0,"numAtRisk":12},{"groupId":"EG005","numEvents":0,"numAffected":0,"numAtRisk":28}]},{"term":"Brain injury","organSystem":"Nervous system disorders","sourceVocabulary":"MedDRA 18.0","assessmentType":"SYSTEMATIC_ASSESSMENT","stats":[{"groupId":"EG000","numEvents":0,"numAffected":0,"numAtRisk":201},{"groupId":"EG001","numEvents":0,"numAffected":0,"numAtRisk":31},{"groupId":"EG002","numEvents":1,"numAffected":1,"numAtRisk":271},{"groupId":"EG003","numEvents":0,"numAffected":0,"numAtRisk":60},{"groupId":"EG004","numEvents":0,"numAffected":0,"numAtRisk":12},{"groupId":"EG005","numEvents":0,"numAffected":0,"numAtRisk":28}]},{"term":"Cerebral cyst","organSystem":"Nervous system disorders","sourceVocabulary":"MedDRA 18.0","assessmentType":"SYSTEMATIC_ASSESSMENT","stats":[{"groupId":"EG000","numEvents":0,"numAffected":0,"numAtRisk":201},{"groupId":"EG001","numEvents":0,"numAffected":0,"numAtRisk":31},{"groupId":"EG002","numEvents":1,"numAffected":1,"numAtRisk":271},{"groupId":"EG003","numEvents":0,"numAffected":0,"numAtRisk":60},{"groupId":"EG004","numEvents":0,"numAffected":0,"numAtRisk":12},{"groupId":"EG005","numEvents":0,"numAffected":0,"numAtRisk":28}]},{"term":"Convulsion","organSystem":"Nervous system disorders","sourceVocabulary":"MedDRA 18.0","assessmentType":"SYSTEMATIC_ASSESSMENT","stats":[{"groupId":"EG000","numEvents":0,"numAffected":0,"numAtRisk":201},{"groupId":"EG001","numEvents":0,"numAffected":0,"numAtRisk":31},{"groupId":"EG002","numEvents":1,"numAffected":1,"numAtRisk":271},{"groupId":"EG003","numEvents":0,"numAffected":0,"numAtRisk":60},{"groupId":"EG004","numEvents":0,"numAffected":0,"numAtRisk":12},{"groupId":"EG005","numEvents":0,"numAffected":0,"numAtRisk":28}]},{"term":"Embolic stroke","organSystem":"Nervous system disorders","sourceVocabulary":"MedDRA 18.0","assessmentType":"SYSTEMATIC_ASSESSMENT","stats":[{"groupId":"EG000","numEvents":0,"numAffected":0,"numAtRisk":201},{"groupId":"EG001","numEvents":0,"numAffected":0,"numAtRisk":31},{"groupId":"EG002","numEvents":1,"numAffected":1,"numAtRisk":271},{"groupId":"EG003","numEvents":0,"numAffected":0,"numAtRisk":60},{"groupId":"EG004","numEvents":0,"numAffected":0,"numAtRisk":12},{"groupId":"EG005","numEvents":0,"numAffected":0,"numAtRisk":28}]},{"term":"Facial nerve disorder","organSystem":"Nervous system disorders","sourceVocabulary":"MedDRA 18.0","assessmentType":"SYSTEMATIC_ASSESSMENT","stats":[{"groupId":"EG000","numEvents":0,"numAffected":0,"numAtRisk":201},{"groupId":"EG001","numEvents":0,"numAffected":0,"numAtRisk":31},{"groupId":"EG002","numEvents":0,"numAffected":0,"numAtRisk":271},{"groupId":"EG003","numEvents":1,"numAffected":1,"numAtRisk":60},{"groupId":"EG004","numEvents":0,"numAffected":0,"numAtRisk":12},{"groupId":"EG005","numEvents":0,"numAffected":0,"numAtRisk":28}]},{"term":"Headache","organSystem":"Nervous system disorders","sourceVocabulary":"MedDRA 18.0","assessmentType":"SYSTEMATIC_ASSESSMENT","stats":[{"groupId":"EG000","numEvents":0,"numAffected":0,"numAtRisk":201},{"groupId":"EG001","numEvents":0,"numAffected":0,"numAtRisk":31},{"groupId":"EG002","numEvents":1,"numAffected":1,"numAtRisk":271},{"groupId":"EG003","numEvents":0,"numAffected":0,"numAtRisk":60},{"groupId":"EG004","numEvents":0,"numAffected":0,"numAtRisk":12},{"groupId":"EG005","numEvents":0,"numAffected":0,"numAtRisk":28}]},{"term":"Ischaemic stroke","organSystem":"Nervous system disorders","sourceVocabulary":"MedDRA 18.0","assessmentType":"SYSTEMATIC_ASSESSMENT","stats":[{"groupId":"EG000","numEvents":0,"numAffected":0,"numAtRisk":201},{"groupId":"EG001","numEvents":0,"numAffected":0,"numAtRisk":31},{"groupId":"EG002","numEvents":2,"numAffected":2,"numAtRisk":271},{"groupId":"EG003","numEvents":0,"numAffected":0,"numAtRisk":60},{"groupId":"EG004","numEvents":0,"numAffected":0,"numAtRisk":12},{"groupId":"EG005","numEvents":0,"numAffected":0,"numAtRisk":28}]},{"term":"Nervous system disorder","organSystem":"Nervous system disorders","sourceVocabulary":"MedDRA 18.0","assessmentType":"SYSTEMATIC_ASSESSMENT","stats":[{"groupId":"EG000","numEvents":0,"numAffected":0,"numAtRisk":201},{"groupId":"EG001","numEvents":0,"numAffected":0,"numAtRisk":31},{"groupId":"EG002","numEvents":1,"numAffected":1,"numAtRisk":271},{"groupId":"EG003","numEvents":0,"numAffected":0,"numAtRisk":60},{"groupId":"EG004","numEvents":0,"numAffected":0,"numAtRisk":12},{"groupId":"EG005","numEvents":0,"numAffected":0,"numAtRisk":28}]},{"term":"Partial seizures","organSystem":"Nervous system disorders","sourceVocabulary":"MedDRA 18.0","assessmentType":"SYSTEMATIC_ASSESSMENT","stats":[{"groupId":"EG000","numEvents":0,"numAffected":0,"numAtRisk":201},{"groupId":"EG001","numEvents":0,"numAffected":0,"numAtRisk":31},{"groupId":"EG002","numEvents":1,"numAffected":1,"numAtRisk":271},{"groupId":"EG003","numEvents":0,"numAffected":0,"numAtRisk":60},{"groupId":"EG004","numEvents":0,"numAffected":0,"numAtRisk":12},{"groupId":"EG005","numEvents":0,"numAffected":0,"numAtRisk":28}]},{"term":"Presyncope","organSystem":"Nervous system disorders","sourceVocabulary":"MedDRA 18.0","assessmentType":"SYSTEMATIC_ASSESSMENT","stats":[{"groupId":"EG000","numEvents":0,"numAffected":0,"numAtRisk":201},{"groupId":"EG001","numEvents":0,"numAffected":0,"numAtRisk":31},{"groupId":"EG002","numEvents":1,"numAffected":1,"numAtRisk":271},{"groupId":"EG003","numEvents":0,"numAffected":0,"numAtRisk":60},{"groupId":"EG004","numEvents":0,"numAffected":0,"numAtRisk":12},{"groupId":"EG005","numEvents":0,"numAffected":0,"numAtRisk":28}]},{"term":"Anxiety","organSystem":"Psychiatric disorders","sourceVocabulary":"MedDRA 18.0","assessmentType":"SYSTEMATIC_ASSESSMENT","stats":[{"groupId":"EG000","numEvents":0,"numAffected":0,"numAtRisk":201},{"groupId":"EG001","numEvents":0,"numAffected":0,"numAtRisk":31},{"groupId":"EG002","numEvents":1,"numAffected":1,"numAtRisk":271},{"groupId":"EG003","numEvents":1,"numAffected":1,"numAtRisk":60},{"groupId":"EG004","numEvents":0,"numAffected":0,"numAtRisk":12},{"groupId":"EG005","numEvents":0,"numAffected":0,"numAtRisk":28}]},{"term":"Confusional state","organSystem":"Psychiatric disorders","sourceVocabulary":"MedDRA 18.0","assessmentType":"SYSTEMATIC_ASSESSMENT","stats":[{"groupId":"EG000","numEvents":0,"numAffected":0,"numAtRisk":201},{"groupId":"EG001","numEvents":0,"numAffected":0,"numAtRisk":31},{"groupId":"EG002","numEvents":1,"numAffected":1,"numAtRisk":271},{"groupId":"EG003","numEvents":0,"numAffected":0,"numAtRisk":60},{"groupId":"EG004","numEvents":0,"numAffected":0,"numAtRisk":12},{"groupId":"EG005","numEvents":0,"numAffected":0,"numAtRisk":28}]},{"term":"Delusion","organSystem":"Psychiatric disorders","sourceVocabulary":"MedDRA 18.0","assessmentType":"SYSTEMATIC_ASSESSMENT","stats":[{"groupId":"EG000","numEvents":0,"numAffected":0,"numAtRisk":201},{"groupId":"EG001","numEvents":0,"numAffected":0,"numAtRisk":31},{"groupId":"EG002","numEvents":1,"numAffected":1,"numAtRisk":271},{"groupId":"EG003","numEvents":0,"numAffected":0,"numAtRisk":60},{"groupId":"EG004","numEvents":0,"numAffected":0,"numAtRisk":12},{"groupId":"EG005","numEvents":0,"numAffected":0,"numAtRisk":28}]},{"term":"Depression","organSystem":"Psychiatric disorders","sourceVocabulary":"MedDRA 18.0","assessmentType":"SYSTEMATIC_ASSESSMENT","stats":[{"groupId":"EG000","numEvents":0,"numAffected":0,"numAtRisk":201},{"groupId":"EG001","numEvents":0,"numAffected":0,"numAtRisk":31},{"groupId":"EG002","numEvents":2,"numAffected":2,"numAtRisk":271},{"groupId":"EG003","numEvents":0,"numAffected":0,"numAtRisk":60},{"groupId":"EG004","numEvents":0,"numAffected":0,"numAtRisk":12},{"groupId":"EG005","numEvents":0,"numAffected":0,"numAtRisk":28}]},{"term":"Insomnia","organSystem":"Psychiatric disorders","sourceVocabulary":"MedDRA 18.0","assessmentType":"SYSTEMATIC_ASSESSMENT","stats":[{"groupId":"EG000","numEvents":0,"numAffected":0,"numAtRisk":201},{"groupId":"EG001","numEvents":0,"numAffected":0,"numAtRisk":31},{"groupId":"EG002","numEvents":1,"numAffected":1,"numAtRisk":271},{"groupId":"EG003","numEvents":0,"numAffected":0,"numAtRisk":60},{"groupId":"EG004","numEvents":0,"numAffected":0,"numAtRisk":12},{"groupId":"EG005","numEvents":0,"numAffected":0,"numAtRisk":28}]},{"term":"Suicide attempt","organSystem":"Psychiatric disorders","sourceVocabulary":"MedDRA 18.0","assessmentType":"SYSTEMATIC_ASSESSMENT","stats":[{"groupId":"EG000","numEvents":0,"numAffected":0,"numAtRisk":201},{"groupId":"EG001","numEvents":0,"numAffected":0,"numAtRisk":31},{"groupId":"EG002","numEvents":1,"numAffected":1,"numAtRisk":271},{"groupId":"EG003","numEvents":0,"numAffected":0,"numAtRisk":60},{"groupId":"EG004","numEvents":0,"numAffected":0,"numAtRisk":12},{"groupId":"EG005","numEvents":0,"numAffected":0,"numAtRisk":28}]},{"term":"Renal failure acute","organSystem":"Renal and urinary disorders","sourceVocabulary":"MedDRA 18.0","assessmentType":"SYSTEMATIC_ASSESSMENT","stats":[{"groupId":"EG000","numEvents":0,"numAffected":0,"numAtRisk":201},{"groupId":"EG001","numEvents":0,"numAffected":0,"numAtRisk":31},{"groupId":"EG002","numEvents":1,"numAffected":1,"numAtRisk":271},{"groupId":"EG003","numEvents":0,"numAffected":0,"numAtRisk":60},{"groupId":"EG004","numEvents":0,"numAffected":0,"numAtRisk":12},{"groupId":"EG005","numEvents":0,"numAffected":0,"numAtRisk":28}]},{"term":"Renal impairment","organSystem":"Renal and urinary disorders","sourceVocabulary":"MedDRA 18.0","assessmentType":"SYSTEMATIC_ASSESSMENT","stats":[{"groupId":"EG000","numEvents":0,"numAffected":0,"numAtRisk":201},{"groupId":"EG001","numEvents":0,"numAffected":0,"numAtRisk":31},{"groupId":"EG002","numEvents":1,"numAffected":1,"numAtRisk":271},{"groupId":"EG003","numEvents":0,"numAffected":0,"numAtRisk":60},{"groupId":"EG004","numEvents":0,"numAffected":0,"numAtRisk":12},{"groupId":"EG005","numEvents":0,"numAffected":0,"numAtRisk":28}]},{"term":"Benign prostatic hyperplasia","organSystem":"Reproductive system and breast disorders","sourceVocabulary":"MedDRA 18.0","assessmentType":"SYSTEMATIC_ASSESSMENT","stats":[{"groupId":"EG000","numEvents":0,"numAffected":0,"numAtRisk":201},{"groupId":"EG001","numEvents":0,"numAffected":0,"numAtRisk":31},{"groupId":"EG002","numEvents":1,"numAffected":1,"numAtRisk":271},{"groupId":"EG003","numEvents":0,"numAffected":0,"numAtRisk":60},{"groupId":"EG004","numEvents":0,"numAffected":0,"numAtRisk":12},{"groupId":"EG005","numEvents":0,"numAffected":0,"numAtRisk":28}]},{"term":"Pneumothorax","organSystem":"Respiratory, thoracic and mediastinal disorders","sourceVocabulary":"MedDRA 18.0","assessmentType":"SYSTEMATIC_ASSESSMENT","stats":[{"groupId":"EG000","numEvents":0,"numAffected":0,"numAtRisk":201},{"groupId":"EG001","numEvents":0,"numAffected":0,"numAtRisk":31},{"groupId":"EG002","numEvents":2,"numAffected":2,"numAtRisk":271},{"groupId":"EG003","numEvents":0,"numAffected":0,"numAtRisk":60},{"groupId":"EG004","numEvents":0,"numAffected":0,"numAtRisk":12},{"groupId":"EG005","numEvents":0,"numAffected":0,"numAtRisk":28}]},{"term":"Pulmonary granuloma","organSystem":"Respiratory, thoracic and mediastinal disorders","sourceVocabulary":"MedDRA 18.0","assessmentType":"SYSTEMATIC_ASSESSMENT","stats":[{"groupId":"EG000","numEvents":0,"numAffected":0,"numAtRisk":201},{"groupId":"EG001","numEvents":0,"numAffected":0,"numAtRisk":31},{"groupId":"EG002","numEvents":0,"numAffected":0,"numAtRisk":271},{"groupId":"EG003","numEvents":1,"numAffected":1,"numAtRisk":60},{"groupId":"EG004","numEvents":0,"numAffected":0,"numAtRisk":12},{"groupId":"EG005","numEvents":0,"numAffected":0,"numAtRisk":28}]},{"term":"Skin toxicity","organSystem":"Skin and subcutaneous tissue disorders","sourceVocabulary":"MedDRA 18.0","assessmentType":"SYSTEMATIC_ASSESSMENT","stats":[{"groupId":"EG000","numEvents":0,"numAffected":0,"numAtRisk":201},{"groupId":"EG001","numEvents":0,"numAffected":0,"numAtRisk":31},{"groupId":"EG002","numEvents":1,"numAffected":1,"numAtRisk":271},{"groupId":"EG003","numEvents":0,"numAffected":0,"numAtRisk":60},{"groupId":"EG004","numEvents":0,"numAffected":0,"numAtRisk":12},{"groupId":"EG005","numEvents":0,"numAffected":0,"numAtRisk":28}]},{"term":"Deep vein thrombosis","organSystem":"Vascular disorders","sourceVocabulary":"MedDRA 18.0","assessmentType":"SYSTEMATIC_ASSESSMENT","stats":[{"groupId":"EG000","numEvents":0,"numAffected":0,"numAtRisk":201},{"groupId":"EG001","numEvents":0,"numAffected":0,"numAtRisk":31},{"groupId":"EG002","numEvents":1,"numAffected":1,"numAtRisk":271},{"groupId":"EG003","numEvents":0,"numAffected":0,"numAtRisk":60},{"groupId":"EG004","numEvents":0,"numAffected":0,"numAtRisk":12},{"groupId":"EG005","numEvents":0,"numAffected":0,"numAtRisk":28}]},{"term":"Embolism","organSystem":"Vascular disorders","sourceVocabulary":"MedDRA 18.0","assessmentType":"SYSTEMATIC_ASSESSMENT","stats":[{"groupId":"EG000","numEvents":0,"numAffected":0,"numAtRisk":201},{"groupId":"EG001","numEvents":0,"numAffected":0,"numAtRisk":31},{"groupId":"EG002","numEvents":1,"numAffected":1,"numAtRisk":271},{"groupId":"EG003","numEvents":0,"numAffected":0,"numAtRisk":60},{"groupId":"EG004","numEvents":0,"numAffected":0,"numAtRisk":12},{"groupId":"EG005","numEvents":0,"numAffected":0,"numAtRisk":28}]},{"term":"Peripheral artery thrombosis","organSystem":"Vascular disorders","sourceVocabulary":"MedDRA 18.0","assessmentType":"SYSTEMATIC_ASSESSMENT","stats":[{"groupId":"EG000","numEvents":0,"numAffected":0,"numAtRisk":201},{"groupId":"EG001","numEvents":0,"numAffected":0,"numAtRisk":31},{"groupId":"EG002","numEvents":1,"numAffected":1,"numAtRisk":271},{"groupId":"EG003","numEvents":0,"numAffected":0,"numAtRisk":60},{"groupId":"EG004","numEvents":0,"numAffected":0,"numAtRisk":12},{"groupId":"EG005","numEvents":0,"numAffected":0,"numAtRisk":28}]}],"otherEvents":[{"term":"Anaemia","organSystem":"Blood and lymphatic system disorders","sourceVocabulary":"MedDRA 18.0","assessmentType":"SYSTEMATIC_ASSESSMENT","stats":[{"groupId":"EG000","numEvents":22,"numAffected":18,"numAtRisk":201},{"groupId":"EG001","numEvents":7,"numAffected":6,"numAtRisk":31},{"groupId":"EG002","numEvents":49,"numAffected":36,"numAtRisk":271},{"groupId":"EG003","numEvents":10,"numAffected":9,"numAtRisk":60},{"groupId":"EG004","numEvents":0,"numAffected":0,"numAtRisk":12},{"groupId":"EG005","numEvents":5,"numAffected":5,"numAtRisk":28}]},{"term":"Dry eye","organSystem":"Eye disorders","sourceVocabulary":"MedDRA 18.0","assessmentType":"SYSTEMATIC_ASSESSMENT","stats":[{"groupId":"EG000","numEvents":14,"numAffected":12,"numAtRisk":201},{"groupId":"EG001","numEvents":3,"numAffected":3,"numAtRisk":31},{"groupId":"EG002","numEvents":21,"numAffected":20,"numAtRisk":271},{"groupId":"EG003","numEvents":7,"numAffected":7,"numAtRisk":60},{"groupId":"EG004","numEvents":0,"numAffected":0,"numAtRisk":12},{"groupId":"EG005","numEvents":1,"numAffected":1,"numAtRisk":28}]},{"term":"Abdominal pain upper","organSystem":"Gastrointestinal disorders","sourceVocabulary":"MedDRA 18.0","assessmentType":"SYSTEMATIC_ASSESSMENT","stats":[{"groupId":"EG000","numEvents":13,"numAffected":12,"numAtRisk":201},{"groupId":"EG001","numEvents":3,"numAffected":2,"numAtRisk":31},{"groupId":"EG002","numEvents":26,"numAffected":19,"numAtRisk":271},{"groupId":"EG003","numEvents":9,"numAffected":8,"numAtRisk":60},{"groupId":"EG004","numEvents":0,"numAffected":0,"numAtRisk":12},{"groupId":"EG005","numEvents":0,"numAffected":0,"numAtRisk":28}]},{"term":"Constipation","organSystem":"Gastrointestinal disorders","sourceVocabulary":"MedDRA 18.0","assessmentType":"SYSTEMATIC_ASSESSMENT","stats":[{"groupId":"EG000","numEvents":31,"numAffected":30,"numAtRisk":201},{"groupId":"EG001","numEvents":4,"numAffected":3,"numAtRisk":31},{"groupId":"EG002","numEvents":65,"numAffected":60,"numAtRisk":271},{"groupId":"EG003","numEvents":11,"numAffected":9,"numAtRisk":60},{"groupId":"EG004","numEvents":1,"numAffected":1,"numAtRisk":12},{"groupId":"EG005","numEvents":2,"numAffected":2,"numAtRisk":28}]},{"term":"Diarrhoea","organSystem":"Gastrointestinal disorders","sourceVocabulary":"MedDRA 18.0","assessmentType":"SYSTEMATIC_ASSESSMENT","stats":[{"groupId":"EG000","numEvents":147,"numAffected":93,"numAtRisk":201},{"groupId":"EG001","numEvents":38,"numAffected":19,"numAtRisk":31},{"groupId":"EG002","numEvents":219,"numAffected":144,"numAtRisk":271},{"groupId":"EG003","numEvents":62,"numAffected":41,"numAtRisk":60},{"groupId":"EG004","numEvents":6,"numAffected":5,"numAtRisk":12},{"groupId":"EG005","numEvents":9,"numAffected":9,"numAtRisk":28}]},{"term":"Dry mouth","organSystem":"Gastrointestinal disorders","sourceVocabulary":"MedDRA 18.0","assessmentType":"SYSTEMATIC_ASSESSMENT","stats":[{"groupId":"EG000","numEvents":13,"numAffected":13,"numAtRisk":201},{"groupId":"EG001","numEvents":1,"numAffected":1,"numAtRisk":31},{"groupId":"EG002","numEvents":18,"numAffected":17,"numAtRisk":271},{"groupId":"EG003","numEvents":4,"numAffected":4,"numAtRisk":60},{"groupId":"EG004","numEvents":0,"numAffected":0,"numAtRisk":12},{"groupId":"EG005","numEvents":1,"numAffected":1,"numAtRisk":28}]},{"term":"Nausea","organSystem":"Gastrointestinal disorders","sourceVocabulary":"MedDRA 18.0","assessmentType":"SYSTEMATIC_ASSESSMENT","stats":[{"groupId":"EG000","numEvents":45,"numAffected":34,"numAtRisk":201},{"groupId":"EG001","numEvents":9,"numAffected":8,"numAtRisk":31},{"groupId":"EG002","numEvents":96,"numAffected":72,"numAtRisk":271},{"groupId":"EG003","numEvents":18,"numAffected":15,"numAtRisk":60},{"groupId":"EG004","numEvents":5,"numAffected":5,"numAtRisk":12},{"groupId":"EG005","numEvents":3,"numAffected":3,"numAtRisk":28}]},{"term":"Stomatitis","organSystem":"Gastrointestinal disorders","sourceVocabulary":"MedDRA 18.0","assessmentType":"SYSTEMATIC_ASSESSMENT","stats":[{"groupId":"EG000","numEvents":28,"numAffected":27,"numAtRisk":201},{"groupId":"EG001","numEvents":14,"numAffected":8,"numAtRisk":31},{"groupId":"EG002","numEvents":63,"numAffected":50,"numAtRisk":271},{"groupId":"EG003","numEvents":36,"numAffected":23,"numAtRisk":60},{"groupId":"EG004","numEvents":1,"numAffected":1,"numAtRisk":12},{"groupId":"EG005","numEvents":5,"numAffected":5,"numAtRisk":28}]},{"term":"Vomiting","organSystem":"Gastrointestinal disorders","sourceVocabulary":"MedDRA 18.0","assessmentType":"SYSTEMATIC_ASSESSMENT","stats":[{"groupId":"EG000","numEvents":31,"numAffected":23,"numAtRisk":201},{"groupId":"EG001","numEvents":10,"numAffected":7,"numAtRisk":31},{"groupId":"EG002","numEvents":73,"numAffected":48,"numAtRisk":271},{"groupId":"EG003","numEvents":13,"numAffected":9,"numAtRisk":60},{"groupId":"EG004","numEvents":1,"numAffected":1,"numAtRisk":12},{"groupId":"EG005","numEvents":1,"numAffected":1,"numAtRisk":28}]},{"term":"Asthenia","organSystem":"General disorders","sourceVocabulary":"MedDRA 18.0","assessmentType":"SYSTEMATIC_ASSESSMENT","stats":[{"groupId":"EG000","numEvents":34,"numAffected":19,"numAtRisk":201},{"groupId":"EG001","numEvents":3,"numAffected":3,"numAtRisk":31},{"groupId":"EG002","numEvents":36,"numAffected":25,"numAtRisk":271},{"groupId":"EG003","numEvents":2,"numAffected":2,"numAtRisk":60},{"groupId":"EG004","numEvents":1,"numAffected":1,"numAtRisk":12},{"groupId":"EG005","numEvents":0,"numAffected":0,"numAtRisk":28}]},{"term":"Fatigue","organSystem":"General disorders","sourceVocabulary":"MedDRA 18.0","assessmentType":"SYSTEMATIC_ASSESSMENT","stats":[{"groupId":"EG000","numEvents":27,"numAffected":24,"numAtRisk":201},{"groupId":"EG001","numEvents":6,"numAffected":5,"numAtRisk":31},{"groupId":"EG002","numEvents":68,"numAffected":64,"numAtRisk":271},{"groupId":"EG003","numEvents":16,"numAffected":15,"numAtRisk":60},{"groupId":"EG004","numEvents":4,"numAffected":2,"numAtRisk":12},{"groupId":"EG005","numEvents":0,"numAffected":0,"numAtRisk":28}]},{"term":"Oedema peripheral","organSystem":"General disorders","sourceVocabulary":"MedDRA 18.0","assessmentType":"SYSTEMATIC_ASSESSMENT","stats":[{"groupId":"EG000","numEvents":17,"numAffected":15,"numAtRisk":201},{"groupId":"EG001","numEvents":0,"numAffected":0,"numAtRisk":31},{"groupId":"EG002","numEvents":22,"numAffected":20,"numAtRisk":271},{"groupId":"EG003","numEvents":3,"numAffected":2,"numAtRisk":60},{"groupId":"EG004","numEvents":4,"numAffected":2,"numAtRisk":12},{"groupId":"EG005","numEvents":0,"numAffected":0,"numAtRisk":28}]},{"term":"Pyrexia","organSystem":"General disorders","sourceVocabulary":"MedDRA 18.0","assessmentType":"SYSTEMATIC_ASSESSMENT","stats":[{"groupId":"EG000","numEvents":13,"numAffected":12,"numAtRisk":201},{"groupId":"EG001","numEvents":1,"numAffected":1,"numAtRisk":31},{"groupId":"EG002","numEvents":28,"numAffected":27,"numAtRisk":271},{"groupId":"EG003","numEvents":5,"numAffected":5,"numAtRisk":60},{"groupId":"EG004","numEvents":1,"numAffected":1,"numAtRisk":12},{"groupId":"EG005","numEvents":1,"numAffected":1,"numAtRisk":28}]},{"term":"Nasopharyngitis","organSystem":"Infections and infestations","sourceVocabulary":"MedDRA 18.0","assessmentType":"SYSTEMATIC_ASSESSMENT","stats":[{"groupId":"EG000","numEvents":16,"numAffected":14,"numAtRisk":201},{"groupId":"EG001","numEvents":10,"numAffected":6,"numAtRisk":31},{"groupId":"EG002","numEvents":26,"numAffected":21,"numAtRisk":271},{"groupId":"EG003","numEvents":3,"numAffected":2,"numAtRisk":60},{"groupId":"EG004","numEvents":1,"numAffected":1,"numAtRisk":12},{"groupId":"EG005","numEvents":2,"numAffected":2,"numAtRisk":28}]},{"term":"Paronychia","organSystem":"Infections and infestations","sourceVocabulary":"MedDRA 18.0","assessmentType":"SYSTEMATIC_ASSESSMENT","stats":[{"groupId":"EG000","numEvents":48,"numAffected":40,"numAtRisk":201},{"groupId":"EG001","numEvents":11,"numAffected":8,"numAtRisk":31},{"groupId":"EG002","numEvents":75,"numAffected":64,"numAtRisk":271},{"groupId":"EG003","numEvents":23,"numAffected":23,"numAtRisk":60},{"groupId":"EG004","numEvents":3,"numAffected":2,"numAtRisk":12},{"groupId":"EG005","numEvents":8,"numAffected":8,"numAtRisk":28}]},{"term":"Upper respiratory tract infection","organSystem":"Infections and infestations","sourceVocabulary":"MedDRA 18.0","assessmentType":"SYSTEMATIC_ASSESSMENT","stats":[{"groupId":"EG000","numEvents":20,"numAffected":18,"numAtRisk":201},{"groupId":"EG001","numEvents":15,"numAffected":6,"numAtRisk":31},{"groupId":"EG002","numEvents":29,"numAffected":27,"numAtRisk":271},{"groupId":"EG003","numEvents":15,"numAffected":11,"numAtRisk":60},{"groupId":"EG004","numEvents":4,"numAffected":4,"numAtRisk":12},{"groupId":"EG005","numEvents":2,"numAffected":2,"numAtRisk":28}]},{"term":"Alanine aminotransferase increased","organSystem":"Investigations","sourceVocabulary":"MedDRA 18.0","assessmentType":"SYSTEMATIC_ASSESSMENT","stats":[{"groupId":"EG000","numEvents":13,"numAffected":12,"numAtRisk":201},{"groupId":"EG001","numEvents":3,"numAffected":3,"numAtRisk":31},{"groupId":"EG002","numEvents":23,"numAffected":16,"numAtRisk":271},{"groupId":"EG003","numEvents":10,"numAffected":6,"numAtRisk":60},{"groupId":"EG004","numEvents":0,"numAffected":0,"numAtRisk":12},{"groupId":"EG005","numEvents":0,"numAffected":0,"numAtRisk":28}]},{"term":"Aspartate aminotransferase increased","organSystem":"Investigations","sourceVocabulary":"MedDRA 18.0","assessmentType":"SYSTEMATIC_ASSESSMENT","stats":[{"groupId":"EG000","numEvents":18,"numAffected":14,"numAtRisk":201},{"groupId":"EG001","numEvents":2,"numAffected":2,"numAtRisk":31},{"groupId":"EG002","numEvents":27,"numAffected":19,"numAtRisk":271},{"groupId":"EG003","numEvents":11,"numAffected":7,"numAtRisk":60},{"groupId":"EG004","numEvents":0,"numAffected":0,"numAtRisk":12},{"groupId":"EG005","numEvents":0,"numAffected":0,"numAtRisk":28}]},{"term":"Platelet count decreased","organSystem":"Investigations","sourceVocabulary":"MedDRA 18.0","assessmentType":"SYSTEMATIC_ASSESSMENT","stats":[{"groupId":"EG000","numEvents":38,"numAffected":26,"numAtRisk":201},{"groupId":"EG001","numEvents":1,"numAffected":1,"numAtRisk":31},{"groupId":"EG002","numEvents":31,"numAffected":24,"numAtRisk":271},{"groupId":"EG003","numEvents":12,"numAffected":8,"numAtRisk":60},{"groupId":"EG004","numEvents":0,"numAffected":0,"numAtRisk":12},{"groupId":"EG005","numEvents":4,"numAffected":3,"numAtRisk":28}]},{"term":"White blood cell count decreased","organSystem":"Investigations","sourceVocabulary":"MedDRA 18.0","assessmentType":"SYSTEMATIC_ASSESSMENT","stats":[{"groupId":"EG000","numEvents":19,"numAffected":15,"numAtRisk":201},{"groupId":"EG001","numEvents":4,"numAffected":3,"numAtRisk":31},{"groupId":"EG002","numEvents":20,"numAffected":8,"numAtRisk":271},{"groupId":"EG003","numEvents":17,"numAffected":10,"numAtRisk":60},{"groupId":"EG004","numEvents":0,"numAffected":0,"numAtRisk":12},{"groupId":"EG005","numEvents":7,"numAffected":5,"numAtRisk":28}]},{"term":"Decreased appetite","organSystem":"Metabolism and nutrition disorders","sourceVocabulary":"MedDRA 18.0","assessmentType":"SYSTEMATIC_ASSESSMENT","stats":[{"groupId":"EG000","numEvents":41,"numAffected":36,"numAtRisk":201},{"groupId":"EG001","numEvents":18,"numAffected":12,"numAtRisk":31},{"groupId":"EG002","numEvents":80,"numAffected":69,"numAtRisk":271},{"groupId":"EG003","numEvents":15,"numAffected":15,"numAtRisk":60},{"groupId":"EG004","numEvents":4,"numAffected":3,"numAtRisk":12},{"groupId":"EG005","numEvents":1,"numAffected":1,"numAtRisk":28}]},{"term":"Arthralgia","organSystem":"Musculoskeletal and connective tissue disorders","sourceVocabulary":"MedDRA 18.0","assessmentType":"SYSTEMATIC_ASSESSMENT","stats":[{"groupId":"EG000","numEvents":18,"numAffected":16,"numAtRisk":201},{"groupId":"EG001","numEvents":4,"numAffected":4,"numAtRisk":31},{"groupId":"EG002","numEvents":33,"numAffected":26,"numAtRisk":271},{"groupId":"EG003","numEvents":2,"numAffected":2,"numAtRisk":60},{"groupId":"EG004","numEvents":2,"numAffected":2,"numAtRisk":12},{"groupId":"EG005","numEvents":1,"numAffected":1,"numAtRisk":28}]},{"term":"Back pain","organSystem":"Musculoskeletal and connective tissue disorders","sourceVocabulary":"MedDRA 18.0","assessmentType":"SYSTEMATIC_ASSESSMENT","stats":[{"groupId":"EG000","numEvents":29,"numAffected":27,"numAtRisk":201},{"groupId":"EG001","numEvents":6,"numAffected":3,"numAtRisk":31},{"groupId":"EG002","numEvents":30,"numAffected":27,"numAtRisk":271},{"groupId":"EG003","numEvents":7,"numAffected":6,"numAtRisk":60},{"groupId":"EG004","numEvents":2,"numAffected":2,"numAtRisk":12},{"groupId":"EG005","numEvents":0,"numAffected":0,"numAtRisk":28}]},{"term":"Muscle spasms","organSystem":"Musculoskeletal and connective tissue disorders","sourceVocabulary":"MedDRA 18.0","assessmentType":"SYSTEMATIC_ASSESSMENT","stats":[{"groupId":"EG000","numEvents":14,"numAffected":13,"numAtRisk":201},{"groupId":"EG001","numEvents":4,"numAffected":3,"numAtRisk":31},{"groupId":"EG002","numEvents":27,"numAffected":24,"numAtRisk":271},{"groupId":"EG003","numEvents":8,"numAffected":8,"numAtRisk":60},{"groupId":"EG004","numEvents":2,"numAffected":2,"numAtRisk":12},{"groupId":"EG005","numEvents":0,"numAffected":0,"numAtRisk":28}]},{"term":"Musculoskeletal pain","organSystem":"Musculoskeletal and connective tissue disorders","sourceVocabulary":"MedDRA 18.0","assessmentType":"SYSTEMATIC_ASSESSMENT","stats":[{"groupId":"EG000","numEvents":16,"numAffected":15,"numAtRisk":201},{"groupId":"EG001","numEvents":2,"numAffected":2,"numAtRisk":31},{"groupId":"EG002","numEvents":20,"numAffected":20,"numAtRisk":271},{"groupId":"EG003","numEvents":0,"numAffected":0,"numAtRisk":60},{"groupId":"EG004","numEvents":2,"numAffected":2,"numAtRisk":12},{"groupId":"EG005","numEvents":2,"numAffected":2,"numAtRisk":28}]},{"term":"Headache","organSystem":"Nervous system disorders","sourceVocabulary":"MedDRA 18.0","assessmentType":"SYSTEMATIC_ASSESSMENT","stats":[{"groupId":"EG000","numEvents":22,"numAffected":22,"numAtRisk":201},{"groupId":"EG001","numEvents":7,"numAffected":4,"numAtRisk":31},{"groupId":"EG002","numEvents":34,"numAffected":30,"numAtRisk":271},{"groupId":"EG003","numEvents":8,"numAffected":5,"numAtRisk":60},{"groupId":"EG004","numEvents":3,"numAffected":1,"numAtRisk":12},{"groupId":"EG005","numEvents":0,"numAffected":0,"numAtRisk":28}]},{"term":"Insomnia","organSystem":"Psychiatric disorders","sourceVocabulary":"MedDRA 18.0","assessmentType":"SYSTEMATIC_ASSESSMENT","stats":[{"groupId":"EG000","numEvents":21,"numAffected":19,"numAtRisk":201},{"groupId":"EG001","numEvents":1,"numAffected":1,"numAtRisk":31},{"groupId":"EG002","numEvents":28,"numAffected":27,"numAtRisk":271},{"groupId":"EG003","numEvents":10,"numAffected":7,"numAtRisk":60},{"groupId":"EG004","numEvents":2,"numAffected":2,"numAtRisk":12},{"groupId":"EG005","numEvents":0,"numAffected":0,"numAtRisk":28}]},{"term":"Cough","organSystem":"Respiratory, thoracic and mediastinal disorders","sourceVocabulary":"MedDRA 18.0","assessmentType":"SYSTEMATIC_ASSESSMENT","stats":[{"groupId":"EG000","numEvents":36,"numAffected":32,"numAtRisk":201},{"groupId":"EG001","numEvents":4,"numAffected":4,"numAtRisk":31},{"groupId":"EG002","numEvents":64,"numAffected":55,"numAtRisk":271},{"groupId":"EG003","numEvents":11,"numAffected":9,"numAtRisk":60},{"groupId":"EG004","numEvents":2,"numAffected":2,"numAtRisk":12},{"groupId":"EG005","numEvents":0,"numAffected":0,"numAtRisk":28}]},{"term":"Dyspnoea","organSystem":"Respiratory, thoracic and mediastinal disorders","sourceVocabulary":"MedDRA 18.0","assessmentType":"SYSTEMATIC_ASSESSMENT","stats":[{"groupId":"EG000","numEvents":19,"numAffected":18,"numAtRisk":201},{"groupId":"EG001","numEvents":3,"numAffected":2,"numAtRisk":31},{"groupId":"EG002","numEvents":43,"numAffected":37,"numAtRisk":271},{"groupId":"EG003","numEvents":2,"numAffected":2,"numAtRisk":60},{"groupId":"EG004","numEvents":5,"numAffected":4,"numAtRisk":12},{"groupId":"EG005","numEvents":0,"numAffected":0,"numAtRisk":28}]},{"term":"Dermatitis acneiform","organSystem":"Skin and subcutaneous tissue disorders","sourceVocabulary":"MedDRA 18.0","assessmentType":"SYSTEMATIC_ASSESSMENT","stats":[{"groupId":"EG000","numEvents":13,"numAffected":12,"numAtRisk":201},{"groupId":"EG001","numEvents":3,"numAffected":3,"numAtRisk":31},{"groupId":"EG002","numEvents":39,"numAffected":32,"numAtRisk":271},{"groupId":"EG003","numEvents":17,"numAffected":16,"numAtRisk":60},{"groupId":"EG004","numEvents":0,"numAffected":0,"numAtRisk":12},{"groupId":"EG005","numEvents":2,"numAffected":2,"numAtRisk":28}]},{"term":"Dry skin","organSystem":"Skin and subcutaneous tissue disorders","sourceVocabulary":"MedDRA 18.0","assessmentType":"SYSTEMATIC_ASSESSMENT","stats":[{"groupId":"EG000","numEvents":45,"numAffected":43,"numAtRisk":201},{"groupId":"EG001","numEvents":8,"numAffected":8,"numAtRisk":31},{"groupId":"EG002","numEvents":73,"numAffected":62,"numAtRisk":271},{"groupId":"EG003","numEvents":29,"numAffected":24,"numAtRisk":60},{"groupId":"EG004","numEvents":4,"numAffected":4,"numAtRisk":12},{"groupId":"EG005","numEvents":8,"numAffected":8,"numAtRisk":28}]},{"term":"Pruritus","organSystem":"Skin and subcutaneous tissue disorders","sourceVocabulary":"MedDRA 18.0","assessmentType":"SYSTEMATIC_ASSESSMENT","stats":[{"groupId":"EG000","numEvents":29,"numAffected":25,"numAtRisk":201},{"groupId":"EG001","numEvents":9,"numAffected":8,"numAtRisk":31},{"groupId":"EG002","numEvents":61,"numAffected":56,"numAtRisk":271},{"groupId":"EG003","numEvents":15,"numAffected":14,"numAtRisk":60},{"groupId":"EG004","numEvents":4,"numAffected":3,"numAtRisk":12},{"groupId":"EG005","numEvents":3,"numAffected":3,"numAtRisk":28}]},{"term":"Rash","organSystem":"Skin and subcutaneous tissue disorders","sourceVocabulary":"MedDRA 18.0","assessmentType":"SYSTEMATIC_ASSESSMENT","stats":[{"groupId":"EG000","numEvents":58,"numAffected":49,"numAtRisk":201},{"groupId":"EG001","numEvents":17,"numAffected":11,"numAtRisk":31},{"groupId":"EG002","numEvents":101,"numAffected":75,"numAtRisk":271},{"groupId":"EG003","numEvents":25,"numAffected":20,"numAtRisk":60},{"groupId":"EG004","numEvents":2,"numAffected":2,"numAtRisk":12},{"groupId":"EG005","numEvents":3,"numAffected":3,"numAtRisk":28}]},{"term":"Skin fissures","organSystem":"Skin and subcutaneous tissue disorders","sourceVocabulary":"MedDRA 18.0","assessmentType":"SYSTEMATIC_ASSESSMENT","stats":[{"groupId":"EG000","numEvents":12,"numAffected":12,"numAtRisk":201},{"groupId":"EG001","numEvents":4,"numAffected":4,"numAtRisk":31},{"groupId":"EG002","numEvents":31,"numAffected":30,"numAtRisk":271},{"groupId":"EG003","numEvents":9,"numAffected":9,"numAtRisk":60},{"groupId":"EG004","numEvents":1,"numAffected":1,"numAtRisk":12},{"groupId":"EG005","numEvents":2,"numAffected":1,"numAtRisk":28}]},{"term":"Leukopenia","organSystem":"Blood and lymphatic system disorders","sourceVocabulary":"MedDRA 18.0","assessmentType":"SYSTEMATIC_ASSESSMENT","stats":[{"groupId":"EG000","numEvents":9,"numAffected":9,"numAtRisk":201},{"groupId":"EG001","numEvents":1,"numAffected":1,"numAtRisk":31},{"groupId":"EG002","numEvents":16,"numAffected":10,"numAtRisk":271},{"groupId":"EG003","numEvents":6,"numAffected":4,"numAtRisk":60},{"groupId":"EG004","numEvents":0,"numAffected":0,"numAtRisk":12},{"groupId":"EG005","numEvents":6,"numAffected":3,"numAtRisk":28}]},{"term":"Lymphopenia","organSystem":"Blood and lymphatic system disorders","sourceVocabulary":"MedDRA 18.0","assessmentType":"SYSTEMATIC_ASSESSMENT","stats":[{"groupId":"EG000","numEvents":5,"numAffected":5,"numAtRisk":201},{"groupId":"EG001","numEvents":1,"numAffected":1,"numAtRisk":31},{"groupId":"EG002","numEvents":8,"numAffected":6,"numAtRisk":271},{"groupId":"EG003","numEvents":1,"numAffected":1,"numAtRisk":60},{"groupId":"EG004","numEvents":0,"numAffected":0,"numAtRisk":12},{"groupId":"EG005","numEvents":2,"numAffected":2,"numAtRisk":28}]},{"term":"Neutropenia","organSystem":"Blood and lymphatic system disorders","sourceVocabulary":"MedDRA 18.0","assessmentType":"SYSTEMATIC_ASSESSMENT","stats":[{"groupId":"EG000","numEvents":7,"numAffected":7,"numAtRisk":201},{"groupId":"EG001","numEvents":8,"numAffected":4,"numAtRisk":31},{"groupId":"EG002","numEvents":12,"numAffected":12,"numAtRisk":271},{"groupId":"EG003","numEvents":5,"numAffected":3,"numAtRisk":60},{"groupId":"EG004","numEvents":0,"numAffected":0,"numAtRisk":12},{"groupId":"EG005","numEvents":6,"numAffected":4,"numAtRisk":28}]},{"term":"Thrombocytopenia","organSystem":"Blood and lymphatic system disorders","sourceVocabulary":"MedDRA 18.0","assessmentType":"SYSTEMATIC_ASSESSMENT","stats":[{"groupId":"EG000","numEvents":10,"numAffected":10,"numAtRisk":201},{"groupId":"EG001","numEvents":2,"numAffected":2,"numAtRisk":31},{"groupId":"EG002","numEvents":25,"numAffected":20,"numAtRisk":271},{"groupId":"EG003","numEvents":9,"numAffected":7,"numAtRisk":60},{"groupId":"EG004","numEvents":1,"numAffected":1,"numAtRisk":12},{"groupId":"EG005","numEvents":2,"numAffected":2,"numAtRisk":28}]},{"term":"Abdominal pain","organSystem":"Gastrointestinal disorders","sourceVocabulary":"MedDRA 18.0","assessmentType":"SYSTEMATIC_ASSESSMENT","stats":[{"groupId":"EG000","numEvents":10,"numAffected":10,"numAtRisk":201},{"groupId":"EG001","numEvents":3,"numAffected":3,"numAtRisk":31},{"groupId":"EG002","numEvents":27,"numAffected":25,"numAtRisk":271},{"groupId":"EG003","numEvents":4,"numAffected":4,"numAtRisk":60},{"groupId":"EG004","numEvents":0,"numAffected":0,"numAtRisk":12},{"groupId":"EG005","numEvents":0,"numAffected":0,"numAtRisk":28}]},{"term":"Dyspepsia","organSystem":"Gastrointestinal disorders","sourceVocabulary":"MedDRA 18.0","assessmentType":"SYSTEMATIC_ASSESSMENT","stats":[{"groupId":"EG000","numEvents":8,"numAffected":8,"numAtRisk":201},{"groupId":"EG001","numEvents":4,"numAffected":4,"numAtRisk":31},{"groupId":"EG002","numEvents":18,"numAffected":16,"numAtRisk":271},{"groupId":"EG003","numEvents":4,"numAffected":4,"numAtRisk":60},{"groupId":"EG004","numEvents":1,"numAffected":1,"numAtRisk":12},{"groupId":"EG005","numEvents":0,"numAffected":0,"numAtRisk":28}]},{"term":"Gastritis","organSystem":"Gastrointestinal disorders","sourceVocabulary":"MedDRA 18.0","assessmentType":"SYSTEMATIC_ASSESSMENT","stats":[{"groupId":"EG000","numEvents":1,"numAffected":1,"numAtRisk":201},{"groupId":"EG001","numEvents":0,"numAffected":0,"numAtRisk":31},{"groupId":"EG002","numEvents":3,"numAffected":3,"numAtRisk":271},{"groupId":"EG003","numEvents":4,"numAffected":4,"numAtRisk":60},{"groupId":"EG004","numEvents":0,"numAffected":0,"numAtRisk":12},{"groupId":"EG005","numEvents":0,"numAffected":0,"numAtRisk":28}]},{"term":"Gastrooesophageal reflux disease","organSystem":"Gastrointestinal disorders","sourceVocabulary":"MedDRA 18.0","assessmentType":"SYSTEMATIC_ASSESSMENT","stats":[{"groupId":"EG000","numEvents":5,"numAffected":5,"numAtRisk":201},{"groupId":"EG001","numEvents":0,"numAffected":0,"numAtRisk":31},{"groupId":"EG002","numEvents":11,"numAffected":11,"numAtRisk":271},{"groupId":"EG003","numEvents":5,"numAffected":5,"numAtRisk":60},{"groupId":"EG004","numEvents":2,"numAffected":2,"numAtRisk":12},{"groupId":"EG005","numEvents":0,"numAffected":0,"numAtRisk":28}]},{"term":"Mouth ulceration","organSystem":"Gastrointestinal disorders","sourceVocabulary":"MedDRA 18.0","assessmentType":"SYSTEMATIC_ASSESSMENT","stats":[{"groupId":"EG000","numEvents":3,"numAffected":3,"numAtRisk":201},{"groupId":"EG001","numEvents":0,"numAffected":0,"numAtRisk":31},{"groupId":"EG002","numEvents":4,"numAffected":4,"numAtRisk":271},{"groupId":"EG003","numEvents":10,"numAffected":8,"numAtRisk":60},{"groupId":"EG004","numEvents":0,"numAffected":0,"numAtRisk":12},{"groupId":"EG005","numEvents":0,"numAffected":0,"numAtRisk":28}]},{"term":"Influenza like illness","organSystem":"General disorders","sourceVocabulary":"MedDRA 18.0","assessmentType":"SYSTEMATIC_ASSESSMENT","stats":[{"groupId":"EG000","numEvents":3,"numAffected":3,"numAtRisk":201},{"groupId":"EG001","numEvents":0,"numAffected":0,"numAtRisk":31},{"groupId":"EG002","numEvents":10,"numAffected":8,"numAtRisk":271},{"groupId":"EG003","numEvents":5,"numAffected":5,"numAtRisk":60},{"groupId":"EG004","numEvents":0,"numAffected":0,"numAtRisk":12},{"groupId":"EG005","numEvents":0,"numAffected":0,"numAtRisk":28}]},{"term":"Mucosal inflammation","organSystem":"General disorders","sourceVocabulary":"MedDRA 18.0","assessmentType":"SYSTEMATIC_ASSESSMENT","stats":[{"groupId":"EG000","numEvents":0,"numAffected":0,"numAtRisk":201},{"groupId":"EG001","numEvents":0,"numAffected":0,"numAtRisk":31},{"groupId":"EG002","numEvents":17,"numAffected":16,"numAtRisk":271},{"groupId":"EG003","numEvents":7,"numAffected":7,"numAtRisk":60},{"groupId":"EG004","numEvents":0,"numAffected":0,"numAtRisk":12},{"groupId":"EG005","numEvents":0,"numAffected":0,"numAtRisk":28}]},{"term":"Conjunctivitis","organSystem":"Infections and infestations","sourceVocabulary":"MedDRA 18.0","assessmentType":"SYSTEMATIC_ASSESSMENT","stats":[{"groupId":"EG000","numEvents":6,"numAffected":6,"numAtRisk":201},{"groupId":"EG001","numEvents":1,"numAffected":1,"numAtRisk":31},{"groupId":"EG002","numEvents":6,"numAffected":5,"numAtRisk":271},{"groupId":"EG003","numEvents":8,"numAffected":8,"numAtRisk":60},{"groupId":"EG004","numEvents":0,"numAffected":0,"numAtRisk":12},{"groupId":"EG005","numEvents":0,"numAffected":0,"numAtRisk":28}]},{"term":"Folliculitis","organSystem":"Infections and infestations","sourceVocabulary":"MedDRA 18.0","assessmentType":"SYSTEMATIC_ASSESSMENT","stats":[{"groupId":"EG000","numEvents":3,"numAffected":3,"numAtRisk":201},{"groupId":"EG001","numEvents":1,"numAffected":1,"numAtRisk":31},{"groupId":"EG002","numEvents":15,"numAffected":14,"numAtRisk":271},{"groupId":"EG003","numEvents":3,"numAffected":3,"numAtRisk":60},{"groupId":"EG004","numEvents":0,"numAffected":0,"numAtRisk":12},{"groupId":"EG005","numEvents":0,"numAffected":0,"numAtRisk":28}]},{"term":"Oral herpes","organSystem":"Infections and infestations","sourceVocabulary":"MedDRA 18.0","assessmentType":"SYSTEMATIC_ASSESSMENT","stats":[{"groupId":"EG000","numEvents":2,"numAffected":2,"numAtRisk":201},{"groupId":"EG001","numEvents":2,"numAffected":2,"numAtRisk":31},{"groupId":"EG002","numEvents":2,"numAffected":2,"numAtRisk":271},{"groupId":"EG003","numEvents":0,"numAffected":0,"numAtRisk":60},{"groupId":"EG004","numEvents":1,"numAffected":1,"numAtRisk":12},{"groupId":"EG005","numEvents":2,"numAffected":2,"numAtRisk":28}]},{"term":"Pharyngitis","organSystem":"Infections and infestations","sourceVocabulary":"MedDRA 18.0","assessmentType":"SYSTEMATIC_ASSESSMENT","stats":[{"groupId":"EG000","numEvents":7,"numAffected":7,"numAtRisk":201},{"groupId":"EG001","numEvents":0,"numAffected":0,"numAtRisk":31},{"groupId":"EG002","numEvents":7,"numAffected":7,"numAtRisk":271},{"groupId":"EG003","numEvents":1,"numAffected":1,"numAtRisk":60},{"groupId":"EG004","numEvents":0,"numAffected":0,"numAtRisk":12},{"groupId":"EG005","numEvents":2,"numAffected":2,"numAtRisk":28}]},{"term":"Urinary tract infection","organSystem":"Infections and infestations","sourceVocabulary":"MedDRA 18.0","assessmentType":"SYSTEMATIC_ASSESSMENT","stats":[{"groupId":"EG000","numEvents":10,"numAffected":10,"numAtRisk":201},{"groupId":"EG001","numEvents":1,"numAffected":1,"numAtRisk":31},{"groupId":"EG002","numEvents":26,"numAffected":19,"numAtRisk":271},{"groupId":"EG003","numEvents":3,"numAffected":2,"numAtRisk":60},{"groupId":"EG004","numEvents":2,"numAffected":1,"numAtRisk":12},{"groupId":"EG005","numEvents":1,"numAffected":1,"numAtRisk":28}]},{"term":"Electrocardiogram QT prolonged","organSystem":"Investigations","sourceVocabulary":"MedDRA 18.0","assessmentType":"SYSTEMATIC_ASSESSMENT","stats":[{"groupId":"EG000","numEvents":6,"numAffected":6,"numAtRisk":201},{"groupId":"EG001","numEvents":0,"numAffected":0,"numAtRisk":31},{"groupId":"EG002","numEvents":10,"numAffected":9,"numAtRisk":271},{"groupId":"EG003","numEvents":5,"numAffected":5,"numAtRisk":60},{"groupId":"EG004","numEvents":1,"numAffected":1,"numAtRisk":12},{"groupId":"EG005","numEvents":3,"numAffected":3,"numAtRisk":28}]},{"term":"Lymphocyte count decreased","organSystem":"Investigations","sourceVocabulary":"MedDRA 18.0","assessmentType":"SYSTEMATIC_ASSESSMENT","stats":[{"groupId":"EG000","numEvents":1,"numAffected":1,"numAtRisk":201},{"groupId":"EG001","numEvents":0,"numAffected":0,"numAtRisk":31},{"groupId":"EG002","numEvents":8,"numAffected":7,"numAtRisk":271},{"groupId":"EG003","numEvents":3,"numAffected":3,"numAtRisk":60},{"groupId":"EG004","numEvents":0,"numAffected":0,"numAtRisk":12},{"groupId":"EG005","numEvents":6,"numAffected":2,"numAtRisk":28}]},{"term":"Neutrophil count decreased","organSystem":"Investigations","sourceVocabulary":"MedDRA 18.0","assessmentType":"SYSTEMATIC_ASSESSMENT","stats":[{"groupId":"EG000","numEvents":10,"numAffected":10,"numAtRisk":201},{"groupId":"EG001","numEvents":6,"numAffected":3,"numAtRisk":31},{"groupId":"EG002","numEvents":38,"numAffected":16,"numAtRisk":271},{"groupId":"EG003","numEvents":5,"numAffected":5,"numAtRisk":60},{"groupId":"EG004","numEvents":0,"numAffected":0,"numAtRisk":12},{"groupId":"EG005","numEvents":8,"numAffected":6,"numAtRisk":28}]},{"term":"Weight decreased","organSystem":"Investigations","sourceVocabulary":"MedDRA 18.0","assessmentType":"SYSTEMATIC_ASSESSMENT","stats":[{"groupId":"EG000","numEvents":6,"numAffected":6,"numAtRisk":201},{"groupId":"EG001","numEvents":2,"numAffected":2,"numAtRisk":31},{"groupId":"EG002","numEvents":19,"numAffected":19,"numAtRisk":271},{"groupId":"EG003","numEvents":13,"numAffected":13,"numAtRisk":60},{"groupId":"EG004","numEvents":1,"numAffected":1,"numAtRisk":12},{"groupId":"EG005","numEvents":1,"numAffected":1,"numAtRisk":28}]},{"term":"Hyperkalaemia","organSystem":"Metabolism and nutrition disorders","sourceVocabulary":"MedDRA 18.0","assessmentType":"SYSTEMATIC_ASSESSMENT","stats":[{"groupId":"EG000","numEvents":2,"numAffected":2,"numAtRisk":201},{"groupId":"EG001","numEvents":1,"numAffected":1,"numAtRisk":31},{"groupId":"EG002","numEvents":10,"numAffected":8,"numAtRisk":271},{"groupId":"EG003","numEvents":1,"numAffected":1,"numAtRisk":60},{"groupId":"EG004","numEvents":3,"numAffected":1,"numAtRisk":12},{"groupId":"EG005","numEvents":2,"numAffected":2,"numAtRisk":28}]},{"term":"Musculoskeletal chest pain","organSystem":"Musculoskeletal and connective tissue disorders","sourceVocabulary":"MedDRA 18.0","assessmentType":"SYSTEMATIC_ASSESSMENT","stats":[{"groupId":"EG000","numEvents":7,"numAffected":7,"numAtRisk":201},{"groupId":"EG001","numEvents":0,"numAffected":0,"numAtRisk":31},{"groupId":"EG002","numEvents":20,"numAffected":19,"numAtRisk":271},{"groupId":"EG003","numEvents":6,"numAffected":6,"numAtRisk":60},{"groupId":"EG004","numEvents":1,"numAffected":1,"numAtRisk":12},{"groupId":"EG005","numEvents":0,"numAffected":0,"numAtRisk":28}]},{"term":"Myalgia","organSystem":"Musculoskeletal and connective tissue disorders","sourceVocabulary":"MedDRA 18.0","assessmentType":"SYSTEMATIC_ASSESSMENT","stats":[{"groupId":"EG000","numEvents":9,"numAffected":9,"numAtRisk":201},{"groupId":"EG001","numEvents":1,"numAffected":1,"numAtRisk":31},{"groupId":"EG002","numEvents":13,"numAffected":13,"numAtRisk":271},{"groupId":"EG003","numEvents":4,"numAffected":4,"numAtRisk":60},{"groupId":"EG004","numEvents":3,"numAffected":3,"numAtRisk":12},{"groupId":"EG005","numEvents":0,"numAffected":0,"numAtRisk":28}]},{"term":"Pain in extremity","organSystem":"Musculoskeletal and connective tissue disorders","sourceVocabulary":"MedDRA 18.0","assessmentType":"SYSTEMATIC_ASSESSMENT","stats":[{"groupId":"EG000","numEvents":10,"numAffected":10,"numAtRisk":201},{"groupId":"EG001","numEvents":0,"numAffected":0,"numAtRisk":31},{"groupId":"EG002","numEvents":22,"numAffected":19,"numAtRisk":271},{"groupId":"EG003","numEvents":2,"numAffected":2,"numAtRisk":60},{"groupId":"EG004","numEvents":7,"numAffected":4,"numAtRisk":12},{"groupId":"EG005","numEvents":0,"numAffected":0,"numAtRisk":28}]},{"term":"Dizziness","organSystem":"Nervous system disorders","sourceVocabulary":"MedDRA 18.0","assessmentType":"SYSTEMATIC_ASSESSMENT","stats":[{"groupId":"EG000","numEvents":9,"numAffected":9,"numAtRisk":201},{"groupId":"EG001","numEvents":1,"numAffected":1,"numAtRisk":31},{"groupId":"EG002","numEvents":29,"numAffected":25,"numAtRisk":271},{"groupId":"EG003","numEvents":5,"numAffected":5,"numAtRisk":60},{"groupId":"EG004","numEvents":2,"numAffected":2,"numAtRisk":12},{"groupId":"EG005","numEvents":0,"numAffected":0,"numAtRisk":28}]},{"term":"Dysgeusia","organSystem":"Nervous system disorders","sourceVocabulary":"MedDRA 18.0","assessmentType":"SYSTEMATIC_ASSESSMENT","stats":[{"groupId":"EG000","numEvents":4,"numAffected":4,"numAtRisk":201},{"groupId":"EG001","numEvents":3,"numAffected":3,"numAtRisk":31},{"groupId":"EG002","numEvents":16,"numAffected":15,"numAtRisk":271},{"groupId":"EG003","numEvents":12,"numAffected":10,"numAtRisk":60},{"groupId":"EG004","numEvents":0,"numAffected":0,"numAtRisk":12},{"groupId":"EG005","numEvents":1,"numAffected":1,"numAtRisk":28}]},{"term":"Epistaxis","organSystem":"Respiratory, thoracic and mediastinal disorders","sourceVocabulary":"MedDRA 18.0","assessmentType":"SYSTEMATIC_ASSESSMENT","stats":[{"groupId":"EG000","numEvents":6,"numAffected":6,"numAtRisk":201},{"groupId":"EG001","numEvents":1,"numAffected":1,"numAtRisk":31},{"groupId":"EG002","numEvents":14,"numAffected":13,"numAtRisk":271},{"groupId":"EG003","numEvents":11,"numAffected":9,"numAtRisk":60},{"groupId":"EG004","numEvents":1,"numAffected":1,"numAtRisk":12},{"groupId":"EG005","numEvents":0,"numAffected":0,"numAtRisk":28}]},{"term":"Haemoptysis","organSystem":"Respiratory, thoracic and mediastinal disorders","sourceVocabulary":"MedDRA 18.0","assessmentType":"SYSTEMATIC_ASSESSMENT","stats":[{"groupId":"EG000","numEvents":8,"numAffected":8,"numAtRisk":201},{"groupId":"EG001","numEvents":0,"numAffected":0,"numAtRisk":31},{"groupId":"EG002","numEvents":6,"numAffected":6,"numAtRisk":271},{"groupId":"EG003","numEvents":4,"numAffected":4,"numAtRisk":60},{"groupId":"EG004","numEvents":2,"numAffected":1,"numAtRisk":12},{"groupId":"EG005","numEvents":0,"numAffected":0,"numAtRisk":28}]},{"term":"Rhinorrhoea","organSystem":"Respiratory, thoracic and mediastinal disorders","sourceVocabulary":"MedDRA 18.0","assessmentType":"SYSTEMATIC_ASSESSMENT","stats":[{"groupId":"EG000","numEvents":5,"numAffected":5,"numAtRisk":201},{"groupId":"EG001","numEvents":2,"numAffected":2,"numAtRisk":31},{"groupId":"EG002","numEvents":20,"numAffected":20,"numAtRisk":271},{"groupId":"EG003","numEvents":4,"numAffected":3,"numAtRisk":60},{"groupId":"EG004","numEvents":1,"numAffected":1,"numAtRisk":12},{"groupId":"EG005","numEvents":0,"numAffected":0,"numAtRisk":28}]},{"term":"Acne","organSystem":"Skin and subcutaneous tissue disorders","sourceVocabulary":"MedDRA 18.0","assessmentType":"SYSTEMATIC_ASSESSMENT","stats":[{"groupId":"EG000","numEvents":2,"numAffected":2,"numAtRisk":201},{"groupId":"EG001","numEvents":0,"numAffected":0,"numAtRisk":31},{"groupId":"EG002","numEvents":12,"numAffected":11,"numAtRisk":271},{"groupId":"EG003","numEvents":4,"numAffected":4,"numAtRisk":60},{"groupId":"EG004","numEvents":0,"numAffected":0,"numAtRisk":12},{"groupId":"EG005","numEvents":1,"numAffected":1,"numAtRisk":28}]},{"term":"Alopecia","organSystem":"Skin and subcutaneous tissue disorders","sourceVocabulary":"MedDRA 18.0","assessmentType":"SYSTEMATIC_ASSESSMENT","stats":[{"groupId":"EG000","numEvents":7,"numAffected":7,"numAtRisk":201},{"groupId":"EG001","numEvents":0,"numAffected":0,"numAtRisk":31},{"groupId":"EG002","numEvents":11,"numAffected":10,"numAtRisk":271},{"groupId":"EG003","numEvents":6,"numAffected":6,"numAtRisk":60},{"groupId":"EG004","numEvents":2,"numAffected":2,"numAtRisk":12},{"groupId":"EG005","numEvents":0,"numAffected":0,"numAtRisk":28}]},{"term":"Eczema","organSystem":"Skin and subcutaneous tissue disorders","sourceVocabulary":"MedDRA 18.0","assessmentType":"SYSTEMATIC_ASSESSMENT","stats":[{"groupId":"EG000","numEvents":2,"numAffected":2,"numAtRisk":201},{"groupId":"EG001","numEvents":1,"numAffected":1,"numAtRisk":31},{"groupId":"EG002","numEvents":4,"numAffected":4,"numAtRisk":271},{"groupId":"EG003","numEvents":4,"numAffected":4,"numAtRisk":60},{"groupId":"EG004","numEvents":0,"numAffected":0,"numAtRisk":12},{"groupId":"EG005","numEvents":2,"numAffected":2,"numAtRisk":28}]},{"term":"Erythema","organSystem":"Skin and subcutaneous tissue disorders","sourceVocabulary":"MedDRA 18.0","assessmentType":"SYSTEMATIC_ASSESSMENT","stats":[{"groupId":"EG000","numEvents":7,"numAffected":7,"numAtRisk":201},{"groupId":"EG001","numEvents":1,"numAffected":1,"numAtRisk":31},{"groupId":"EG002","numEvents":9,"numAffected":9,"numAtRisk":271},{"groupId":"EG003","numEvents":1,"numAffected":1,"numAtRisk":60},{"groupId":"EG004","numEvents":0,"numAffected":0,"numAtRisk":12},{"groupId":"EG005","numEvents":2,"numAffected":2,"numAtRisk":28}]},{"term":"Palmar-plantar erythrodysaesthesia syndrome","organSystem":"Skin and subcutaneous tissue disorders","sourceVocabulary":"MedDRA 18.0","assessmentType":"SYSTEMATIC_ASSESSMENT","stats":[{"groupId":"EG000","numEvents":1,"numAffected":1,"numAtRisk":201},{"groupId":"EG001","numEvents":0,"numAffected":0,"numAtRisk":31},{"groupId":"EG002","numEvents":0,"numAffected":0,"numAtRisk":271},{"groupId":"EG003","numEvents":4,"numAffected":4,"numAtRisk":60},{"groupId":"EG004","numEvents":0,"numAffected":0,"numAtRisk":12},{"groupId":"EG005","numEvents":0,"numAffected":0,"numAtRisk":28}]},{"term":"Rash maculo-papular","organSystem":"Skin and subcutaneous tissue disorders","sourceVocabulary":"MedDRA 18.0","assessmentType":"SYSTEMATIC_ASSESSMENT","stats":[{"groupId":"EG000","numEvents":9,"numAffected":9,"numAtRisk":201},{"groupId":"EG001","numEvents":4,"numAffected":1,"numAtRisk":31},{"groupId":"EG002","numEvents":15,"numAffected":11,"numAtRisk":271},{"groupId":"EG003","numEvents":6,"numAffected":5,"numAtRisk":60},{"groupId":"EG004","numEvents":2,"numAffected":1,"numAtRisk":12},{"groupId":"EG005","numEvents":1,"numAffected":1,"numAtRisk":28}]},{"term":"Skin exfoliation","organSystem":"Skin and subcutaneous tissue disorders","sourceVocabulary":"MedDRA 18.0","assessmentType":"SYSTEMATIC_ASSESSMENT","stats":[{"groupId":"EG000","numEvents":2,"numAffected":2,"numAtRisk":201},{"groupId":"EG001","numEvents":2,"numAffected":2,"numAtRisk":31},{"groupId":"EG002","numEvents":15,"numAffected":14,"numAtRisk":271},{"groupId":"EG003","numEvents":3,"numAffected":3,"numAtRisk":60},{"groupId":"EG004","numEvents":0,"numAffected":0,"numAtRisk":12},{"groupId":"EG005","numEvents":1,"numAffected":1,"numAtRisk":28}]},{"term":"Hypertension","organSystem":"Vascular disorders","sourceVocabulary":"MedDRA 18.0","assessmentType":"SYSTEMATIC_ASSESSMENT","stats":[{"groupId":"EG000","numEvents":3,"numAffected":3,"numAtRisk":201},{"groupId":"EG001","numEvents":1,"numAffected":1,"numAtRisk":31},{"groupId":"EG002","numEvents":8,"numAffected":7,"numAtRisk":271},{"groupId":"EG003","numEvents":5,"numAffected":4,"numAtRisk":60},{"groupId":"EG004","numEvents":2,"numAffected":2,"numAtRisk":12},{"groupId":"EG005","numEvents":0,"numAffected":0,"numAtRisk":28}]},{"term":"Blepharitis","organSystem":"Eye disorders","sourceVocabulary":"MedDRA 18.0","assessmentType":"SYSTEMATIC_ASSESSMENT","stats":[{"groupId":"EG000","numEvents":2,"numAffected":2,"numAtRisk":201},{"groupId":"EG001","numEvents":2,"numAffected":2,"numAtRisk":31},{"groupId":"EG002","numEvents":5,"numAffected":5,"numAtRisk":271},{"groupId":"EG003","numEvents":3,"numAffected":3,"numAtRisk":60},{"groupId":"EG004","numEvents":0,"numAffected":0,"numAtRisk":12},{"groupId":"EG005","numEvents":0,"numAffected":0,"numAtRisk":28}]},{"term":"Conjunctival haemorrhage","organSystem":"Eye disorders","sourceVocabulary":"MedDRA 18.0","assessmentType":"SYSTEMATIC_ASSESSMENT","stats":[{"groupId":"EG000","numEvents":2,"numAffected":2,"numAtRisk":201},{"groupId":"EG001","numEvents":2,"numAffected":2,"numAtRisk":31},{"groupId":"EG002","numEvents":3,"numAffected":3,"numAtRisk":271},{"groupId":"EG003","numEvents":1,"numAffected":1,"numAtRisk":60},{"groupId":"EG004","numEvents":0,"numAffected":0,"numAtRisk":12},{"groupId":"EG005","numEvents":0,"numAffected":0,"numAtRisk":28}]},{"term":"Vision blurred","organSystem":"Eye disorders","sourceVocabulary":"MedDRA 18.0","assessmentType":"SYSTEMATIC_ASSESSMENT","stats":[{"groupId":"EG000","numEvents":4,"numAffected":4,"numAtRisk":201},{"groupId":"EG001","numEvents":3,"numAffected":2,"numAtRisk":31},{"groupId":"EG002","numEvents":3,"numAffected":3,"numAtRisk":271},{"groupId":"EG003","numEvents":1,"numAffected":1,"numAtRisk":60},{"groupId":"EG004","numEvents":0,"numAffected":0,"numAtRisk":12},{"groupId":"EG005","numEvents":0,"numAffected":0,"numAtRisk":28}]},{"term":"Face oedema","organSystem":"General disorders","sourceVocabulary":"MedDRA 18.0","assessmentType":"SYSTEMATIC_ASSESSMENT","stats":[{"groupId":"EG000","numEvents":1,"numAffected":1,"numAtRisk":201},{"groupId":"EG001","numEvents":2,"numAffected":2,"numAtRisk":31},{"groupId":"EG002","numEvents":3,"numAffected":3,"numAtRisk":271},{"groupId":"EG003","numEvents":2,"numAffected":2,"numAtRisk":60},{"groupId":"EG004","numEvents":0,"numAffected":0,"numAtRisk":12},{"groupId":"EG005","numEvents":0,"numAffected":0,"numAtRisk":28}]},{"term":"Bronchitis","organSystem":"Infections and infestations","sourceVocabulary":"MedDRA 18.0","assessmentType":"SYSTEMATIC_ASSESSMENT","stats":[{"groupId":"EG000","numEvents":7,"numAffected":7,"numAtRisk":201},{"groupId":"EG001","numEvents":2,"numAffected":2,"numAtRisk":31},{"groupId":"EG002","numEvents":6,"numAffected":6,"numAtRisk":271},{"groupId":"EG003","numEvents":1,"numAffected":1,"numAtRisk":60},{"groupId":"EG004","numEvents":0,"numAffected":0,"numAtRisk":12},{"groupId":"EG005","numEvents":0,"numAffected":0,"numAtRisk":28}]},{"term":"Rash pustular","organSystem":"Infections and infestations","sourceVocabulary":"MedDRA 18.0","assessmentType":"SYSTEMATIC_ASSESSMENT","stats":[{"groupId":"EG000","numEvents":5,"numAffected":5,"numAtRisk":201},{"groupId":"EG001","numEvents":4,"numAffected":1,"numAtRisk":31},{"groupId":"EG002","numEvents":4,"numAffected":4,"numAtRisk":271},{"groupId":"EG003","numEvents":1,"numAffected":1,"numAtRisk":60},{"groupId":"EG004","numEvents":2,"numAffected":2,"numAtRisk":12},{"groupId":"EG005","numEvents":0,"numAffected":0,"numAtRisk":28}]},{"term":"Abdominal distension","organSystem":"Gastrointestinal disorders","sourceVocabulary":"MedDRA 18.0","assessmentType":"SYSTEMATIC_ASSESSMENT","stats":[{"groupId":"EG000","numEvents":0,"numAffected":0,"numAtRisk":201},{"groupId":"EG001","numEvents":0,"numAffected":0,"numAtRisk":31},{"groupId":"EG002","numEvents":13,"numAffected":13,"numAtRisk":271},{"groupId":"EG003","numEvents":3,"numAffected":3,"numAtRisk":60},{"groupId":"EG004","numEvents":2,"numAffected":2,"numAtRisk":12},{"groupId":"EG005","numEvents":0,"numAffected":0,"numAtRisk":28}]},{"term":"Non-cardiac chest pain","organSystem":"General disorders","sourceVocabulary":"MedDRA 18.0","assessmentType":"SYSTEMATIC_ASSESSMENT","stats":[{"groupId":"EG000","numEvents":5,"numAffected":5,"numAtRisk":201},{"groupId":"EG001","numEvents":0,"numAffected":0,"numAtRisk":31},{"groupId":"EG002","numEvents":4,"numAffected":4,"numAtRisk":271},{"groupId":"EG003","numEvents":1,"numAffected":1,"numAtRisk":60},{"groupId":"EG004","numEvents":3,"numAffected":2,"numAtRisk":12},{"groupId":"EG005","numEvents":0,"numAffected":0,"numAtRisk":28}]},{"term":"Sinusitis","organSystem":"Infections and infestations","sourceVocabulary":"MedDRA 18.0","assessmentType":"SYSTEMATIC_ASSESSMENT","stats":[{"groupId":"EG000","numEvents":3,"numAffected":3,"numAtRisk":201},{"groupId":"EG001","numEvents":1,"numAffected":1,"numAtRisk":31},{"groupId":"EG002","numEvents":7,"numAffected":7,"numAtRisk":271},{"groupId":"EG003","numEvents":0,"numAffected":0,"numAtRisk":60},{"groupId":"EG004","numEvents":4,"numAffected":2,"numAtRisk":12},{"groupId":"EG005","numEvents":0,"numAffected":0,"numAtRisk":28}]},{"term":"Traumatic fracture","organSystem":"Injury, poisoning and procedural complications","sourceVocabulary":"MedDRA 18.0","assessmentType":"SYSTEMATIC_ASSESSMENT","stats":[{"groupId":"EG000","numEvents":3,"numAffected":3,"numAtRisk":201},{"groupId":"EG001","numEvents":2,"numAffected":2,"numAtRisk":31},{"groupId":"EG002","numEvents":5,"numAffected":5,"numAtRisk":271},{"groupId":"EG003","numEvents":0,"numAffected":0,"numAtRisk":60},{"groupId":"EG004","numEvents":0,"numAffected":0,"numAtRisk":12},{"groupId":"EG005","numEvents":0,"numAffected":0,"numAtRisk":28}]},{"term":"Renal function test abnormal","organSystem":"Investigations","sourceVocabulary":"MedDRA 18.0","assessmentType":"SYSTEMATIC_ASSESSMENT","stats":[{"groupId":"EG000","numEvents":0,"numAffected":0,"numAtRisk":201},{"groupId":"EG001","numEvents":0,"numAffected":0,"numAtRisk":31},{"groupId":"EG002","numEvents":0,"numAffected":0,"numAtRisk":271},{"groupId":"EG003","numEvents":0,"numAffected":0,"numAtRisk":60},{"groupId":"EG004","numEvents":2,"numAffected":2,"numAtRisk":12},{"groupId":"EG005","numEvents":0,"numAffected":0,"numAtRisk":28}]},{"term":"Dehydration","organSystem":"Metabolism and nutrition disorders","sourceVocabulary":"MedDRA 18.0","assessmentType":"SYSTEMATIC_ASSESSMENT","stats":[{"groupId":"EG000","numEvents":4,"numAffected":4,"numAtRisk":201},{"groupId":"EG001","numEvents":2,"numAffected":2,"numAtRisk":31},{"groupId":"EG002","numEvents":7,"numAffected":7,"numAtRisk":271},{"groupId":"EG003","numEvents":2,"numAffected":2,"numAtRisk":60},{"groupId":"EG004","numEvents":1,"numAffected":1,"numAtRisk":12},{"groupId":"EG005","numEvents":0,"numAffected":0,"numAtRisk":28}]},{"term":"Hypocalcaemia","organSystem":"Metabolism and nutrition disorders","sourceVocabulary":"MedDRA 18.0","assessmentType":"SYSTEMATIC_ASSESSMENT","stats":[{"groupId":"EG000","numEvents":6,"numAffected":6,"numAtRisk":201},{"groupId":"EG001","numEvents":3,"numAffected":3,"numAtRisk":31},{"groupId":"EG002","numEvents":8,"numAffected":8,"numAtRisk":271},{"groupId":"EG003","numEvents":3,"numAffected":3,"numAtRisk":60},{"groupId":"EG004","numEvents":0,"numAffected":0,"numAtRisk":12},{"groupId":"EG005","numEvents":0,"numAffected":0,"numAtRisk":28}]},{"term":"Muscle atrophy","organSystem":"Musculoskeletal and connective tissue disorders","sourceVocabulary":"MedDRA 18.0","assessmentType":"SYSTEMATIC_ASSESSMENT","stats":[{"groupId":"EG000","numEvents":0,"numAffected":0,"numAtRisk":201},{"groupId":"EG001","numEvents":0,"numAffected":0,"numAtRisk":31},{"groupId":"EG002","numEvents":1,"numAffected":1,"numAtRisk":271},{"groupId":"EG003","numEvents":0,"numAffected":0,"numAtRisk":60},{"groupId":"EG004","numEvents":2,"numAffected":2,"numAtRisk":12},{"groupId":"EG005","numEvents":0,"numAffected":0,"numAtRisk":28}]},{"term":"Muscular weakness","organSystem":"Musculoskeletal and connective tissue disorders","sourceVocabulary":"MedDRA 18.0","assessmentType":"SYSTEMATIC_ASSESSMENT","stats":[{"groupId":"EG000","numEvents":3,"numAffected":3,"numAtRisk":201},{"groupId":"EG001","numEvents":2,"numAffected":2,"numAtRisk":31},{"groupId":"EG002","numEvents":4,"numAffected":4,"numAtRisk":271},{"groupId":"EG003","numEvents":1,"numAffected":1,"numAtRisk":60},{"groupId":"EG004","numEvents":0,"numAffected":0,"numAtRisk":12},{"groupId":"EG005","numEvents":0,"numAffected":0,"numAtRisk":28}]},{"term":"Paraesthesia","organSystem":"Nervous system disorders","sourceVocabulary":"MedDRA 18.0","assessmentType":"SYSTEMATIC_ASSESSMENT","stats":[{"groupId":"EG000","numEvents":1,"numAffected":1,"numAtRisk":201},{"groupId":"EG001","numEvents":3,"numAffected":3,"numAtRisk":31},{"groupId":"EG002","numEvents":7,"numAffected":7,"numAtRisk":271},{"groupId":"EG003","numEvents":3,"numAffected":3,"numAtRisk":60},{"groupId":"EG004","numEvents":0,"numAffected":0,"numAtRisk":12},{"groupId":"EG005","numEvents":0,"numAffected":0,"numAtRisk":28}]},{"term":"Peripheral sensory neuropathy","organSystem":"Nervous system disorders","sourceVocabulary":"MedDRA 18.0","assessmentType":"SYSTEMATIC_ASSESSMENT","stats":[{"groupId":"EG000","numEvents":1,"numAffected":1,"numAtRisk":201},{"groupId":"EG001","numEvents":2,"numAffected":2,"numAtRisk":31},{"groupId":"EG002","numEvents":7,"numAffected":7,"numAtRisk":271},{"groupId":"EG003","numEvents":2,"numAffected":2,"numAtRisk":60},{"groupId":"EG004","numEvents":0,"numAffected":0,"numAtRisk":12},{"groupId":"EG005","numEvents":0,"numAffected":0,"numAtRisk":28}]},{"term":"Anxiety","organSystem":"Psychiatric disorders","sourceVocabulary":"MedDRA 18.0","assessmentType":"SYSTEMATIC_ASSESSMENT","stats":[{"groupId":"EG000","numEvents":4,"numAffected":4,"numAtRisk":201},{"groupId":"EG001","numEvents":0,"numAffected":0,"numAtRisk":31},{"groupId":"EG002","numEvents":11,"numAffected":11,"numAtRisk":271},{"groupId":"EG003","numEvents":1,"numAffected":1,"numAtRisk":60},{"groupId":"EG004","numEvents":2,"numAffected":2,"numAtRisk":12},{"groupId":"EG005","numEvents":0,"numAffected":0,"numAtRisk":28}]},{"term":"Dysphonia","organSystem":"Respiratory, thoracic and mediastinal disorders","sourceVocabulary":"MedDRA 18.0","assessmentType":"SYSTEMATIC_ASSESSMENT","stats":[{"groupId":"EG000","numEvents":2,"numAffected":2,"numAtRisk":201},{"groupId":"EG001","numEvents":0,"numAffected":0,"numAtRisk":31},{"groupId":"EG002","numEvents":13,"numAffected":13,"numAtRisk":271},{"groupId":"EG003","numEvents":0,"numAffected":0,"numAtRisk":60},{"groupId":"EG004","numEvents":2,"numAffected":2,"numAtRisk":12},{"groupId":"EG005","numEvents":0,"numAffected":0,"numAtRisk":28}]},{"term":"Hypoxia","organSystem":"Respiratory, thoracic and mediastinal disorders","sourceVocabulary":"MedDRA 18.0","assessmentType":"SYSTEMATIC_ASSESSMENT","stats":[{"groupId":"EG000","numEvents":5,"numAffected":5,"numAtRisk":201},{"groupId":"EG001","numEvents":0,"numAffected":0,"numAtRisk":31},{"groupId":"EG002","numEvents":1,"numAffected":1,"numAtRisk":271},{"groupId":"EG003","numEvents":0,"numAffected":0,"numAtRisk":60},{"groupId":"EG004","numEvents":4,"numAffected":2,"numAtRisk":12},{"groupId":"EG005","numEvents":0,"numAffected":0,"numAtRisk":28}]},{"term":"Oropharyngeal pain","organSystem":"Respiratory, thoracic and mediastinal disorders","sourceVocabulary":"MedDRA 18.0","assessmentType":"SYSTEMATIC_ASSESSMENT","stats":[{"groupId":"EG000","numEvents":4,"numAffected":4,"numAtRisk":201},{"groupId":"EG001","numEvents":4,"numAffected":4,"numAtRisk":31},{"groupId":"EG002","numEvents":11,"numAffected":11,"numAtRisk":271},{"groupId":"EG003","numEvents":3,"numAffected":3,"numAtRisk":60},{"groupId":"EG004","numEvents":3,"numAffected":3,"numAtRisk":12},{"groupId":"EG005","numEvents":0,"numAffected":0,"numAtRisk":28}]},{"term":"Pulmonary embolism","organSystem":"Respiratory, thoracic and mediastinal disorders","sourceVocabulary":"MedDRA 18.0","assessmentType":"SYSTEMATIC_ASSESSMENT","stats":[{"groupId":"EG000","numEvents":7,"numAffected":7,"numAtRisk":201},{"groupId":"EG001","numEvents":4,"numAffected":3,"numAtRisk":31},{"groupId":"EG002","numEvents":17,"numAffected":17,"numAtRisk":271},{"groupId":"EG003","numEvents":4,"numAffected":4,"numAtRisk":60},{"groupId":"EG004","numEvents":1,"numAffected":1,"numAtRisk":12},{"groupId":"EG005","numEvents":0,"numAffected":0,"numAtRisk":28}]},{"term":"Nail discolouration","organSystem":"Skin and subcutaneous tissue disorders","sourceVocabulary":"MedDRA 18.0","assessmentType":"SYSTEMATIC_ASSESSMENT","stats":[{"groupId":"EG000","numEvents":4,"numAffected":4,"numAtRisk":201},{"groupId":"EG001","numEvents":2,"numAffected":2,"numAtRisk":31},{"groupId":"EG002","numEvents":0,"numAffected":0,"numAtRisk":271},{"groupId":"EG003","numEvents":1,"numAffected":1,"numAtRisk":60},{"groupId":"EG004","numEvents":0,"numAffected":0,"numAtRisk":12},{"groupId":"EG005","numEvents":0,"numAffected":0,"numAtRisk":28}]},{"term":"Nail disorder","organSystem":"Skin and subcutaneous tissue disorders","sourceVocabulary":"MedDRA 18.0","assessmentType":"SYSTEMATIC_ASSESSMENT","stats":[{"groupId":"EG000","numEvents":4,"numAffected":4,"numAtRisk":201},{"groupId":"EG001","numEvents":3,"numAffected":3,"numAtRisk":31},{"groupId":"EG002","numEvents":10,"numAffected":10,"numAtRisk":271},{"groupId":"EG003","numEvents":1,"numAffected":1,"numAtRisk":60},{"groupId":"EG004","numEvents":0,"numAffected":0,"numAtRisk":12},{"groupId":"EG005","numEvents":0,"numAffected":0,"numAtRisk":28}]},{"term":"Hypotension","organSystem":"Vascular disorders","sourceVocabulary":"MedDRA 18.0","assessmentType":"SYSTEMATIC_ASSESSMENT","stats":[{"groupId":"EG000","numEvents":4,"numAffected":4,"numAtRisk":201},{"groupId":"EG001","numEvents":1,"numAffected":1,"numAtRisk":31},{"groupId":"EG002","numEvents":3,"numAffected":3,"numAtRisk":271},{"groupId":"EG003","numEvents":0,"numAffected":0,"numAtRisk":60},{"groupId":"EG004","numEvents":2,"numAffected":2,"numAtRisk":12},{"groupId":"EG005","numEvents":0,"numAffected":0,"numAtRisk":28}]},{"term":"Rash erythematous","organSystem":"Skin and subcutaneous tissue disorders","sourceVocabulary":"MedDRA 18.0","assessmentType":"SYSTEMATIC_ASSESSMENT","stats":[{"groupId":"EG000","numEvents":0,"numAffected":0,"numAtRisk":201},{"groupId":"EG001","numEvents":2,"numAffected":2,"numAtRisk":31},{"groupId":"EG002","numEvents":3,"numAffected":3,"numAtRisk":271},{"groupId":"EG003","numEvents":0,"numAffected":0,"numAtRisk":60},{"groupId":"EG004","numEvents":0,"numAffected":0,"numAtRisk":12},{"groupId":"EG005","numEvents":0,"numAffected":0,"numAtRisk":28}]}]},"moreInfoModule":{"limitationsAndCaveats":{"description":"All 6 cohorts are still on-going. Data cut-off on 1st May 2015 was for primary analyses in main cohorts of dose escalation, dose expansion, extension. AEs presented for all cohorts."},"certainAgreement":{"piSponsorEmployee":false,"restrictionType":"OTHER","restrictiveAgreement":true,"otherDetails":"The only disclosure restriction on the PI is that the sponsor can review results communications prior to public release and can embargo communications regarding trial results for a period that is more than 60 days but less than or equal to 180 days from the time submitted to the sponsor for review, should the submission for publication be delayed in order to file patent application. The sponsor cannot require changes to the communication and cannot extend the embargo."},"pointOfContact":{"title":"Senior Medical Director, Tagrisso","organization":"AstraZeneca","email":"ClinicalTrialTransparency@astrazeneca.com"}}},"derivedSection":{"miscInfoModule":{"versionHolder":"2025-12-17"},"conditionBrowseModule":{"meshes":[{"id":"D002289","term":"Carcinoma, Non-Small-Cell Lung"},{"id":"D009369","term":"Neoplasms"},{"id":"D009362","term":"Neoplasm Metastasis"}],"ancestors":[{"id":"D002283","term":"Carcinoma, Bronchogenic"},{"id":"D001984","term":"Bronchial Neoplasms"},{"id":"D008175","term":"Lung Neoplasms"},{"id":"D012142","term":"Respiratory Tract Neoplasms"},{"id":"D013899","term":"Thoracic Neoplasms"},{"id":"D009371","term":"Neoplasms by Site"},{"id":"D008171","term":"Lung Diseases"},{"id":"D012140","term":"Respiratory Tract Diseases"},{"id":"D009385","term":"Neoplastic Processes"},{"id":"D010335","term":"Pathologic Processes"},{"id":"D013568","term":"Pathological Conditions, Signs and Symptoms"}]},"interventionBrowseModule":{"meshes":[{"id":"C000596361","term":"osimertinib"}]}},"hasResults":true}