{"protocolSection":{"identificationModule":{"nctId":"NCT01285609","orgStudyIdInfo":{"id":"CA184-104"},"secondaryIdInfos":[{"id":"2009-017396-19","type":"EUDRACT_NUMBER"}],"organization":{"fullName":"Bristol-Myers Squibb","class":"INDUSTRY"},"briefTitle":"Phase 3 Trial in Squamous Non Small Cell Lung Cancer Subjects Comparing Ipilimumab Versus Placebo in Addition to Paclitaxel and Carboplatin","officialTitle":"Randomized, Multicenter, Double-Blind, Phase 3 Trial Comparing the Efficacy of Ipilimumab in Addition to Paclitaxel and Carboplatin Versus Placebo in Addition to Paclitaxel and Carboplatin in Subjects With Stage IV/Recurrent Non Small Cell Lung Cancer (NSCLC)"},"statusModule":{"statusVerifiedDate":"2020-06","overallStatus":"COMPLETED","expandedAccessInfo":{"hasExpandedAccess":false},"startDateStruct":{"date":"2011-01-16","type":"ACTUAL"},"primaryCompletionDateStruct":{"date":"2015-06-09","type":"ACTUAL"},"completionDateStruct":{"date":"2017-08-22","type":"ACTUAL"},"studyFirstSubmitDate":"2011-01-24","studyFirstSubmitQcDate":"2011-01-27","studyFirstPostDateStruct":{"date":"2011-01-28","type":"ESTIMATED"},"resultsFirstSubmitDate":"2016-05-16","resultsFirstSubmitQcDate":"2016-05-16","resultsFirstPostDateStruct":{"date":"2016-06-23","type":"ESTIMATED"},"lastUpdateSubmitDate":"2020-06-16","lastUpdatePostDateStruct":{"date":"2020-06-18","type":"ACTUAL"}},"sponsorCollaboratorsModule":{"responsibleParty":{"type":"SPONSOR"},"leadSponsor":{"name":"Bristol-Myers Squibb","class":"INDUSTRY"}},"oversightModule":{"oversightHasDmc":true},"descriptionModule":{"briefSummary":"The purpose of the study is to determine whether Ipilimumab plus Paclitaxel and Carboplatin will extend the lives of patients with squamous only non small cell lung cancer more than placebo plus Paclitaxel and Carboplatin.","detailedDescription":"The primary objective is to compare Overall Survival (OS) of participants with Stage IV/recurrent NSCLC of squamous histology who have been randomized to ipilimumab in addition to paclitaxel and carboplatin versus placebo in addition to paclitaxel and carboplatin, and have received at least one dose of blinded study therapy (ipilimumab or placebo)."},"conditionsModule":{"conditions":["Lung Cancer - Non Small Cell Squamous"]},"designModule":{"studyType":"INTERVENTIONAL","phases":["PHASE3"],"designInfo":{"allocation":"RANDOMIZED","interventionModel":"PARALLEL","primaryPurpose":"TREATMENT","maskingInfo":{"masking":"QUADRUPLE","whoMasked":["PARTICIPANT","CARE_PROVIDER","INVESTIGATOR","OUTCOMES_ASSESSOR"]}},"enrollmentInfo":{"count":1289,"type":"ACTUAL"}},"armsInterventionsModule":{"armGroups":[{"label":"Ipilimumab + Paclitaxel and Carboplatin","type":"EXPERIMENTAL","description":"Ipilimumab + Active Chemo Backbone\n\nIpilimumab: IV solution, intravenous (IV), 10 mg/kg, 90 minute infusion, Once every 3 weeks for 4 doses and then every 12 weeks until disease progression (for a maximum treatment period of 3 years from the first dose)\n\nPaclitaxel: IV solution, IV, 175 mg/m², 3 hour infusion, Once every 3 weeks for 6 doses\n\nCarboplatin: IV solution, IV, Area Under the Curve (AUC) = 6, 30 minute infusion, Once every 3 weeks for 6 doses","interventionNames":["Drug: Ipilimumab","Drug: Paclitaxel","Drug: Carboplatin"]},{"label":"Placebo + Paclitaxel and Carboplatin","type":"PLACEBO_COMPARATOR","description":"Placebo + Active Chemo Backbone\n\nPlacebo: IV solution, IV, 0.9% sodium chloride or 5% dextrose, 90 minute infusion, Once every 3 weeks for 4 doses and then every 12 weeks until disease progression (for a maximum treatment period of 3 years from the first dose)\n\nPaclitaxel: IV solution, IV, 175 mg/m², 3 hour infusion, Once every 3 weeks for 6 doses\n\nCarboplatin: IV solution, IV, Area Under the Curve (AUC) = 6, 30 minute infusion, Once every 3 weeks for 6 doses","interventionNames":["Drug: Placebo","Drug: Paclitaxel","Drug: Carboplatin"]}],"interventions":[{"type":"DRUG","name":"Ipilimumab","armGroupLabels":["Ipilimumab + Paclitaxel and Carboplatin"],"otherNames":["BMS-734016"]},{"type":"DRUG","name":"Placebo","armGroupLabels":["Placebo + Paclitaxel and Carboplatin"]},{"type":"DRUG","name":"Paclitaxel","armGroupLabels":["Ipilimumab + Paclitaxel and Carboplatin","Placebo + Paclitaxel and Carboplatin"],"otherNames":["Taxol®"]},{"type":"DRUG","name":"Carboplatin","armGroupLabels":["Ipilimumab + Paclitaxel and Carboplatin","Placebo + Paclitaxel and Carboplatin"],"otherNames":["Paraplatin®"]}]},"outcomesModule":{"primaryOutcomes":[{"measure":"Overall Survival (OS) in Participants Who Received at Least One Dose of Blinded Study Therapy at Primary Endpoint","description":"Overall Survival (OS) was defined as the time from randomization to the date of death. Participants that had not died were censored at last known date alive. Median OS time was calculated using Kaplan-Meier Estimates. Analysis for the Primary Endpoint occurred when the following 2 conditions were both met: (1) 518 deaths were observed in randomized participants treated with at least one dose of blinded study therapy and (2) 705 deaths were observed in all randomized participants.","timeFrame":"Randomization until 518 deaths were observed in randomized participants treated with at least one dose of blinded study therapy and 705 deaths were observed in all randomized participants, up to June 2015 (approximately 48 months post study start)"}],"secondaryOutcomes":[{"measure":"Overall Survival (OS) in All Randomized Participants at Primary Endpoint","description":"Overall Survival (OS) was defined as the time from randomization to the date of death. Participants that had not died were censored at last known date alive. Median OS time was calculated using Kaplan-Meier Estimates. Analysis for the Primary Endpoint occurred when the following 2 conditions were both met: (1) 518 deaths were observed in randomized participants treated with at least one dose of blinded study therapy and (2) 705 deaths were observed in all randomized participants.","timeFrame":"Randomization until 518 deaths were observed in randomized participants treated with at least one dose of blinded study therapy and 705 deaths were observed in all randomized participants, up to June 2015 (approximately 48 months post study start)"},{"measure":"Median Number of Months With Progression Free Survival (PFS) Per mWHO in Participants Who Have Received at Least One Dose of Blinded Study Therapy at Primary Endpoint","description":"Progression-free survival (PFS) is defined as the time between the date of randomization and the date of tumor progression per Modified World Health Organization (mWHO) criteria or death, whichever occurs first. A participant who died without reported progression per mWHO criteria were considered to have progressed on the date of death. For participants who remain alive and have not progressed, PFS was censored on the date of last evaluable tumor assessment. For participants who remain alive and have no recorded post-baseline tumor assessment, PFS was censored on the day of randomization.","timeFrame":"Randomization until 518 deaths were observed in randomized participants treated with at least one dose of blinded study therapy and 705 deaths were observed in all randomized participants, up to June 2015 (approximately 48 months post study start)"}]},"eligibilityModule":{"eligibilityCriteria":"For more information regarding BMS clinical trial participation, please visit www.BMSStudyConnect.com.\n\nInclusion Criteria:\n\n* Non small cell lung cancer (NSCLC) - squamous cell\n* Stage IV or recurrent NSCLC\n* Eastern Cooperative Oncology Group (ECOG) performance status of 0 or 1\n\nExclusion Criteria:\n\n* Brain Metastases\n* Autoimmune diseases","healthyVolunteers":false,"sex":"ALL","minimumAge":"18 Years","stdAges":["ADULT","OLDER_ADULT"]},"contactsLocationsModule":{"overallOfficials":[{"name":"Bristol-Myers Squibb","affiliation":"Bristol-Myers Squibb","role":"STUDY_DIRECTOR"}],"locations":[{"facility":"Sharp Memorial Hospital","city":"San Diego","state":"California","zip":"92123","country":"United States","geoPoint":{"lat":32.71571,"lon":-117.16472}},{"facility":"Va Connecticut Healthcare System","city":"West Haven","state":"Connecticut","zip":"06516","country":"United States","geoPoint":{"lat":41.27065,"lon":-72.94705}},{"facility":"Lynn Cancer Institute Center For Hematology-Oncology","city":"Boca Raton","state":"Florida","zip":"33486","country":"United States","geoPoint":{"lat":26.35869,"lon":-80.0831}},{"facility":"Integrated Community Oncology Network","city":"Jacksonville","state":"Florida","zip":"32256","country":"United States","geoPoint":{"lat":30.33218,"lon":-81.65565}},{"facility":"University Of Illinois At Chicago Medical Center","city":"Chicago","state":"Illinois","zip":"60612","country":"United States","geoPoint":{"lat":41.85003,"lon":-87.65005}},{"facility":"Quincy Medical Group","city":"Quincy","state":"Illinois","zip":"62301","country":"United States","geoPoint":{"lat":39.9356,"lon":-91.40987}},{"facility":"Presence Medical Group Hematology Oncology","city":"Skokie","state":"Illinois","zip":"60076","country":"United States","geoPoint":{"lat":42.03336,"lon":-87.73339}},{"facility":"Southern Illinois University School Of Medicine","city":"Springfield","state":"Illinois","zip":"62794-9678","country":"United States","geoPoint":{"lat":39.80172,"lon":-89.64371}},{"facility":"St. Francis Hospital & Health Centers","city":"Indianapolis","state":"Indiana","zip":"46237","country":"United States","geoPoint":{"lat":39.76838,"lon":-86.15804}},{"facility":"Floyd Memorial Cancer Center Of Indiana","city":"New Albany","state":"Indiana","zip":"47150","country":"United States","geoPoint":{"lat":38.28562,"lon":-85.82413}},{"facility":"Kentucky Cancer Clinic","city":"Hazard","state":"Kentucky","zip":"41701","country":"United States","geoPoint":{"lat":37.24954,"lon":-83.19323}},{"facility":"Norton Cancer Institute","city":"Louisville","state":"Kentucky","zip":"40207","country":"United States","geoPoint":{"lat":38.25424,"lon":-85.75941}},{"facility":"Montgomery Cancer Center","city":"Mount Sterling","state":"Kentucky","zip":"40353","country":"United States","geoPoint":{"lat":38.05647,"lon":-83.94326}},{"facility":"St Joseph Mercy Hospital","city":"Ypsilanti","state":"Michigan","zip":"48197","country":"United States","geoPoint":{"lat":42.24115,"lon":-83.61299}},{"facility":"University Of Kansas Cancer Center","city":"Kansas City","state":"Missouri","zip":"64131","country":"United States","geoPoint":{"lat":39.09973,"lon":-94.57857}},{"facility":"Washington University School Of Medicine","city":"St Louis","state":"Missouri","zip":"63110","country":"United States","geoPoint":{"lat":38.62727,"lon":-90.19789}},{"facility":"Dartmouth-Hitchcock Medical Center","city":"Lebanon","state":"New Hampshire","zip":"03756-0001","country":"United States","geoPoint":{"lat":43.64229,"lon":-72.25176}},{"facility":"Clinical Research Alliance, Inc.","city":"Lake Success","state":"New York","zip":"11042","country":"United States","geoPoint":{"lat":40.77066,"lon":-73.71763}},{"facility":"Durham Va Medical Center (111g)","city":"Durham","state":"North Carolina","zip":"27705","country":"United States","geoPoint":{"lat":35.99403,"lon":-78.89862}},{"facility":"Carolina Biooncology Institute","city":"Huntersville","state":"North Carolina","zip":"28078","country":"United States","geoPoint":{"lat":35.41069,"lon":-80.84285}},{"facility":"Novant Health Oncology Specialists","city":"Lexington","state":"North Carolina","zip":"27295","country":"United States","geoPoint":{"lat":35.82403,"lon":-80.25338}},{"facility":"Gabrail Cancer Center Research","city":"Canton","state":"Ohio","zip":"44718","country":"United States","geoPoint":{"lat":40.79895,"lon":-81.37845}},{"facility":"Oklahoma Oncology And Hematology, Pc Dba","city":"Tulsa","state":"Oklahoma","zip":"74146","country":"United States","geoPoint":{"lat":36.15398,"lon":-95.99277}},{"facility":"Kaiser Permanente Northwest Region","city":"Portland","state":"Oregon","zip":"97227","country":"United States","geoPoint":{"lat":45.52345,"lon":-122.67621}},{"facility":"Guthrie Medical Group, P.C.","city":"Sayre","state":"Pennsylvania","zip":"18840","country":"United States","geoPoint":{"lat":41.97896,"lon":-76.5155}},{"facility":"Wjb Dorn Va Medical Center","city":"Columbia","state":"South Carolina","zip":"29209","country":"United States","geoPoint":{"lat":34.00071,"lon":-81.03481}},{"facility":"Cancer Center Of The Carolinas","city":"Greenville","state":"South Carolina","zip":"29615","country":"United States","geoPoint":{"lat":34.85262,"lon":-82.39401}},{"facility":"Associated in Oncology and Hematology","city":"Chattanooga","state":"Tennessee","zip":"37421","country":"United States","geoPoint":{"lat":35.04563,"lon":-85.30968}},{"facility":"Tennessee Cancer Specialists","city":"Knoxville","state":"Tennessee","zip":"37909","country":"United States","geoPoint":{"lat":35.96064,"lon":-83.92074}},{"facility":"Thompson Oncology Group","city":"Knoxville","state":"Tennessee","zip":"37916","country":"United States","geoPoint":{"lat":35.96064,"lon":-83.92074}},{"facility":"Texas Oncology, PA - South Austin Cancer Center","city":"Austin","state":"Texas","zip":"78745","country":"United States","geoPoint":{"lat":30.26715,"lon":-97.74306}},{"facility":"Blue Ridge Cancer Care","city":"Blacksburg","state":"Virginia","zip":"24060","country":"United States","geoPoint":{"lat":37.22957,"lon":-80.41394}},{"facility":"Wisconsin Institutes for Medical Research","city":"Madison","state":"Wisconsin","zip":"53705","country":"United States","geoPoint":{"lat":43.07305,"lon":-89.40123}},{"facility":"Local Institution","city":"Quilmes","state":"Buenos Aires","zip":"B1878DVB","country":"Argentina","geoPoint":{"lat":-34.72065,"lon":-58.25454}},{"facility":"Local Institution","city":"Rosario","state":"Santa Fe Province","zip":"S2000DSV","country":"Argentina","geoPoint":{"lat":-32.94682,"lon":-60.63932}},{"facility":"Local Institution","city":"San Miguel de Tucumán","state":"Tucumán Province","zip":"4000","country":"Argentina","geoPoint":{"lat":-26.81601,"lon":-65.21051}},{"facility":"Local Institution","city":"Córdoba","zip":"X5006HBF","country":"Argentina","geoPoint":{"lat":-31.40648,"lon":-64.18853}},{"facility":"Local Institution","city":"Córdoba","zip":"X5006IKK","country":"Argentina","geoPoint":{"lat":-31.40648,"lon":-64.18853}},{"facility":"Local Institution","city":"Mendoza","zip":"M5500AYB","country":"Argentina","geoPoint":{"lat":-32.88946,"lon":-68.84582}},{"facility":"Local Institution","city":"Santa Fe","zip":"S3000FFU","country":"Argentina","geoPoint":{"lat":-31.64881,"lon":-60.70868}},{"facility":"Local Institution","city":"Bedford Park","state":"South Australia","zip":"5042","country":"Australia","geoPoint":{"lat":-35.02204,"lon":138.56815}},{"facility":"Local Institution","city":"Box Hill","state":"Victoria","zip":"3128","country":"Australia","geoPoint":{"lat":-37.81887,"lon":145.12545}},{"facility":"Local Institution","city":"Frankston","state":"Victoria","zip":"3199","country":"Australia","geoPoint":{"lat":-38.14458,"lon":145.12291}},{"facility":"Local Institution","city":"Heidelberg","state":"Victoria","zip":"3084","country":"Australia","geoPoint":{"lat":-37.75,"lon":145.06667}},{"facility":"Local Institution","city":"Wodonga","state":"Victoria","zip":"3690","country":"Australia","geoPoint":{"lat":-36.12179,"lon":146.88809}},{"facility":"Local Institution","city":"Graz","zip":"8036","country":"Austria","geoPoint":{"lat":47.06733,"lon":15.44197}},{"facility":"Local Institution","city":"Linz","zip":"4020","country":"Austria","geoPoint":{"lat":48.30639,"lon":14.28611}},{"facility":"Local Institution","city":"Salzburg","zip":"5020","country":"Austria","geoPoint":{"lat":47.79941,"lon":13.04399}},{"facility":"Local Institution","city":"Aalst","zip":"9300","country":"Belgium","geoPoint":{"lat":50.93604,"lon":4.0355}},{"facility":"Local Institution","city":"Liège","zip":"4000","country":"Belgium","geoPoint":{"lat":50.63373,"lon":5.56749}},{"facility":"Local Institution","city":"Sint-Niklaas","zip":"9100","country":"Belgium","geoPoint":{"lat":51.16509,"lon":4.1437}},{"facility":"Local Institution","city":"Yvoir","zip":"5530","country":"Belgium","geoPoint":{"lat":50.3279,"lon":4.88059}},{"facility":"Local Institution","city":"Fortaleza","state":"Ceará","zip":"60160-230","country":"Brazil","geoPoint":{"lat":-3.71722,"lon":-38.54306}},{"facility":"Local Institution","city":"Belo Horizonte","state":"Minas Gerais","zip":"30150-270","country":"Brazil","geoPoint":{"lat":-19.92083,"lon":-43.93778}},{"facility":"Local Institution","city":"Curitiba","state":"Paraná","zip":"81520-060","country":"Brazil","geoPoint":{"lat":-25.42778,"lon":-49.27306}},{"facility":"Local Institution","city":"Passo Fundo","state":"Rio Grande do Sul","zip":"99010260","country":"Brazil","geoPoint":{"lat":-28.26278,"lon":-52.40667}},{"facility":"Local Institution","city":"Barretos","state":"São Paulo","zip":"14784","country":"Brazil","geoPoint":{"lat":-20.55722,"lon":-48.56778}},{"facility":"Local Institution","city":"São José dos Campos","state":"São Paulo","zip":"12245","country":"Brazil","geoPoint":{"lat":-23.17944,"lon":-45.88694}},{"facility":"Local Institution","city":"Porto Alegre","zip":"90430","country":"Brazil","geoPoint":{"lat":-30.03283,"lon":-51.23019}},{"facility":"Local Institution","city":"Ribeirão Preto","zip":"14015","country":"Brazil","geoPoint":{"lat":-21.1775,"lon":-47.81028}},{"facility":"Local Institution","city":"Rio de Janeiro","zip":"20231-050","country":"Brazil","geoPoint":{"lat":-22.90642,"lon":-43.18223}},{"facility":"Local Institution","city":"São Paulo","zip":"01224-010","country":"Brazil","geoPoint":{"lat":-23.5475,"lon":-46.63611}},{"facility":"Local Institution","city":"São Paulo","zip":"04039-901","country":"Brazil","geoPoint":{"lat":-23.5475,"lon":-46.63611}},{"facility":"Local Institution","city":"Montreal","state":"Quebec","zip":"H2W 1S6","country":"Canada","geoPoint":{"lat":45.50884,"lon":-73.58781}},{"facility":"Local Institution","city":"Montreal","state":"Quebec","zip":"H3T 1E2","country":"Canada","geoPoint":{"lat":45.50884,"lon":-73.58781}},{"facility":"Local Institution","city":"Montreal","state":"Quebec","zip":"H4J 1C5","country":"Canada","geoPoint":{"lat":45.50884,"lon":-73.58781}},{"facility":"Local Institution","city":"Oshawa","zip":"L1G 2B9","country":"Canada","geoPoint":{"lat":43.90012,"lon":-78.84957}},{"facility":"Local Institution","city":"Viña del Mar","state":"Región de Valparaíso","zip":"2540364","country":"Chile","geoPoint":{"lat":-33.02457,"lon":-71.55183}},{"facility":"Local Institution","city":"Santiago","state":"Santiago Metropolitan","zip":"7520378","country":"Chile","geoPoint":{"lat":-33.45694,"lon":-70.64827}},{"facility":"Local Institution","city":"Santiago","state":"Santiago Metropolitan","zip":"8380455","country":"Chile","geoPoint":{"lat":-33.45694,"lon":-70.64827}},{"facility":"Local Institution","city":"Guangzhou","state":"Guangdong","zip":"510060","country":"China","geoPoint":{"lat":23.11667,"lon":113.25}},{"facility":"Local Institution","city":"Guanzhou","state":"Guangdong","zip":"510080","country":"China","geoPoint":{"lat":23.06828,"lon":113.37117}},{"facility":"Local Institution","city":"Shantou","state":"Guangdong","zip":"515041","country":"China","geoPoint":{"lat":23.35489,"lon":116.67876}},{"facility":"Local Institution","city":"Wuhan","state":"Hubei","zip":"430023","country":"China","geoPoint":{"lat":30.58333,"lon":114.26667}},{"facility":"Local Institution","city":"Nanjing","state":"Jiangsu","zip":"210002","country":"China","geoPoint":{"lat":32.06167,"lon":118.77778}},{"facility":"Local Institution","city":"Nanjing","state":"Jiangsu","zip":"210009","country":"China","geoPoint":{"lat":32.06167,"lon":118.77778}},{"facility":"Local Institution","city":"Suzhou","state":"Jiangsu","zip":"215006","country":"China","geoPoint":{"lat":31.30408,"lon":120.59538}},{"facility":"Local Institution","city":"Changchun","state":"Jilin","zip":"130012","country":"China","geoPoint":{"lat":43.88,"lon":125.32278}},{"facility":"Local Institution","city":"Xi'an","state":"Shaanxi","zip":"710038","country":"China","geoPoint":{"lat":34.25833,"lon":108.92861}},{"facility":"Local Institution","city":"Xi'an","state":"Shaanxi","zip":"710061","country":"China","geoPoint":{"lat":34.25833,"lon":108.92861}},{"facility":"Local Institution","city":"Ürümqi","state":"Xinjiang","zip":"830011","country":"China","geoPoint":{"lat":43.80096,"lon":87.60046}},{"facility":"Local Institution","city":"Hangzhou","state":"Zhejiang","zip":"310016","country":"China","geoPoint":{"lat":30.29365,"lon":120.16142}},{"facility":"Local Institution","city":"Beijing","zip":"100032","country":"China","geoPoint":{"lat":39.9075,"lon":116.39723}},{"facility":"Local Institution","city":"Beijing","zip":"100071","country":"China","geoPoint":{"lat":39.9075,"lon":116.39723}},{"facility":"Local Institution","city":"Beijing","zip":"100142","country":"China","geoPoint":{"lat":39.9075,"lon":116.39723}},{"facility":"Local Institution","city":"Beijing","zip":"100853","country":"China","geoPoint":{"lat":39.9075,"lon":116.39723}},{"facility":"Local Institution","city":"Santiago","zip":"7630370","country":"China"},{"facility":"Local Institution","city":"Shanghai","zip":"200030","country":"China","geoPoint":{"lat":31.22222,"lon":121.45806}},{"facility":"Local Institution","city":"Shanghai","zip":"200433","country":"China","geoPoint":{"lat":31.22222,"lon":121.45806}},{"facility":"Local Institution","city":"Montería","state":"Departamento de Córdoba","country":"Colombia","geoPoint":{"lat":8.75081,"lon":-75.87823}},{"facility":"Local Institution","city":"Pereira","state":"Risaralda Department","country":"Colombia","geoPoint":{"lat":4.81428,"lon":-75.69488}},{"facility":"Local Institution","city":"Ostrava","state":"Poruba","zip":"70852","country":"Czechia","geoPoint":{"lat":49.83465,"lon":18.28204}},{"facility":"Local Institution","city":"Prague","zip":"12808","country":"Czechia","geoPoint":{"lat":50.08804,"lon":14.42076}},{"facility":"Local Institution","city":"Prague","zip":"150 06","country":"Czechia","geoPoint":{"lat":50.08804,"lon":14.42076}},{"facility":"Local Institution","city":"Prague","zip":"180 81","country":"Czechia","geoPoint":{"lat":50.08804,"lon":14.42076}},{"facility":"Local Institution","city":"Pribram V-Zdabor","zip":"26195","country":"Czechia"},{"facility":"Local Institution","city":"Ústí nad Labem","zip":"401 13","country":"Czechia","geoPoint":{"lat":50.6607,"lon":14.03227}},{"facility":"Local Institution","city":"Znojmo","zip":"669 02","country":"Czechia","geoPoint":{"lat":48.8555,"lon":16.0488}},{"facility":"Local Institution","city":"Aalborg","zip":"9000","country":"Denmark","geoPoint":{"lat":57.048,"lon":9.9187}},{"facility":"Local Institution","city":"Herlev","zip":"2730","country":"Denmark","geoPoint":{"lat":55.72366,"lon":12.43998}},{"facility":"Local Institution","city":"Hillerød","zip":"3400","country":"Denmark","geoPoint":{"lat":55.92791,"lon":12.30081}},{"facility":"Local Institution","city":"Næstved","zip":"4700","country":"Denmark","geoPoint":{"lat":55.22992,"lon":11.76092}},{"facility":"Local Institution","city":"Odense","zip":"5000","country":"Denmark","geoPoint":{"lat":55.39594,"lon":10.38831}},{"facility":"Local Institution","city":"Caen","zip":"14076","country":"France","geoPoint":{"lat":49.18585,"lon":-0.35912}},{"facility":"Local Institution","city":"Marseille","zip":"13915","country":"France","geoPoint":{"lat":43.29695,"lon":5.38107}},{"facility":"Local Institution","city":"Paris","zip":"75014","country":"France","geoPoint":{"lat":48.85341,"lon":2.3488}},{"facility":"Local Institution","city":"Poitiers","zip":"86000","country":"France","geoPoint":{"lat":46.58261,"lon":0.34348}},{"facility":"Local Institution","city":"Rennes","zip":"35033","country":"France","geoPoint":{"lat":48.11109,"lon":-1.67431}},{"facility":"Local Institution","city":"Toulouse","zip":"31059","country":"France","geoPoint":{"lat":43.60426,"lon":1.44367}},{"facility":"Local Institution","city":"Vandœuvre-lès-Nancy","zip":"54511","country":"France","geoPoint":{"lat":48.66115,"lon":6.17114}},{"facility":"Local Institution","city":"Bad Berka","zip":"99437","country":"Germany","geoPoint":{"lat":50.89982,"lon":11.28245}},{"facility":"Local Institution","city":"Bochum","zip":"44791","country":"Germany","geoPoint":{"lat":51.48165,"lon":7.21648}},{"facility":"Local Institution","city":"Darmstadt","zip":"64283","country":"Germany","geoPoint":{"lat":49.87167,"lon":8.65027}},{"facility":"Local Institution","city":"Dresden","zip":"01307","country":"Germany","geoPoint":{"lat":51.05089,"lon":13.73832}},{"facility":"Local Institution","city":"Frankfurt am Main","zip":"60590","country":"Germany","geoPoint":{"lat":50.11552,"lon":8.68417}},{"facility":"Local Institution","city":"Gauting","zip":"82131","country":"Germany","geoPoint":{"lat":48.06919,"lon":11.37703}},{"facility":"Local Institution","city":"Grosshandsdorf","zip":"22927","country":"Germany"},{"facility":"Local Institution","city":"Hamburg","zip":"D-21075","country":"Germany","geoPoint":{"lat":53.55073,"lon":9.99302}},{"facility":"Local Institution","city":"Heidelberg","zip":"69126","country":"Germany","geoPoint":{"lat":49.40768,"lon":8.69079}},{"facility":"Local Institution","city":"Kassel","zip":"34125","country":"Germany","geoPoint":{"lat":51.31667,"lon":9.5}},{"facility":"Local Institution","city":"Lübeck","zip":"23538","country":"Germany","geoPoint":{"lat":53.86893,"lon":10.68729}},{"facility":"Local Institution","city":"Mainz","zip":"55131","country":"Germany","geoPoint":{"lat":49.98185,"lon":8.28008}},{"facility":"Local Institution","city":"München","zip":"81925","country":"Germany","geoPoint":{"lat":51.60698,"lon":13.31243}},{"facility":"Local Institution","city":"Neumünster","zip":"24534","country":"Germany","geoPoint":{"lat":54.07399,"lon":9.98456}},{"facility":"Local Institution","city":"Nuremberg","zip":"90419","country":"Germany","geoPoint":{"lat":49.45421,"lon":11.07752}},{"facility":"Local Institution","city":"Regensburg","zip":"93049","country":"Germany","geoPoint":{"lat":49.01513,"lon":12.10161}},{"facility":"Local Institution","city":"Tübingen","zip":"72076","country":"Germany","geoPoint":{"lat":48.52266,"lon":9.05222}},{"facility":"Local Institution","city":"Ulm","zip":"89081","country":"Germany","geoPoint":{"lat":48.39841,"lon":9.99155}},{"facility":"Local Institution","city":"Villingen-Schwenningen","zip":"78052","country":"Germany","geoPoint":{"lat":48.06226,"lon":8.49358}},{"facility":"Local Institution","city":"Hong Kong","zip":"8525","country":"Hong Kong","geoPoint":{"lat":22.27832,"lon":114.17469}},{"facility":"Local Institution","city":"Hong Kong","country":"Hong Kong","geoPoint":{"lat":22.27832,"lon":114.17469}},{"facility":"Local Institution","city":"New Territories","zip":"8520","country":"Hong Kong","geoPoint":{"lat":22.42441,"lon":114.11095}},{"facility":"Local Institution","city":"Budapest","zip":"1121","country":"Hungary","geoPoint":{"lat":47.49835,"lon":19.04045}},{"facility":"Local Institution","city":"Budapest","zip":"1125","country":"Hungary","geoPoint":{"lat":47.49835,"lon":19.04045}},{"facility":"Local Institution","city":"Deszk","zip":"6772","country":"Hungary","geoPoint":{"lat":46.21802,"lon":20.24322}},{"facility":"Local Institution","city":"Farkasgyepű","zip":"8582","country":"Hungary","geoPoint":{"lat":47.2,"lon":17.63333}},{"facility":"Local Institution","city":"Gyula","zip":"5703","country":"Hungary","geoPoint":{"lat":46.65,"lon":21.28333}},{"facility":"Local Institution","city":"Mátraháza","zip":"3233","country":"Hungary","geoPoint":{"lat":47.87124,"lon":19.97981}},{"facility":"Local Institution","city":"Nyíregyháza","zip":"4400","country":"Hungary","geoPoint":{"lat":47.95539,"lon":21.71671}},{"facility":"Local Institution","city":"Pécs","zip":"7602","country":"Hungary","geoPoint":{"lat":46.07617,"lon":18.22814}},{"facility":"Local Institution","city":"Sopron","zip":"9400","country":"Hungary","geoPoint":{"lat":47.68501,"lon":16.59049}},{"facility":"Local Institution","city":"Székesfehérvár","zip":"8000","country":"Hungary","geoPoint":{"lat":47.18995,"lon":18.41034}},{"facility":"Local Institution","city":"Szolnok","zip":"5000","country":"Hungary","geoPoint":{"lat":47.18066,"lon":20.19835}},{"facility":"Local Institution","city":"Dublin","zip":"24","country":"Ireland","geoPoint":{"lat":53.33306,"lon":-6.24889}},{"facility":"Local Institution","city":"Dublin","zip":"4","country":"Ireland","geoPoint":{"lat":53.33306,"lon":-6.24889}},{"facility":"Local Institution","city":"Dublin","zip":"8","country":"Ireland","geoPoint":{"lat":53.33306,"lon":-6.24889}},{"facility":"Local Institution","city":"Galway","country":"Ireland","geoPoint":{"lat":53.27245,"lon":-9.05095}},{"facility":"Local Institution","city":"Beersheba","zip":"84101","country":"Israel","geoPoint":{"lat":31.25181,"lon":34.7913}},{"facility":"Local Institution","city":"Haifa","zip":"31096","country":"Israel","geoPoint":{"lat":32.81303,"lon":34.99928}},{"facility":"Local Institution","city":"Jerusalem","zip":"91120","country":"Israel","geoPoint":{"lat":31.76904,"lon":35.21633}},{"facility":"Local Institution","city":"Nahariya","zip":"22100","country":"Israel","geoPoint":{"lat":33.00892,"lon":35.09814}},{"facility":"Local Institution","city":"Petah Tikva","zip":"49100","country":"Israel","geoPoint":{"lat":32.08707,"lon":34.88747}},{"facility":"Local Institution","city":"Rehovot","zip":"76100","country":"Israel","geoPoint":{"lat":31.89421,"lon":34.81199}},{"facility":"Local Institution","city":"Tel Aviv","zip":"64239","country":"Israel","geoPoint":{"lat":32.08088,"lon":34.78057}},{"facility":"Local Institution","city":"Tel Aviv","zip":"69710","country":"Israel","geoPoint":{"lat":32.08088,"lon":34.78057}},{"facility":"Local Institution","city":"Tel Litwinsky","zip":"52621","country":"Israel","geoPoint":{"lat":32.05096,"lon":34.84588}},{"facility":"Local Institution","city":"Ẕerifin","zip":"70300","country":"Israel","geoPoint":{"lat":31.95731,"lon":34.84852}},{"facility":"Local Institution","city":"Benevento","zip":"82100","country":"Italy","geoPoint":{"lat":41.1307,"lon":14.77816}},{"facility":"Local Institution","city":"Bologna","zip":"40138","country":"Italy","geoPoint":{"lat":44.49381,"lon":11.33875}},{"facility":"Local Institution","city":"Lido di Camaiore","zip":"55041","country":"Italy","geoPoint":{"lat":43.90012,"lon":10.2269}},{"facility":"Local Institution","city":"Lucca","zip":"55100","country":"Italy","geoPoint":{"lat":43.84369,"lon":10.50447}},{"facility":"Local Institution","city":"Monza","zip":"20052","country":"Italy","geoPoint":{"lat":45.58005,"lon":9.27246}},{"facility":"Local Institution","city":"Padua","zip":"35128","country":"Italy","geoPoint":{"lat":45.40797,"lon":11.88586}},{"facility":"Local Institution","city":"Perugia","zip":"06156","country":"Italy","geoPoint":{"lat":43.1122,"lon":12.38878}},{"facility":"Local Institution","city":"Siena","zip":"53100","country":"Italy","geoPoint":{"lat":43.31822,"lon":11.33064}},{"facility":"Local Institution","city":"Sondrio","zip":"23100","country":"Italy","geoPoint":{"lat":46.16852,"lon":9.87134}},{"facility":"Local Institution","city":"Terni","zip":"05100","country":"Italy","geoPoint":{"lat":42.56335,"lon":12.64329}},{"facility":"Local Institution","city":"Treviglio","zip":"24047","country":"Italy","geoPoint":{"lat":45.52081,"lon":9.59102}},{"facility":"Local Institution","city":"Nagoya","state":"Aichi-ken","zip":"4600001","country":"Japan","geoPoint":{"lat":35.18147,"lon":136.90641}},{"facility":"Local Institution","city":"Nagoya","state":"Aichi-ken","zip":"4648681","country":"Japan","geoPoint":{"lat":35.18147,"lon":136.90641}},{"facility":"Local Institution","city":"Kashiwa","state":"Chiba","zip":"277-8577","country":"Japan","geoPoint":{"lat":35.86224,"lon":139.97732}},{"facility":"Local Institution","city":"Kanazawa","state":"Ishikawa-ken","zip":"9208641","country":"Japan","geoPoint":{"lat":36.6,"lon":136.61667}},{"facility":"Local Institution","city":"Yokohama","state":"Kanagawa","zip":"2360051","country":"Japan","geoPoint":{"lat":35.43333,"lon":139.65}},{"facility":"Local Institution","city":"Yokohama","state":"Kanagawa","zip":"2408555","country":"Japan","geoPoint":{"lat":35.43333,"lon":139.65}},{"facility":"Local Institution","city":"Natori-shi","state":"Miyagi","zip":"9811293","country":"Japan","geoPoint":{"lat":38.16667,"lon":140.88333}},{"facility":"Local Institution","city":"Sendai","state":"Miyagi","zip":"9808574","country":"Japan","geoPoint":{"lat":38.26667,"lon":140.86667}},{"facility":"Local Institution","city":"Kurashiki-shi","state":"Okayama-ken","zip":"7010192","country":"Japan"},{"facility":"Local Institution","city":"Kurashiki-shi","state":"Okayama-ken","zip":"710-8602","country":"Japan"},{"facility":"Local Institution","city":"Hirakata-shi","state":"Osaka","zip":"5731191","country":"Japan"},{"facility":"Local Institution","city":"Osaka","state":"Osaka","zip":"5340021","country":"Japan","geoPoint":{"lat":34.69379,"lon":135.50107}},{"facility":"Local Institution","city":"Sunto-gun","state":"Shizuoka","zip":"411-8777","country":"Japan"},{"facility":"Local Institution","city":"Chuo-ku","state":"Tokyo","zip":"104-0045","country":"Japan"},{"facility":"Local Institution","city":"Ube-shi","state":"Yamaguchi","zip":"7550241","country":"Japan"},{"facility":"Local Institution","city":"Akashi, Hyogo","zip":"6738558","country":"Japan"},{"facility":"Local Institution","city":"Fukuoka","zip":"8128582","country":"Japan","geoPoint":{"lat":33.6,"lon":130.41667}},{"facility":"Local Institution","city":"Matsuyama, Ehime","zip":"791-0280","country":"Japan","geoPoint":{"lat":33.83916,"lon":132.76574}},{"facility":"Local Institution","city":"Sapporo Hokkaido","zip":"003-080","country":"Japan"},{"facility":"Local Institution","city":"Sapporo, Hokkaido","zip":"0608648","country":"Japan","geoPoint":{"lat":43.06667,"lon":141.35}},{"facility":"Local Institution","city":"Sayama","zip":"5898511","country":"Japan","geoPoint":{"lat":34.51685,"lon":135.56298}},{"facility":"Local Institution","city":"Sendai, Miyagi","zip":"980-0873","country":"Japan"},{"facility":"Local Institution","city":"Takatsuki","zip":"569-8686","country":"Japan","geoPoint":{"lat":34.84833,"lon":135.61678}},{"facility":"Local Institution","city":"Tokyo","zip":"135-8550","country":"Japan","geoPoint":{"lat":35.6895,"lon":139.69171}},{"facility":"Local Institution","city":"Zapopan","state":"Jalisco","zip":"45170","country":"Mexico","geoPoint":{"lat":20.72111,"lon":-103.38742}},{"facility":"Local Institution","city":"Mexico City","state":"Mexico City","zip":"06760","country":"Mexico","geoPoint":{"lat":19.42847,"lon":-99.12766}},{"facility":"Local Institution","city":"Monterrey","state":"Nuevo León","zip":"64060","country":"Mexico","geoPoint":{"lat":25.68435,"lon":-100.31721}},{"facility":"Local Institution","city":"'s-Hertogenbosch","zip":"5223 GZ","country":"Netherlands","geoPoint":{"lat":51.69917,"lon":5.30417}},{"facility":"Local Institution","city":"Breda","zip":"4818 CK","country":"Netherlands","geoPoint":{"lat":51.58656,"lon":4.77596}},{"facility":"Local Institution","city":"Harderwijk","zip":"3844 DG","country":"Netherlands","geoPoint":{"lat":52.34167,"lon":5.62083}},{"facility":"Local Institution","city":"Nieuwegein","zip":"3435 CM","country":"Netherlands","geoPoint":{"lat":52.02917,"lon":5.08056}},{"facility":"Local Institution","city":"Trujillo","state":"La Libertad","country":"Peru","geoPoint":{"lat":-8.11599,"lon":-79.02998}},{"facility":"Local Institution","city":"Arequipa","country":"Peru","geoPoint":{"lat":-16.39899,"lon":-71.53747}},{"facility":"Local Institution","city":"Cercado","country":"Peru"},{"facility":"Local Institution","city":"Lima","zip":"LIMA 11","country":"Peru","geoPoint":{"lat":-12.04318,"lon":-77.02824}},{"facility":"Local Institution","city":"Elblag","zip":"82-300","country":"Poland","geoPoint":{"lat":54.1522,"lon":19.40884}},{"facility":"Local Institution","city":"Gdansk","zip":"80-952","country":"Poland","geoPoint":{"lat":54.35227,"lon":18.64912}},{"facility":"Local Institution","city":"Gdansk- Zaspa","zip":"80-462","country":"Poland"},{"facility":"Local Institution","city":"Grudziądz","zip":"86-300","country":"Poland","geoPoint":{"lat":53.48411,"lon":18.75366}},{"facility":"Local Institution","city":"Olsztyn","zip":"10-357","country":"Poland","geoPoint":{"lat":53.78376,"lon":20.49272}},{"facility":"Local Institution","city":"Otwock","zip":"05-400","country":"Poland","geoPoint":{"lat":52.10577,"lon":21.26129}},{"facility":"Local Institution","city":"Poznan","zip":"60 569","country":"Poland","geoPoint":{"lat":52.40692,"lon":16.92993}},{"facility":"Local Institution","city":"Szczecin","zip":"70-891","country":"Poland","geoPoint":{"lat":53.42894,"lon":14.55302}},{"facility":"Local Institution","city":"Torun","zip":"87-100","country":"Poland","geoPoint":{"lat":53.01375,"lon":18.59814}},{"facility":"Local Institution","city":"Warsaw","zip":"02-781","country":"Poland","geoPoint":{"lat":52.22977,"lon":21.01178}},{"facility":"Local Institution","city":"São Martinho do Bispo","state":"Coimbra District","zip":"3041801","country":"Portugal","geoPoint":{"lat":40.21021,"lon":-8.45692}},{"facility":"Local Institution","city":"Lisbon","zip":"1099023","country":"Portugal","geoPoint":{"lat":38.72509,"lon":-9.1498}},{"facility":"Local Institution","city":"Lisbon","zip":"1769-001","country":"Portugal","geoPoint":{"lat":38.72509,"lon":-9.1498}},{"facility":"Local Institution","city":"Porto","zip":"4200-072","country":"Portugal","geoPoint":{"lat":41.1485,"lon":-8.61097}},{"facility":"Local Institution","city":"Santa Maria da Feira","zip":"4520211","country":"Portugal","geoPoint":{"lat":40.92726,"lon":-8.54839}},{"facility":"Local Institution","city":"Vila Nova de Gaia","zip":"4434-502","country":"Portugal","geoPoint":{"lat":41.12401,"lon":-8.61241}},{"facility":"Local Institution","city":"Bucharest","zip":"010976","country":"Romania","geoPoint":{"lat":44.43225,"lon":26.10626}},{"facility":"Local Institution","city":"Bucharest","zip":"030171","country":"Romania","geoPoint":{"lat":44.43225,"lon":26.10626}},{"facility":"Local Institution","city":"Cluj-Napoca","zip":"400058","country":"Romania","geoPoint":{"lat":46.76667,"lon":23.6}},{"facility":"Local Institution","city":"Sibiu","zip":"550245","country":"Romania","geoPoint":{"lat":45.8,"lon":24.15}},{"facility":"Local Institution","city":"Suceava","zip":"720237","country":"Romania","geoPoint":{"lat":47.63333,"lon":26.25}},{"facility":"Local Institution","city":"Timișoara","zip":"300239","country":"Romania","geoPoint":{"lat":45.75372,"lon":21.22571}},{"facility":"Local Institution","city":"Chelyabinsk","zip":"454087","country":"Russia","geoPoint":{"lat":55.1611,"lon":61.42877}},{"facility":"Local Institution","city":"Kazan'","zip":"420029","country":"Russia","geoPoint":{"lat":55.78874,"lon":49.12214}},{"facility":"Local Institution","city":"Moscow","zip":"115478","country":"Russia","geoPoint":{"lat":55.75204,"lon":37.61781}},{"facility":"Local Institution","city":"Moscow","zip":"125009","country":"Russia","geoPoint":{"lat":55.75204,"lon":37.61781}},{"facility":"Local Institution","city":"Pyatigorsk","zip":"357502","country":"Russia","geoPoint":{"lat":44.05,"lon":43.05036}},{"facility":"Local Institution","city":"Saint Petersburg","zip":"197022","country":"Russia","geoPoint":{"lat":59.93863,"lon":30.31413}},{"facility":"Local Institution","city":"Saint Petersburg","zip":"197758","country":"Russia","geoPoint":{"lat":59.93863,"lon":30.31413}},{"facility":"Local Institution","city":"St-Peterburg","zip":"198255","country":"Russia"},{"facility":"Local Institution","city":"Tula","zip":"300053","country":"Russia","geoPoint":{"lat":54.19609,"lon":37.61822}},{"facility":"Local Institution","city":"Singapore","zip":"308433","country":"Singapore","geoPoint":{"lat":1.28967,"lon":103.85007}},{"facility":"Local Institution","city":"Vereeniging","state":"Gauteng","zip":"1939","country":"South Africa","geoPoint":{"lat":-26.67313,"lon":27.92615}},{"facility":"Local Institution","city":"Panorama,cape Town","state":"Western Cape","zip":"7500","country":"South Africa","geoPoint":{"lat":-33.92584,"lon":18.42322}},{"facility":"Local Institution","city":"Cape Town","zip":"7925","country":"South Africa","geoPoint":{"lat":-33.92584,"lon":18.42322}},{"facility":"Local Institution","city":"Durban","zip":"4067","country":"South Africa","geoPoint":{"lat":-29.8579,"lon":31.0292}},{"facility":"Local Institution","city":"Goyang-si","state":"Gyeonggi-do","zip":"410-769","country":"South Korea","geoPoint":{"lat":37.65639,"lon":126.835}},{"facility":"Local Institution","city":"Suwon","state":"Gyeonggi-do","zip":"442-723","country":"South Korea","geoPoint":{"lat":37.29111,"lon":127.00889}},{"facility":"Local Institution","city":"Seoul","state":"Kangnam-gu","zip":"135-710","country":"South Korea","geoPoint":{"lat":37.566,"lon":126.9784}},{"facility":"Local Institution","city":"Cheonju-si","state":"North Chungcheong","zip":"361-771","country":"South Korea"},{"facility":"Local Institution","city":"Seoul","state":"Seodaemungu","zip":"120-752","country":"South Korea","geoPoint":{"lat":37.566,"lon":126.9784}},{"facility":"Local Institution","city":"Busan","zip":"602-739","country":"South Korea","geoPoint":{"lat":35.10168,"lon":129.03004}},{"facility":"Local Institution","city":"Daegu","zip":"700-712","country":"South Korea","geoPoint":{"lat":35.87028,"lon":128.59111}},{"facility":"Local Institution","city":"Gyeonggi-do","zip":"463-802","country":"South Korea","geoPoint":{"lat":37.58944,"lon":126.76917}},{"facility":"Local Institution","city":"Seoul","zip":"110-744","country":"South Korea","geoPoint":{"lat":37.566,"lon":126.9784}},{"facility":"Local Institution","city":"Seoul","zip":"134-791","country":"South Korea","geoPoint":{"lat":37.566,"lon":126.9784}},{"facility":"Local Institution","city":"Seoul","zip":"135-720","country":"South Korea","geoPoint":{"lat":37.566,"lon":126.9784}},{"facility":"Local Institution","city":"Seoul","zip":"136-705","country":"South Korea","geoPoint":{"lat":37.566,"lon":126.9784}},{"facility":"Local Institution","city":"Seoul","zip":"137-701","country":"South Korea","geoPoint":{"lat":37.566,"lon":126.9784}},{"facility":"Local Institution","city":"Seoul","zip":"138-736","country":"South Korea","geoPoint":{"lat":37.566,"lon":126.9784}},{"facility":"Local Institution","city":"Seoul","zip":"156-755","country":"South Korea","geoPoint":{"lat":37.566,"lon":126.9784}},{"facility":"Local Institution","city":"Suwon","zip":"443-721","country":"South Korea","geoPoint":{"lat":37.29111,"lon":127.00889}},{"facility":"Local Institution","city":"Barakaldo","state":"Vizcaya","zip":"48903","country":"Spain","geoPoint":{"lat":43.29639,"lon":-2.98813}},{"facility":"Local Institution","city":"Ávila","zip":"05004","country":"Spain","geoPoint":{"lat":40.65724,"lon":-4.69951}},{"facility":"Local Institution","city":"Benidorm-alicante","zip":"03501","country":"Spain"},{"facility":"Local Institution","city":"Castellon","zip":"12002","country":"Spain","geoPoint":{"lat":39.98567,"lon":-0.04935}},{"facility":"Local Institution","city":"Madrid","zip":"28033","country":"Spain","geoPoint":{"lat":40.4165,"lon":-3.70256}},{"facility":"Local Institution","city":"Madrid","zip":"28041","country":"Spain","geoPoint":{"lat":40.4165,"lon":-3.70256}},{"facility":"Local Institution","city":"Manresa","zip":"08243","country":"Spain","geoPoint":{"lat":41.72815,"lon":1.82399}},{"facility":"Local Institution","city":"Ourense","zip":"32005","country":"Spain","geoPoint":{"lat":42.33669,"lon":-7.86407}},{"facility":"Local Institution","city":"Valencia","zip":"46014","country":"Spain","geoPoint":{"lat":39.47391,"lon":-0.37966}},{"facility":"Local Institution","city":"Valencia","zip":"46015","country":"Spain","geoPoint":{"lat":39.47391,"lon":-0.37966}},{"facility":"Local Institution","city":"Gothenburg","zip":"413 45","country":"Sweden","geoPoint":{"lat":57.70716,"lon":11.96679}},{"facility":"Local Institution","city":"Lund","zip":"221 85","country":"Sweden","geoPoint":{"lat":55.70584,"lon":13.19321}},{"facility":"Local Institution","city":"Stockholm","zip":"17176","country":"Sweden","geoPoint":{"lat":59.32938,"lon":18.06871}},{"facility":"Local Institution","city":"Umeå","zip":"SE-901 85","country":"Sweden","geoPoint":{"lat":63.82842,"lon":20.25972}},{"facility":"Local Institution","city":"Basel","zip":"4031","country":"Switzerland","geoPoint":{"lat":47.55839,"lon":7.57327}},{"facility":"Local Institution","city":"Winterthur","zip":"8401","country":"Switzerland","geoPoint":{"lat":47.50564,"lon":8.72413}},{"facility":"Local Institution","city":"Changhua","zip":"500","country":"Taiwan","geoPoint":{"lat":24.0692,"lon":120.5512}},{"facility":"Local Institution","city":"Chiayi City","zip":"61363","country":"Taiwan","geoPoint":{"lat":23.47917,"lon":120.44889}},{"facility":"Local Institution","city":"Kaohsiung County","zip":"83301","country":"Taiwan"},{"facility":"Local Institution","city":"Taichung","zip":"404","country":"Taiwan","geoPoint":{"lat":24.1469,"lon":120.6839}},{"facility":"Local Institution","city":"Taichung","zip":"407.5","country":"Taiwan","geoPoint":{"lat":24.1469,"lon":120.6839}},{"facility":"Local Institution","city":"Taipei","zip":"100","country":"Taiwan","geoPoint":{"lat":25.05306,"lon":121.52639}},{"facility":"Local Institution","city":"Taipei","zip":"112","country":"Taiwan","geoPoint":{"lat":25.05306,"lon":121.52639}},{"facility":"Local Institution","city":"Taipei","country":"Taiwan","geoPoint":{"lat":25.05306,"lon":121.52639}},{"facility":"Local Institution","city":"Bangkok","state":"Tungpayathai","zip":"10400","country":"Thailand","geoPoint":{"lat":13.75398,"lon":100.50144}},{"facility":"Local Institution","city":"Bangkok","zip":"10330","country":"Thailand","geoPoint":{"lat":13.75398,"lon":100.50144}},{"facility":"Local Institution","city":"Bangkok","zip":"10400","country":"Thailand","geoPoint":{"lat":13.75398,"lon":100.50144}},{"facility":"Local Institution","city":"Bangkok","zip":"10700","country":"Thailand","geoPoint":{"lat":13.75398,"lon":100.50144}},{"facility":"Local Institution","city":"Chiang Mai","zip":"50200","country":"Thailand","geoPoint":{"lat":18.79038,"lon":98.98468}},{"facility":"Local Institution","city":"Songkhla","zip":"90110","country":"Thailand","geoPoint":{"lat":7.19882,"lon":100.5951}},{"facility":"Local Institution","city":"Dundee","state":"Angus/forfarshire","zip":"DD1 9SY","country":"United Kingdom","geoPoint":{"lat":56.46913,"lon":-2.97489}},{"facility":"Local Institution","city":"Truro","state":"Cornwall","zip":"TR1 3LJ","country":"United Kingdom","geoPoint":{"lat":50.26526,"lon":-5.05436}},{"facility":"Local Institution","city":"Southampton","state":"Hampshire","zip":"SO16 6YD","country":"United Kingdom","geoPoint":{"lat":50.90395,"lon":-1.40428}},{"facility":"Local Institution","city":"Nottingham","zip":"NG51PB","country":"United Kingdom","geoPoint":{"lat":52.9536,"lon":-1.15047}},{"facility":"Local Institution","city":"Sheffield","zip":"s10 2SJ","country":"United Kingdom","geoPoint":{"lat":53.38297,"lon":-1.4659}}]},"referencesModule":{"seeAlsoLinks":[{"label":"BMS Clinical Trial Patient Recruiting","url":"http://bms.com/studyconnect/Pages/home.aspx"},{"label":"Investigator Inquiry Form","url":"http://www.bms.com/clinical_trials/Pages/Investigator_inquiry_form.aspx"}]}},"resultsSection":{"participantFlowModule":{"preAssignmentDetails":"1289 participants were enrolled and 956 were randomized (479 Ipilimumab, 477 Placebo). 948 were treated (475 Ipilimumab, 473 Placebo). Reasons for non-treatment is 4 no longer met study criteria, 2 adverse events unrelated to study drug, 1 participant request to discontinue, and 1 other.","groups":[{"id":"FG000","title":"Ipilimumab With Paclitaxel/Carboplatin","description":"Ipilimumab + Active Chemotherapy Backbone The blinded therapy (Ipilimumab) started at the 3rd dose of active chemotherapy backbone (Paclitaxel/Carboplatin). Ipilimumab: IV solution, intravenous (IV), 10 mg/kg, 90 minute infusion, Once every 3 weeks for 4 doses and then every 12 weeks until disease progression (for a maximum treatment period of 3 years from the first dose) Active Chemo Backbone: Paclitaxel: IV solution, IV, 175 mg/m², 3 hour infusion, Once every 3 weeks for 6 doses Carboplatin: IV solution, IV, Area Under the Curve (AUC) = 6, 30 minute infusion, Once every 3 weeks for 6 doses"},{"id":"FG001","title":"Placebo With Paclitaxel/Carboplatin","description":"Placebo + Active Chemotherapy Backbone The blinded therapy (Placebo) started at the 3rd dose of active chemotherapy backbone (Paclitaxel/Carboplatin). Placebo: IV solution, IV, 0.9% sodium chloride or 5% dextrose, 90 minute infusion, Once every 3 weeks for 4 doses and then every 12 weeks until disease progression (for a maximum treatment period of 3 years from the first dose) Active Chemotherapy Backbone: Paclitaxel: IV solution, IV, 175 mg/m², 3 hour infusion, Once every 3 weeks for 6 doses Carboplatin: IV solution, IV, Area Under the Curve (AUC) = 6, 30 minute infusion, Once every 3 weeks for 6 doses"}],"periods":[{"title":"Randomized","milestones":[{"type":"STARTED","comment":"Started = Randomized","achievements":[{"groupId":"FG000","comment":"Represents participants randomized to this arm prior to 1st dose of chemotherapy treatment","numSubjects":"479"},{"groupId":"FG001","comment":"Represents participants randomized to this arm prior to 1st dose of chemotherapy treatment","numSubjects":"477"}]},{"type":"Treated With Chemotherapy (1st Dose)","achievements":[{"groupId":"FG000","numSubjects":"475"},{"groupId":"FG001","numSubjects":"473"}]},{"type":"COMPLETED","comment":"Completed = Continued to Blinded Therapy","achievements":[{"groupId":"FG000","numSubjects":"388"},{"groupId":"FG001","numSubjects":"361"}]},{"type":"NOT COMPLETED","achievements":[{"groupId":"FG000","numSubjects":"91"},{"groupId":"FG001","numSubjects":"116"}]}],"dropWithdraws":[{"type":"Progressive Disease","reasons":[{"groupId":"FG000","numSubjects":"41"},{"groupId":"FG001","numSubjects":"61"}]},{"type":"Adverse Event Unrelated to Study Drug","reasons":[{"groupId":"FG000","numSubjects":"18"},{"groupId":"FG001","numSubjects":"18"}]},{"type":"Study Drug Toxicity","reasons":[{"groupId":"FG000","numSubjects":"13"},{"groupId":"FG001","numSubjects":"14"}]},{"type":"Death","reasons":[{"groupId":"FG000","numSubjects":"5"},{"groupId":"FG001","numSubjects":"7"}]},{"type":"Withdrawal by Subject","reasons":[{"groupId":"FG000","numSubjects":"8"},{"groupId":"FG001","numSubjects":"11"}]},{"type":"Subject No Longer Met Study Criteria","reasons":[{"groupId":"FG000","numSubjects":"1"},{"groupId":"FG001","numSubjects":"1"}]},{"type":"Undisclosed Reasons","reasons":[{"groupId":"FG000","numSubjects":"1"},{"groupId":"FG001","numSubjects":"0"}]},{"type":"Randomized but not Treated","reasons":[{"groupId":"FG000","numSubjects":"4"},{"groupId":"FG001","numSubjects":"4"}]}]},{"title":"Treated With Blinded Therapy","milestones":[{"type":"STARTED","comment":"Started = Received at least one dose of Blinded Therapy","achievements":[{"groupId":"FG000","numSubjects":"388"},{"groupId":"FG001","numSubjects":"361"}]},{"type":"COMPLETED","comment":"Completed = Completed the Blinded Therapy treatment phase","achievements":[{"groupId":"FG000","numSubjects":"1"},{"groupId":"FG001","numSubjects":"2"}]},{"type":"NOT COMPLETED","achievements":[{"groupId":"FG000","numSubjects":"387"},{"groupId":"FG001","numSubjects":"359"}]}],"dropWithdraws":[{"type":"Progressive Disease","reasons":[{"groupId":"FG000","numSubjects":"223"},{"groupId":"FG001","numSubjects":"305"}]},{"type":"Study Drug Toxicity","reasons":[{"groupId":"FG000","numSubjects":"87"},{"groupId":"FG001","numSubjects":"14"}]},{"type":"Adverse Event Unrelated to Study Drug","reasons":[{"groupId":"FG000","numSubjects":"36"},{"groupId":"FG001","numSubjects":"14"}]},{"type":"Withdrawal by Subject","reasons":[{"groupId":"FG000","numSubjects":"20"},{"groupId":"FG001","numSubjects":"7"}]},{"type":"Death","reasons":[{"groupId":"FG000","numSubjects":"11"},{"groupId":"FG001","numSubjects":"3"}]},{"type":"Maximum Clinical Benefit","reasons":[{"groupId":"FG000","numSubjects":"2"},{"groupId":"FG001","numSubjects":"4"}]},{"type":"Not Reported","reasons":[{"groupId":"FG000","numSubjects":"0"},{"groupId":"FG001","numSubjects":"2"}]},{"type":"Poor/Non-Compliance","reasons":[{"groupId":"FG000","numSubjects":"1"},{"groupId":"FG001","numSubjects":"2"}]},{"type":"Subject No Longer Met Study Criteria","reasons":[{"groupId":"FG000","numSubjects":"1"},{"groupId":"FG001","numSubjects":"0"}]},{"type":"Administrative Reason by Sponsor","reasons":[{"groupId":"FG000","numSubjects":"1"},{"groupId":"FG001","numSubjects":"3"}]},{"type":"Physician and Patient decision","reasons":[{"groupId":"FG000","numSubjects":"1"},{"groupId":"FG001","numSubjects":"3"}]},{"type":"Participant refused participation","reasons":[{"groupId":"FG000","numSubjects":"1"},{"groupId":"FG001","numSubjects":"0"}]},{"type":"Participant started radiotherapy","reasons":[{"groupId":"FG000","numSubjects":"1"},{"groupId":"FG001","numSubjects":"0"}]},{"type":"Participant hospitalized","reasons":[{"groupId":"FG000","numSubjects":"1"},{"groupId":"FG001","numSubjects":"0"}]},{"type":"Investigator's assessment","reasons":[{"groupId":"FG000","numSubjects":"1"},{"groupId":"FG001","numSubjects":"0"}]},{"type":"PI decision to discontinue","reasons":[{"groupId":"FG000","numSubjects":"0"},{"groupId":"FG001","numSubjects":"1"}]},{"type":"Worsening of general condition","reasons":[{"groupId":"FG000","numSubjects":"0"},{"groupId":"FG001","numSubjects":"1"}]}]}]},"baselineCharacteristicsModule":{"populationDescription":"Randomized Participants Who Received at Least One Dose of Blinded Study Therapy","groups":[{"id":"BG000","title":"Ipilimumab With Paclitaxel/Carboplatin","description":"Ipilimumab + Active Chemo Backbone The blinded therapy (Ipilimumab) started at the 3rd dose of active chemotherapy backbone (Paclitaxel/Carboplatin). Ipilimumab: IV solution, intravenous (IV), 10 mg/kg, 90 minute infusion, Once every 3 weeks for 4 doses and then every 12 weeks until disease progression (for a maximum treatment period of 3 years from the first dose) Active Chemo Backbone: Paclitaxel: IV solution, IV, 175 mg/m², 3 hour infusion, Once every 3 weeks for 6 doses Carboplatin: IV solution, IV, Area Under the Curve (AUC) = 6, 30 minute infusion, Once every 3 weeks for 6 doses"},{"id":"BG001","title":"Placebo With Paclitaxel/Carboplatin","description":"Placebo + Active Chemo Backbone The blinded therapy (Placebo) started at the 3rd dose of active chemotherapy backbone (Paclitaxel/Carboplatin). Placebo: IV solution, IV, 0.9% sodium chloride or 5% dextrose, 90 minute infusion, Once every 3 weeks for 4 doses and then every 12 weeks until disease progression (for a maximum treatment period of 3 years from the first dose) Active Chemo Backbone: Paclitaxel: IV solution, IV, 175 mg/m², 3 hour infusion, Once every 3 weeks for 6 doses Carboplatin: IV solution, IV, Area Under the Curve (AUC) = 6, 30 minute infusion, Once every 3 weeks for 6 doses"},{"id":"BG002","title":"Total","description":"Total of all reporting groups"}],"denoms":[{"units":"Participants","counts":[{"groupId":"BG000","value":"388"},{"groupId":"BG001","value":"361"},{"groupId":"BG002","value":"749"}]}],"measures":[{"title":"Age, Continuous","paramType":"MEAN","dispersionType":"STANDARD_DEVIATION","unitOfMeasure":"years","classes":[{"categories":[{"measurements":[{"groupId":"BG000","value":"63.7","spread":"8.27"},{"groupId":"BG001","value":"63.7","spread":"8.70"},{"groupId":"BG002","value":"63.7","spread":"8.47"}]}]}]},{"title":"Sex: Female, Male","paramType":"COUNT_OF_PARTICIPANTS","unitOfMeasure":"Participants","classes":[{"categories":[{"title":"Female","measurements":[{"groupId":"BG000","value":"62"},{"groupId":"BG001","value":"52"},{"groupId":"BG002","value":"114"}]},{"title":"Male","measurements":[{"groupId":"BG000","value":"326"},{"groupId":"BG001","value":"309"},{"groupId":"BG002","value":"635"}]}]}]},{"title":"Race (NIH/OMB)","paramType":"COUNT_OF_PARTICIPANTS","unitOfMeasure":"Participants","classes":[{"categories":[{"title":"American Indian or Alaska Native","measurements":[{"groupId":"BG000","value":"0"},{"groupId":"BG001","value":"1"},{"groupId":"BG002","value":"1"}]},{"title":"Asian","measurements":[{"groupId":"BG000","value":"106"},{"groupId":"BG001","value":"108"},{"groupId":"BG002","value":"214"}]},{"title":"Native Hawaiian or Other Pacific Islander","measurements":[{"groupId":"BG000","value":"0"},{"groupId":"BG001","value":"0"},{"groupId":"BG002","value":"0"}]},{"title":"Black or African American","measurements":[{"groupId":"BG000","value":"3"},{"groupId":"BG001","value":"3"},{"groupId":"BG002","value":"6"}]},{"title":"White","measurements":[{"groupId":"BG000","value":"276"},{"groupId":"BG001","value":"243"},{"groupId":"BG002","value":"519"}]},{"title":"More than one race","measurements":[{"groupId":"BG000","value":"0"},{"groupId":"BG001","value":"0"},{"groupId":"BG002","value":"0"}]},{"title":"Unknown or Not Reported","measurements":[{"groupId":"BG000","value":"3"},{"groupId":"BG001","value":"6"},{"groupId":"BG002","value":"9"}]}]}]},{"title":"Eastern Cooperative Oncology Group (ECOG) Performance Status","description":"ECOG Performance Status is a 6-item scale used to assess disease progression, daily functioning, appropriate treatment, and prognosis. Performance status is scored on a scale ranging from 0-5, with (best score) 0=fully active and able to carry on all pre-disease performance without restriction and (worst score) 5=death.","paramType":"COUNT_OF_PARTICIPANTS","unitOfMeasure":"Participants","classes":[{"categories":[{"title":"0","measurements":[{"groupId":"BG000","value":"135"},{"groupId":"BG001","value":"124"},{"groupId":"BG002","value":"259"}]},{"title":"1","measurements":[{"groupId":"BG000","value":"251"},{"groupId":"BG001","value":"234"},{"groupId":"BG002","value":"485"}]},{"title":"2","measurements":[{"groupId":"BG000","value":"1"},{"groupId":"BG001","value":"3"},{"groupId":"BG002","value":"4"}]},{"title":"3","measurements":[{"groupId":"BG000","value":"1"},{"groupId":"BG001","value":"0"},{"groupId":"BG002","value":"1"}]}]}]},{"title":"Disease Stage at Study Entry","description":"Non-Small Cell Lung Cancer is categorized in 4 Stages (I-IV). I: Cancer located only in lungs and has not spread to any lymph nodes. II: Cancer in the lung and nearby lymph nodes. III: Cancer in the lung and lymph nodes in the middle of the chest. Stage III has two subtypes, IIIA (cancer has spread only to lymph nodes on the same side of the chest where the cancer started) and IIIB (cancer has spread to the lymph nodes on the opposite side of the chest, or above the collar bone). IV: Cancer has spread to both lungs, to fluid in the area around the lungs, or to another part of the body.","paramType":"COUNT_OF_PARTICIPANTS","unitOfMeasure":"Participants","classes":[{"categories":[{"title":"Stage IV","measurements":[{"groupId":"BG000","value":"367"},{"groupId":"BG001","value":"333"},{"groupId":"BG002","value":"700"}]},{"title":"Recurrent","measurements":[{"groupId":"BG000","value":"21"},{"groupId":"BG001","value":"28"},{"groupId":"BG002","value":"49"}]}]}]}]},"outcomeMeasuresModule":{"outcomeMeasures":[{"type":"PRIMARY","title":"Overall Survival (OS) in Participants Who Received at Least One Dose of Blinded Study Therapy at Primary Endpoint","description":"Overall Survival (OS) was defined as the time from randomization to the date of death. Participants that had not died were censored at last known date alive. Median OS time was calculated using Kaplan-Meier Estimates. Analysis for the Primary Endpoint occurred when the following 2 conditions were both met: (1) 518 deaths were observed in randomized participants treated with at least one dose of blinded study therapy and (2) 705 deaths were observed in all randomized participants.","populationDescription":"All treated participants who received at least one dose of blinded therapy","reportingStatus":"POSTED","paramType":"MEDIAN","dispersionType":"95% Confidence Interval","unitOfMeasure":"months","timeFrame":"Randomization until 518 deaths were observed in randomized participants treated with at least one dose of blinded study therapy and 705 deaths were observed in all randomized participants, up to June 2015 (approximately 48 months post study start)","groups":[{"id":"OG000","title":"Ipilimumab With Paclitaxel/Carboplatin","description":"Ipilimumab + Active Chemo Backbone The blinded therapy (Ipilimumab) started at the 3rd dose of active chemotherapy backbone (Paclitaxel/Carboplatin). Ipilimumab: IV solution, intravenous (IV), 10 mg/kg, 90 minute infusion, Once every 3 weeks for 4 doses and then every 12 weeks until disease progression (for a maximum treatment period of 3 years from the first dose) Active Chemo Backbone: Paclitaxel: IV solution, IV, 175 mg/m², 3 hour infusion, Once every 3 weeks for 6 doses Carboplatin: IV solution, IV, Area Under the Curve (AUC) = 6, 30 minute infusion, Once every 3 weeks for 6 doses"},{"id":"OG001","title":"Placebo With Paclitaxel/Carboplatin","description":"Placebo + Active Chemo Backbone The blinded therapy (Placebo) started at the 3rd dose of active chemotherapy backbone (Paclitaxel/Carboplatin). Placebo: IV solution, IV, 0.9% sodium chloride or 5% dextrose, 90 minute infusion, Once every 3 weeks for 4 doses and then every 12 weeks until disease progression (for a maximum treatment period of 3 years from the first dose) Active Chemo Backbone: Paclitaxel: IV solution, IV, 175 mg/m², 3 hour infusion, Once every 3 weeks for 6 doses Carboplatin: IV solution, IV, Area Under the Curve (AUC) = 6, 30 minute infusion, Once every 3 weeks for 6 doses"}],"denoms":[{"units":"Participants","counts":[{"groupId":"OG000","value":"388"},{"groupId":"OG001","value":"361"}]}],"classes":[{"categories":[{"measurements":[{"groupId":"OG000","value":"13.37","lowerLimit":"11.76","upperLimit":"14.78"},{"groupId":"OG001","value":"12.42","lowerLimit":"11.60","upperLimit":"13.63"}]}]}],"analyses":[{"groupIds":["OG000","OG001"],"groupDescription":"Hazard ratio = Ipilimumab with Paclitaxel/Carboplatin over Placebo with Paclitaxel/Carboplatin","nonInferiorityType":"SUPERIORITY_OR_OTHER_LEGACY","pValue":"0.2517","statisticalMethod":"Log Rank","statisticalComment":"p-value based on an unstratified 2-sided log rank test","paramType":"Hazard Ratio (HR)","paramValue":"0.907","ciPctValue":"95","ciNumSides":"TWO_SIDED","ciLowerLimit":"0.767","ciUpperLimit":"1.072","estimateComment":"Hazard of Ipilimumab over Hazard of Placebo with 2-sided 95% confidence intervals are based on an unstratified Cox proportional hazards model with treatment as the single covariate"}]},{"type":"SECONDARY","title":"Overall Survival (OS) in All Randomized Participants at Primary Endpoint","description":"Overall Survival (OS) was defined as the time from randomization to the date of death. Participants that had not died were censored at last known date alive. Median OS time was calculated using Kaplan-Meier Estimates. Analysis for the Primary Endpoint occurred when the following 2 conditions were both met: (1) 518 deaths were observed in randomized participants treated with at least one dose of blinded study therapy and (2) 705 deaths were observed in all randomized participants.","populationDescription":"All randomized participants","reportingStatus":"POSTED","paramType":"MEDIAN","dispersionType":"95% Confidence Interval","unitOfMeasure":"months","timeFrame":"Randomization until 518 deaths were observed in randomized participants treated with at least one dose of blinded study therapy and 705 deaths were observed in all randomized participants, up to June 2015 (approximately 48 months post study start)","groups":[{"id":"OG000","title":"Ipilimumab With Paclitaxel/Carboplatin","description":"Ipilimumab + Active Chemo Backbone The blinded therapy (Ipilimumab) started at the 3rd dose of active chemotherapy backbone (Paclitaxel/Carboplatin). Ipilimumab: IV solution, intravenous (IV), 10 mg/kg, 90 minute infusion, Once every 3 weeks for 4 doses and then every 12 weeks until disease progression (for a maximum treatment period of 3 years from the first dose) Active Chemo Backbone: Paclitaxel: IV solution, IV, 175 mg/m², 3 hour infusion, Once every 3 weeks for 6 doses Carboplatin: IV solution, IV, Area Under the Curve (AUC) = 6, 30 minute infusion, Once every 3 weeks for 6 doses"},{"id":"OG001","title":"Placebo With Paclitaxel/Carboplatin","description":"Placebo + Active Chemo Backbone The blinded therapy (Placebo) started at the 3rd dose of active chemotherapy backbone (Paclitaxel/Carboplatin). Placebo: IV solution, IV, 0.9% sodium chloride or 5% dextrose, 90 minute infusion, Once every 3 weeks for 4 doses and then every 12 weeks until disease progression (for a maximum treatment period of 3 years from the first dose) Active Chemo Backbone: Paclitaxel: IV solution, IV, 175 mg/m², 3 hour infusion, Once every 3 weeks for 6 doses Carboplatin: IV solution, IV, Area Under the Curve (AUC) = 6, 30 minute infusion, Once every 3 weeks for 6 doses"}],"denoms":[{"units":"Participants","counts":[{"groupId":"OG000","value":"479"},{"groupId":"OG001","value":"477"}]}],"classes":[{"categories":[{"measurements":[{"groupId":"OG000","value":"10.94","lowerLimit":"9.56","upperLimit":"12.02"},{"groupId":"OG001","value":"10.74","lowerLimit":"9.66","upperLimit":"11.73"}]}]}],"analyses":[{"groupIds":["OG000","OG001"],"groupDescription":"Hazard ratio = Ipilimumab with Paclitaxel/Carboplatin over Placebo with Paclitaxel/Carboplatin","nonInferiorityType":"SUPERIORITY_OR_OTHER_LEGACY","pValue":"0.2421","pValueComment":"p-value based on stratified 2-sided log-rank test","statisticalMethod":"Log Rank","paramType":"Hazard Ratio (HR)","paramValue":"0.917","ciPctValue":"95","ciNumSides":"TWO_SIDED","ciLowerLimit":"0.792","ciUpperLimit":"1.061","estimateComment":"Hazard of Ipilimumab over Placebo with 2-sided 95% confidence intervals based on a stratified Cox proportional hazards model with several stratification factors and treatment as the single covariate"}]},{"type":"SECONDARY","title":"Median Number of Months With Progression Free Survival (PFS) Per mWHO in Participants Who Have Received at Least One Dose of Blinded Study Therapy at Primary Endpoint","description":"Progression-free survival (PFS) is defined as the time between the date of randomization and the date of tumor progression per Modified World Health Organization (mWHO) criteria or death, whichever occurs first. A participant who died without reported progression per mWHO criteria were considered to have progressed on the date of death. For participants who remain alive and have not progressed, PFS was censored on the date of last evaluable tumor assessment. For participants who remain alive and have no recorded post-baseline tumor assessment, PFS was censored on the day of randomization.","populationDescription":"All treated participants who received at least one dose of blinded therapy","reportingStatus":"POSTED","paramType":"MEDIAN","dispersionType":"95% Confidence Interval","unitOfMeasure":"months","timeFrame":"Randomization until 518 deaths were observed in randomized participants treated with at least one dose of blinded study therapy and 705 deaths were observed in all randomized participants, up to June 2015 (approximately 48 months post study start)","groups":[{"id":"OG000","title":"Ipilimumab With Paclitaxel/Carboplatin","description":"Ipilimumab + Active Chemo Backbone The blinded therapy (Ipilimumab) started at the 3rd dose of active chemotherapy backbone (Paclitaxel/Carboplatin). Ipilimumab: IV solution, intravenous (IV), 10 mg/kg, 90 minute infusion, Once every 3 weeks for 4 doses and then every 12 weeks until disease progression (for a maximum treatment period of 3 years from the first dose) Active Chemotherapy Backbone: Paclitaxel: IV solution, IV, 175 mg/m², 3 hour infusion, Once every 3 weeks for 6 doses Carboplatin: IV solution, IV, Area Under the Curve (AUC) = 6, 30 minute infusion, Once every 3 weeks for 6 doses"},{"id":"OG001","title":"Placebo With Paclitaxel/Carboplatin","description":"Placebo + Active Chemo Backbone The blinded therapy (Placebo) started at the 3rd dose of active chemotherapy backbone (Paclitaxel/Carboplatin). Placebo: IV solution, IV, 0.9% sodium chloride or 5% dextrose, 90 minute infusion, Once every 3 weeks for 4 doses and then every 12 weeks until disease progression (for a maximum treatment period of 3 years from the first dose) Active Chemotherapy Backbone: Paclitaxel: IV solution, IV, 175 mg/m², 3 hour infusion, Once every 3 weeks for 6 doses Carboplatin: IV solution, IV, Area Under the Curve (AUC) = 6, 30 minute infusion, Once every 3 weeks for 6 doses"}],"denoms":[{"units":"Participants","counts":[{"groupId":"OG000","value":"388"},{"groupId":"OG001","value":"361"}]}],"classes":[{"categories":[{"measurements":[{"groupId":"OG000","value":"5.55","lowerLimit":"5.36","upperLimit":"5.85"},{"groupId":"OG001","value":"5.59","lowerLimit":"5.52","upperLimit":"5.72"}]}]}],"analyses":[{"groupIds":["OG000","OG001"],"groupDescription":"Hazard ratio = Ipilimumab with Paclitaxel/Carboplatin over Placebo with Paclitaxel/Carboplatin","nonInferiorityType":"SUPERIORITY_OR_OTHER_LEGACY","pValue":"0.0678","statisticalMethod":"Log Rank","statisticalComment":"p-value based on an unstratified 2-sided log rank test","paramType":"Hazard Ratio (HR)","paramValue":"0.869","ciPctValue":"95","ciNumSides":"TWO_SIDED","ciLowerLimit":"0.749","ciUpperLimit":"1.009","estimateComment":"Hazard of Ipilimumab over Hazard of Placebo with 2-sided 95% confidence intervals are based on an unstratified Cox proportional hazards model with treatment as the single covariate"}]}]},"adverseEventsModule":{"frequencyThreshold":"5","timeFrame":"Day of first dose to 90 days post final dose, up to August 2017 (approximately 72 months post study start)","eventGroups":[{"id":"EG000","title":"10 MG/KG Ipilimumab + Paclitaxel/ Carbop","description":"Ipilimumab + Active Chemotherapy Backbone The blinded therapy (Ipilimumab) started at the 3rd dose of active chemotherapy backbone (Paclitaxel/Carboplatin). Ipilimumab: IV solution, intravenous (IV), 10 mg/kg, 90 minute infusion, Once every 3 weeks for 4 doses and then every 12 weeks until disease progression (for a maximum treatment period of 3 years from the first dose) Active Chemo Backbone: Paclitaxel: IV solution, IV, 175 mg/m², 3 hour infusion, Once every 3 weeks for 6 doses Carboplatin: IV solution, IV, Area Under the Curve (AUC) = 6, 30 minute infusion, Once every 3 weeks for 6 doses","deathsNumAffected":359,"deathsNumAtRisk":475,"seriousNumAffected":300,"seriousNumAtRisk":475,"otherNumAffected":437,"otherNumAtRisk":475},{"id":"EG001","title":"Placebo + Paclitaxel/ Carboplatin","description":"Placebo + Active Chemotherapy Backbone The blinded therapy (Placebo) started at the 3rd dose of active chemotherapy backbone (Paclitaxel/Carboplatin). Placebo: IV solution, IV, 0.9% sodium chloride or 5% dextrose, 90 minute infusion, Once every 3 weeks for 4 doses and then every 12 weeks until disease progression (for a maximum treatment period of 3 years from the first dose) Active Chemotherapy Backbone: Paclitaxel: IV solution, IV, 175 mg/m², 3 hour infusion, Once every 3 weeks for 6 doses Carboplatin: IV solution, IV, Area Under the Curve (AUC) = 6, 30 minute infusion, Once every 3 weeks for 6 doses","deathsNumAffected":371,"deathsNumAtRisk":473,"seriousNumAffected":235,"seriousNumAtRisk":473,"otherNumAffected":428,"otherNumAtRisk":473}],"seriousEvents":[{"term":"Acute myeloid leukaemia","organSystem":"Neoplasms benign, malignant and unspecified (incl cysts and polyps)","sourceVocabulary":"MedDRA 18.0","assessmentType":"SYSTEMATIC_ASSESSMENT","stats":[{"groupId":"EG000","numAffected":0,"numAtRisk":475},{"groupId":"EG001","numAffected":1,"numAtRisk":473}]},{"term":"Anaemia","organSystem":"Blood and lymphatic system disorders","sourceVocabulary":"MedDRA 18.0","assessmentType":"SYSTEMATIC_ASSESSMENT","stats":[{"groupId":"EG000","numAffected":21,"numAtRisk":475},{"groupId":"EG001","numAffected":10,"numAtRisk":473}]},{"term":"Ankle fracture","organSystem":"Injury, poisoning and procedural complications","sourceVocabulary":"MedDRA 18.0","assessmentType":"SYSTEMATIC_ASSESSMENT","stats":[{"groupId":"EG000","numAffected":0,"numAtRisk":475},{"groupId":"EG001","numAffected":1,"numAtRisk":473}]},{"term":"Apnoea","organSystem":"Respiratory, thoracic and mediastinal disorders","sourceVocabulary":"MedDRA 18.0","assessmentType":"SYSTEMATIC_ASSESSMENT","stats":[{"groupId":"EG000","numAffected":0,"numAtRisk":475},{"groupId":"EG001","numAffected":1,"numAtRisk":473}]},{"term":"Autoimmune colitis","organSystem":"Gastrointestinal disorders","sourceVocabulary":"MedDRA 18.0","assessmentType":"SYSTEMATIC_ASSESSMENT","stats":[{"groupId":"EG000","numAffected":2,"numAtRisk":475},{"groupId":"EG001","numAffected":1,"numAtRisk":473}]},{"term":"Blood pressure decreased","organSystem":"Investigations","sourceVocabulary":"MedDRA 18.0","assessmentType":"SYSTEMATIC_ASSESSMENT","stats":[{"groupId":"EG000","numAffected":1,"numAtRisk":475},{"groupId":"EG001","numAffected":0,"numAtRisk":473}]},{"term":"Bronchitis","organSystem":"Infections and infestations","sourceVocabulary":"MedDRA 18.0","assessmentType":"SYSTEMATIC_ASSESSMENT","stats":[{"groupId":"EG000","numAffected":1,"numAtRisk":475},{"groupId":"EG001","numAffected":2,"numAtRisk":473}]},{"term":"Cholangitis acute","organSystem":"Hepatobiliary disorders","sourceVocabulary":"MedDRA 18.0","assessmentType":"SYSTEMATIC_ASSESSMENT","stats":[{"groupId":"EG000","numAffected":1,"numAtRisk":475},{"groupId":"EG001","numAffected":0,"numAtRisk":473}]},{"term":"Cholecystitis acute","organSystem":"Hepatobiliary disorders","sourceVocabulary":"MedDRA 18.0","assessmentType":"SYSTEMATIC_ASSESSMENT","stats":[{"groupId":"EG000","numAffected":0,"numAtRisk":475},{"groupId":"EG001","numAffected":1,"numAtRisk":473}]},{"term":"Chronic obstructive pulmonary disease","organSystem":"Respiratory, thoracic and mediastinal disorders","sourceVocabulary":"MedDRA 18.0","assessmentType":"SYSTEMATIC_ASSESSMENT","stats":[{"groupId":"EG000","numAffected":4,"numAtRisk":475},{"groupId":"EG001","numAffected":8,"numAtRisk":473}]},{"term":"Completed suicide","organSystem":"Psychiatric disorders","sourceVocabulary":"MedDRA 18.0","assessmentType":"SYSTEMATIC_ASSESSMENT","stats":[{"groupId":"EG000","numAffected":1,"numAtRisk":475},{"groupId":"EG001","numAffected":0,"numAtRisk":473}]},{"term":"Decreased appetite","organSystem":"Metabolism and nutrition disorders","sourceVocabulary":"MedDRA 18.0","assessmentType":"SYSTEMATIC_ASSESSMENT","stats":[{"groupId":"EG000","numAffected":1,"numAtRisk":475},{"groupId":"EG001","numAffected":3,"numAtRisk":473}]},{"term":"Depressed level of consciousness","organSystem":"Nervous system disorders","sourceVocabulary":"MedDRA 18.0","assessmentType":"SYSTEMATIC_ASSESSMENT","stats":[{"groupId":"EG000","numAffected":0,"numAtRisk":475},{"groupId":"EG001","numAffected":1,"numAtRisk":473}]},{"term":"Dermatitis","organSystem":"Skin and subcutaneous tissue disorders","sourceVocabulary":"MedDRA 18.0","assessmentType":"SYSTEMATIC_ASSESSMENT","stats":[{"groupId":"EG000","numAffected":1,"numAtRisk":475},{"groupId":"EG001","numAffected":0,"numAtRisk":473}]},{"term":"Device related infection","organSystem":"Infections and infestations","sourceVocabulary":"MedDRA 18.0","assessmentType":"SYSTEMATIC_ASSESSMENT","stats":[{"groupId":"EG000","numAffected":1,"numAtRisk":475},{"groupId":"EG001","numAffected":1,"numAtRisk":473}]},{"term":"Haemoglobin decreased","organSystem":"Investigations","sourceVocabulary":"MedDRA 18.0","assessmentType":"SYSTEMATIC_ASSESSMENT","stats":[{"groupId":"EG000","numAffected":1,"numAtRisk":475},{"groupId":"EG001","numAffected":2,"numAtRisk":473}]},{"term":"Hepatotoxicity","organSystem":"Hepatobiliary disorders","sourceVocabulary":"MedDRA 18.0","assessmentType":"SYSTEMATIC_ASSESSMENT","stats":[{"groupId":"EG000","numAffected":1,"numAtRisk":475},{"groupId":"EG001","numAffected":0,"numAtRisk":473}]},{"term":"Idiopathic pulmonary fibrosis","organSystem":"Respiratory, thoracic and mediastinal disorders","sourceVocabulary":"MedDRA 18.0","assessmentType":"SYSTEMATIC_ASSESSMENT","stats":[{"groupId":"EG000","numAffected":1,"numAtRisk":475},{"groupId":"EG001","numAffected":0,"numAtRisk":473}]},{"term":"Lung infiltration","organSystem":"Respiratory, thoracic and mediastinal disorders","sourceVocabulary":"MedDRA 18.0","assessmentType":"SYSTEMATIC_ASSESSMENT","stats":[{"groupId":"EG000","numAffected":1,"numAtRisk":475},{"groupId":"EG001","numAffected":0,"numAtRisk":473}]},{"term":"Metastases to central nervous system","organSystem":"Neoplasms benign, malignant and unspecified (incl cysts and polyps)","sourceVocabulary":"MedDRA 18.0","assessmentType":"SYSTEMATIC_ASSESSMENT","stats":[{"groupId":"EG000","numAffected":3,"numAtRisk":475},{"groupId":"EG001","numAffected":3,"numAtRisk":473}]},{"term":"Neoplasm progression","organSystem":"Neoplasms benign, malignant and unspecified (incl cysts and polyps)","sourceVocabulary":"MedDRA 18.0","assessmentType":"SYSTEMATIC_ASSESSMENT","stats":[{"groupId":"EG000","numAffected":1,"numAtRisk":475},{"groupId":"EG001","numAffected":0,"numAtRisk":473}]},{"term":"Non-small cell lung cancer","organSystem":"Neoplasms benign, malignant and unspecified (incl cysts and polyps)","sourceVocabulary":"MedDRA 18.0","assessmentType":"SYSTEMATIC_ASSESSMENT","stats":[{"groupId":"EG000","numAffected":2,"numAtRisk":475},{"groupId":"EG001","numAffected":4,"numAtRisk":473}]},{"term":"Overdose","organSystem":"Injury, poisoning and procedural complications","sourceVocabulary":"MedDRA 18.0","assessmentType":"SYSTEMATIC_ASSESSMENT","stats":[{"groupId":"EG000","numAffected":1,"numAtRisk":475},{"groupId":"EG001","numAffected":5,"numAtRisk":473}]},{"term":"Performance status decreased","organSystem":"General disorders","sourceVocabulary":"MedDRA 18.0","assessmentType":"SYSTEMATIC_ASSESSMENT","stats":[{"groupId":"EG000","numAffected":1,"numAtRisk":475},{"groupId":"EG001","numAffected":0,"numAtRisk":473}]},{"term":"Pericardial effusion","organSystem":"Cardiac disorders","sourceVocabulary":"MedDRA 18.0","assessmentType":"SYSTEMATIC_ASSESSMENT","stats":[{"groupId":"EG000","numAffected":0,"numAtRisk":475},{"groupId":"EG001","numAffected":1,"numAtRisk":473}]},{"term":"Peripheral sensory neuropathy","organSystem":"Nervous system disorders","sourceVocabulary":"MedDRA 18.0","assessmentType":"SYSTEMATIC_ASSESSMENT","stats":[{"groupId":"EG000","numAffected":1,"numAtRisk":475},{"groupId":"EG001","numAffected":0,"numAtRisk":473}]},{"term":"Pneumonia aspiration","organSystem":"Respiratory, thoracic and mediastinal disorders","sourceVocabulary":"MedDRA 18.0","assessmentType":"SYSTEMATIC_ASSESSMENT","stats":[{"groupId":"EG000","numAffected":1,"numAtRisk":475},{"groupId":"EG001","numAffected":0,"numAtRisk":473}]},{"term":"Pneumonia bacterial","organSystem":"Infections and infestations","sourceVocabulary":"MedDRA 18.0","assessmentType":"SYSTEMATIC_ASSESSMENT","stats":[{"groupId":"EG000","numAffected":1,"numAtRisk":475},{"groupId":"EG001","numAffected":0,"numAtRisk":473}]},{"term":"Post procedural complication","organSystem":"Injury, poisoning and procedural complications","sourceVocabulary":"MedDRA 18.0","assessmentType":"SYSTEMATIC_ASSESSMENT","stats":[{"groupId":"EG000","numAffected":1,"numAtRisk":475},{"groupId":"EG001","numAffected":0,"numAtRisk":473}]},{"term":"Respiratory distress","organSystem":"Respiratory, thoracic and mediastinal disorders","sourceVocabulary":"MedDRA 18.0","assessmentType":"SYSTEMATIC_ASSESSMENT","stats":[{"groupId":"EG000","numAffected":1,"numAtRisk":475},{"groupId":"EG001","numAffected":1,"numAtRisk":473}]},{"term":"Spinal cord paralysis","organSystem":"Nervous system disorders","sourceVocabulary":"MedDRA 18.0","assessmentType":"SYSTEMATIC_ASSESSMENT","stats":[{"groupId":"EG000","numAffected":1,"numAtRisk":475},{"groupId":"EG001","numAffected":0,"numAtRisk":473}]},{"term":"Swelling face","organSystem":"Skin and subcutaneous tissue disorders","sourceVocabulary":"MedDRA 18.0","assessmentType":"SYSTEMATIC_ASSESSMENT","stats":[{"groupId":"EG000","numAffected":1,"numAtRisk":475},{"groupId":"EG001","numAffected":0,"numAtRisk":473}]},{"term":"White blood cell count decreased","organSystem":"Investigations","sourceVocabulary":"MedDRA 18.0","assessmentType":"SYSTEMATIC_ASSESSMENT","stats":[{"groupId":"EG000","numAffected":0,"numAtRisk":475},{"groupId":"EG001","numAffected":1,"numAtRisk":473}]},{"term":"Angina pectoris","organSystem":"Cardiac disorders","sourceVocabulary":"MedDRA 18.0","assessmentType":"SYSTEMATIC_ASSESSMENT","stats":[{"groupId":"EG000","numAffected":0,"numAtRisk":475},{"groupId":"EG001","numAffected":1,"numAtRisk":473}]},{"term":"Asbestosis","organSystem":"Injury, poisoning and procedural complications","sourceVocabulary":"MedDRA 18.0","assessmentType":"SYSTEMATIC_ASSESSMENT","stats":[{"groupId":"EG000","numAffected":0,"numAtRisk":475},{"groupId":"EG001","numAffected":1,"numAtRisk":473}]},{"term":"Aspartate aminotransferase increased","organSystem":"Investigations","sourceVocabulary":"MedDRA 18.0","assessmentType":"SYSTEMATIC_ASSESSMENT","stats":[{"groupId":"EG000","numAffected":1,"numAtRisk":475},{"groupId":"EG001","numAffected":0,"numAtRisk":473}]},{"term":"Asthenia","organSystem":"General disorders","sourceVocabulary":"MedDRA 18.0","assessmentType":"SYSTEMATIC_ASSESSMENT","stats":[{"groupId":"EG000","numAffected":5,"numAtRisk":475},{"groupId":"EG001","numAffected":7,"numAtRisk":473}]},{"term":"Atrial flutter","organSystem":"Cardiac disorders","sourceVocabulary":"MedDRA 18.0","assessmentType":"SYSTEMATIC_ASSESSMENT","stats":[{"groupId":"EG000","numAffected":1,"numAtRisk":475},{"groupId":"EG001","numAffected":1,"numAtRisk":473}]},{"term":"Bile duct stenosis","organSystem":"Hepatobiliary disorders","sourceVocabulary":"MedDRA 18.0","assessmentType":"SYSTEMATIC_ASSESSMENT","stats":[{"groupId":"EG000","numAffected":1,"numAtRisk":475},{"groupId":"EG001","numAffected":0,"numAtRisk":473}]},{"term":"Blood creatinine increased","organSystem":"Investigations","sourceVocabulary":"MedDRA 18.0","assessmentType":"SYSTEMATIC_ASSESSMENT","stats":[{"groupId":"EG000","numAffected":5,"numAtRisk":475},{"groupId":"EG001","numAffected":0,"numAtRisk":473}]},{"term":"Blood thyroid stimulating hormone decreased","organSystem":"Investigations","sourceVocabulary":"MedDRA 18.0","assessmentType":"SYSTEMATIC_ASSESSMENT","stats":[{"groupId":"EG000","numAffected":1,"numAtRisk":475},{"groupId":"EG001","numAffected":0,"numAtRisk":473}]},{"term":"Bone marrow failure","organSystem":"Blood and lymphatic system disorders","sourceVocabulary":"MedDRA 18.0","assessmentType":"SYSTEMATIC_ASSESSMENT","stats":[{"groupId":"EG000","numAffected":2,"numAtRisk":475},{"groupId":"EG001","numAffected":1,"numAtRisk":473}]},{"term":"Bone pain","organSystem":"Musculoskeletal and connective tissue disorders","sourceVocabulary":"MedDRA 18.0","assessmentType":"SYSTEMATIC_ASSESSMENT","stats":[{"groupId":"EG000","numAffected":0,"numAtRisk":475},{"groupId":"EG001","numAffected":1,"numAtRisk":473}]},{"term":"Cardiac tamponade","organSystem":"Cardiac disorders","sourceVocabulary":"MedDRA 18.0","assessmentType":"SYSTEMATIC_ASSESSMENT","stats":[{"groupId":"EG000","numAffected":0,"numAtRisk":475},{"groupId":"EG001","numAffected":1,"numAtRisk":473}]},{"term":"Cerebral infarction","organSystem":"Nervous system disorders","sourceVocabulary":"MedDRA 18.0","assessmentType":"SYSTEMATIC_ASSESSMENT","stats":[{"groupId":"EG000","numAffected":0,"numAtRisk":475},{"groupId":"EG001","numAffected":1,"numAtRisk":473}]},{"term":"Chest pain","organSystem":"General disorders","sourceVocabulary":"MedDRA 18.0","assessmentType":"SYSTEMATIC_ASSESSMENT","stats":[{"groupId":"EG000","numAffected":1,"numAtRisk":475},{"groupId":"EG001","numAffected":4,"numAtRisk":473}]},{"term":"Cholestasis","organSystem":"Hepatobiliary disorders","sourceVocabulary":"MedDRA 18.0","assessmentType":"SYSTEMATIC_ASSESSMENT","stats":[{"groupId":"EG000","numAffected":0,"numAtRisk":475},{"groupId":"EG001","numAffected":1,"numAtRisk":473}]},{"term":"Colitis","organSystem":"Gastrointestinal disorders","sourceVocabulary":"MedDRA 18.0","assessmentType":"SYSTEMATIC_ASSESSMENT","stats":[{"groupId":"EG000","numAffected":14,"numAtRisk":475},{"groupId":"EG001","numAffected":2,"numAtRisk":473}]},{"term":"Colorectal cancer","organSystem":"Neoplasms benign, malignant and unspecified (incl cysts and polyps)","sourceVocabulary":"MedDRA 18.0","assessmentType":"SYSTEMATIC_ASSESSMENT","stats":[{"groupId":"EG000","numAffected":1,"numAtRisk":475},{"groupId":"EG001","numAffected":0,"numAtRisk":473}]},{"term":"Device dislocation","organSystem":"General disorders","sourceVocabulary":"MedDRA 18.0","assessmentType":"SYSTEMATIC_ASSESSMENT","stats":[{"groupId":"EG000","numAffected":1,"numAtRisk":475},{"groupId":"EG001","numAffected":0,"numAtRisk":473}]},{"term":"Diverticular perforation","organSystem":"Gastrointestinal disorders","sourceVocabulary":"MedDRA 18.0","assessmentType":"SYSTEMATIC_ASSESSMENT","stats":[{"groupId":"EG000","numAffected":1,"numAtRisk":475},{"groupId":"EG001","numAffected":0,"numAtRisk":473}]},{"term":"Diverticulitis","organSystem":"Infections and infestations","sourceVocabulary":"MedDRA 18.0","assessmentType":"SYSTEMATIC_ASSESSMENT","stats":[{"groupId":"EG000","numAffected":1,"numAtRisk":475},{"groupId":"EG001","numAffected":0,"numAtRisk":473}]},{"term":"Dysuria","organSystem":"Renal and urinary disorders","sourceVocabulary":"MedDRA 18.0","assessmentType":"SYSTEMATIC_ASSESSMENT","stats":[{"groupId":"EG000","numAffected":1,"numAtRisk":475},{"groupId":"EG001","numAffected":0,"numAtRisk":473}]},{"term":"Embolism venous","organSystem":"Vascular disorders","sourceVocabulary":"MedDRA 18.0","assessmentType":"SYSTEMATIC_ASSESSMENT","stats":[{"groupId":"EG000","numAffected":0,"numAtRisk":475},{"groupId":"EG001","numAffected":1,"numAtRisk":473}]},{"term":"Encephalopathy","organSystem":"Nervous system disorders","sourceVocabulary":"MedDRA 18.0","assessmentType":"SYSTEMATIC_ASSESSMENT","stats":[{"groupId":"EG000","numAffected":0,"numAtRisk":475},{"groupId":"EG001","numAffected":1,"numAtRisk":473}]},{"term":"Exfoliative rash","organSystem":"Skin and subcutaneous tissue disorders","sourceVocabulary":"MedDRA 18.0","assessmentType":"SYSTEMATIC_ASSESSMENT","stats":[{"groupId":"EG000","numAffected":1,"numAtRisk":475},{"groupId":"EG001","numAffected":0,"numAtRisk":473}]},{"term":"Femur fracture","organSystem":"Injury, poisoning and procedural complications","sourceVocabulary":"MedDRA 18.0","assessmentType":"SYSTEMATIC_ASSESSMENT","stats":[{"groupId":"EG000","numAffected":0,"numAtRisk":475},{"groupId":"EG001","numAffected":1,"numAtRisk":473}]},{"term":"General physical health deterioration","organSystem":"General disorders","sourceVocabulary":"MedDRA 18.0","assessmentType":"SYSTEMATIC_ASSESSMENT","stats":[{"groupId":"EG000","numAffected":7,"numAtRisk":475},{"groupId":"EG001","numAffected":10,"numAtRisk":473}]},{"term":"Haematemesis","organSystem":"Gastrointestinal disorders","sourceVocabulary":"MedDRA 18.0","assessmentType":"SYSTEMATIC_ASSESSMENT","stats":[{"groupId":"EG000","numAffected":0,"numAtRisk":475},{"groupId":"EG001","numAffected":1,"numAtRisk":473}]},{"term":"Hemiparesis","organSystem":"Nervous system disorders","sourceVocabulary":"MedDRA 18.0","assessmentType":"SYSTEMATIC_ASSESSMENT","stats":[{"groupId":"EG000","numAffected":1,"numAtRisk":475},{"groupId":"EG001","numAffected":1,"numAtRisk":473}]},{"term":"Hepatic function abnormal","organSystem":"Hepatobiliary disorders","sourceVocabulary":"MedDRA 18.0","assessmentType":"SYSTEMATIC_ASSESSMENT","stats":[{"groupId":"EG000","numAffected":1,"numAtRisk":475},{"groupId":"EG001","numAffected":0,"numAtRisk":473}]},{"term":"Hepatocellular injury","organSystem":"Hepatobiliary disorders","sourceVocabulary":"MedDRA 18.0","assessmentType":"SYSTEMATIC_ASSESSMENT","stats":[{"groupId":"EG000","numAffected":1,"numAtRisk":475},{"groupId":"EG001","numAffected":0,"numAtRisk":473}]},{"term":"Hiccups","organSystem":"Respiratory, thoracic and mediastinal disorders","sourceVocabulary":"MedDRA 18.0","assessmentType":"SYSTEMATIC_ASSESSMENT","stats":[{"groupId":"EG000","numAffected":1,"numAtRisk":475},{"groupId":"EG001","numAffected":0,"numAtRisk":473}]},{"term":"Hypersensitivity","organSystem":"Immune system disorders","sourceVocabulary":"MedDRA 18.0","assessmentType":"SYSTEMATIC_ASSESSMENT","stats":[{"groupId":"EG000","numAffected":3,"numAtRisk":475},{"groupId":"EG001","numAffected":1,"numAtRisk":473}]},{"term":"Liver disorder","organSystem":"Hepatobiliary disorders","sourceVocabulary":"MedDRA 18.0","assessmentType":"SYSTEMATIC_ASSESSMENT","stats":[{"groupId":"EG000","numAffected":0,"numAtRisk":475},{"groupId":"EG001","numAffected":1,"numAtRisk":473}]},{"term":"Lobar pneumonia","organSystem":"Infections and infestations","sourceVocabulary":"MedDRA 18.0","assessmentType":"SYSTEMATIC_ASSESSMENT","stats":[{"groupId":"EG000","numAffected":1,"numAtRisk":475},{"groupId":"EG001","numAffected":1,"numAtRisk":473}]},{"term":"Malignant neoplasm progression","organSystem":"Neoplasms benign, malignant and unspecified (incl cysts and polyps)","sourceVocabulary":"MedDRA 18.0","assessmentType":"SYSTEMATIC_ASSESSMENT","stats":[{"groupId":"EG000","numAffected":35,"numAtRisk":475},{"groupId":"EG001","numAffected":37,"numAtRisk":473}]},{"term":"Pancytopenia","organSystem":"Blood and lymphatic system disorders","sourceVocabulary":"MedDRA 18.0","assessmentType":"SYSTEMATIC_ASSESSMENT","stats":[{"groupId":"EG000","numAffected":1,"numAtRisk":475},{"groupId":"EG001","numAffected":0,"numAtRisk":473}]},{"term":"Paraesthesia","organSystem":"Nervous system disorders","sourceVocabulary":"MedDRA 18.0","assessmentType":"SYSTEMATIC_ASSESSMENT","stats":[{"groupId":"EG000","numAffected":0,"numAtRisk":475},{"groupId":"EG001","numAffected":1,"numAtRisk":473}]},{"term":"Pathological fracture","organSystem":"Musculoskeletal and connective tissue disorders","sourceVocabulary":"MedDRA 18.0","assessmentType":"SYSTEMATIC_ASSESSMENT","stats":[{"groupId":"EG000","numAffected":1,"numAtRisk":475},{"groupId":"EG001","numAffected":3,"numAtRisk":473}]},{"term":"Peripheral ischaemia","organSystem":"Vascular disorders","sourceVocabulary":"MedDRA 18.0","assessmentType":"SYSTEMATIC_ASSESSMENT","stats":[{"groupId":"EG000","numAffected":1,"numAtRisk":475},{"groupId":"EG001","numAffected":0,"numAtRisk":473}]},{"term":"Portal vein thrombosis","organSystem":"Hepatobiliary disorders","sourceVocabulary":"MedDRA 18.0","assessmentType":"SYSTEMATIC_ASSESSMENT","stats":[{"groupId":"EG000","numAffected":1,"numAtRisk":475},{"groupId":"EG001","numAffected":0,"numAtRisk":473}]},{"term":"Pulmonary infarction","organSystem":"Respiratory, thoracic and mediastinal disorders","sourceVocabulary":"MedDRA 18.0","assessmentType":"SYSTEMATIC_ASSESSMENT","stats":[{"groupId":"EG000","numAffected":0,"numAtRisk":475},{"groupId":"EG001","numAffected":1,"numAtRisk":473}]},{"term":"Pupils unequal","organSystem":"Eye disorders","sourceVocabulary":"MedDRA 18.0","assessmentType":"SYSTEMATIC_ASSESSMENT","stats":[{"groupId":"EG000","numAffected":1,"numAtRisk":475},{"groupId":"EG001","numAffected":0,"numAtRisk":473}]},{"term":"Staphylococcal infection","organSystem":"Infections and infestations","sourceVocabulary":"MedDRA 18.0","assessmentType":"SYSTEMATIC_ASSESSMENT","stats":[{"groupId":"EG000","numAffected":0,"numAtRisk":475},{"groupId":"EG001","numAffected":1,"numAtRisk":473}]},{"term":"Suicide attempt","organSystem":"Psychiatric disorders","sourceVocabulary":"MedDRA 18.0","assessmentType":"SYSTEMATIC_ASSESSMENT","stats":[{"groupId":"EG000","numAffected":0,"numAtRisk":475},{"groupId":"EG001","numAffected":1,"numAtRisk":473}]},{"term":"Superior vena cava syndrome","organSystem":"Vascular disorders","sourceVocabulary":"MedDRA 18.0","assessmentType":"SYSTEMATIC_ASSESSMENT","stats":[{"groupId":"EG000","numAffected":1,"numAtRisk":475},{"groupId":"EG001","numAffected":1,"numAtRisk":473}]},{"term":"Swelling","organSystem":"General disorders","sourceVocabulary":"MedDRA 18.0","assessmentType":"SYSTEMATIC_ASSESSMENT","stats":[{"groupId":"EG000","numAffected":1,"numAtRisk":475},{"groupId":"EG001","numAffected":0,"numAtRisk":473}]},{"term":"Tachycardia","organSystem":"Cardiac disorders","sourceVocabulary":"MedDRA 18.0","assessmentType":"SYSTEMATIC_ASSESSMENT","stats":[{"groupId":"EG000","numAffected":1,"numAtRisk":475},{"groupId":"EG001","numAffected":1,"numAtRisk":473}]},{"term":"Toxicity to various agents","organSystem":"Injury, poisoning and procedural complications","sourceVocabulary":"MedDRA 18.0","assessmentType":"SYSTEMATIC_ASSESSMENT","stats":[{"groupId":"EG000","numAffected":1,"numAtRisk":475},{"groupId":"EG001","numAffected":0,"numAtRisk":473}]},{"term":"Upper respiratory tract infection","organSystem":"Infections and infestations","sourceVocabulary":"MedDRA 18.0","assessmentType":"SYSTEMATIC_ASSESSMENT","stats":[{"groupId":"EG000","numAffected":1,"numAtRisk":475},{"groupId":"EG001","numAffected":2,"numAtRisk":473}]},{"term":"Ventricular fibrillation","organSystem":"Cardiac disorders","sourceVocabulary":"MedDRA 18.0","assessmentType":"SYSTEMATIC_ASSESSMENT","stats":[{"groupId":"EG000","numAffected":0,"numAtRisk":475},{"groupId":"EG001","numAffected":1,"numAtRisk":473}]},{"term":"Weight decreased","organSystem":"Investigations","sourceVocabulary":"MedDRA 18.0","assessmentType":"SYSTEMATIC_ASSESSMENT","stats":[{"groupId":"EG000","numAffected":1,"numAtRisk":475},{"groupId":"EG001","numAffected":0,"numAtRisk":473}]},{"term":"Acute pulmonary oedema","organSystem":"Respiratory, thoracic and mediastinal disorders","sourceVocabulary":"MedDRA 18.0","assessmentType":"SYSTEMATIC_ASSESSMENT","stats":[{"groupId":"EG000","numAffected":0,"numAtRisk":475},{"groupId":"EG001","numAffected":1,"numAtRisk":473}]},{"term":"Agranulocytosis","organSystem":"Blood and lymphatic system disorders","sourceVocabulary":"MedDRA 18.0","assessmentType":"SYSTEMATIC_ASSESSMENT","stats":[{"groupId":"EG000","numAffected":1,"numAtRisk":475},{"groupId":"EG001","numAffected":0,"numAtRisk":473}]},{"term":"Arrhythmia","organSystem":"Cardiac disorders","sourceVocabulary":"MedDRA 18.0","assessmentType":"SYSTEMATIC_ASSESSMENT","stats":[{"groupId":"EG000","numAffected":1,"numAtRisk":475},{"groupId":"EG001","numAffected":0,"numAtRisk":473}]},{"term":"Atrial fibrillation","organSystem":"Cardiac disorders","sourceVocabulary":"MedDRA 18.0","assessmentType":"SYSTEMATIC_ASSESSMENT","stats":[{"groupId":"EG000","numAffected":5,"numAtRisk":475},{"groupId":"EG001","numAffected":8,"numAtRisk":473}]},{"term":"Bronchial disorder","organSystem":"Respiratory, thoracic and mediastinal disorders","sourceVocabulary":"MedDRA 18.0","assessmentType":"SYSTEMATIC_ASSESSMENT","stats":[{"groupId":"EG000","numAffected":0,"numAtRisk":475},{"groupId":"EG001","numAffected":1,"numAtRisk":473}]},{"term":"Bronchostenosis","organSystem":"Respiratory, thoracic and mediastinal disorders","sourceVocabulary":"MedDRA 18.0","assessmentType":"SYSTEMATIC_ASSESSMENT","stats":[{"groupId":"EG000","numAffected":1,"numAtRisk":475},{"groupId":"EG001","numAffected":0,"numAtRisk":473}]},{"term":"Cardiac failure","organSystem":"Cardiac disorders","sourceVocabulary":"MedDRA 18.0","assessmentType":"SYSTEMATIC_ASSESSMENT","stats":[{"groupId":"EG000","numAffected":1,"numAtRisk":475},{"groupId":"EG001","numAffected":3,"numAtRisk":473}]},{"term":"Cardio-respiratory arrest","organSystem":"Cardiac disorders","sourceVocabulary":"MedDRA 18.0","assessmentType":"SYSTEMATIC_ASSESSMENT","stats":[{"groupId":"EG000","numAffected":5,"numAtRisk":475},{"groupId":"EG001","numAffected":2,"numAtRisk":473}]},{"term":"Cardiovascular insufficiency","organSystem":"Cardiac disorders","sourceVocabulary":"MedDRA 18.0","assessmentType":"SYSTEMATIC_ASSESSMENT","stats":[{"groupId":"EG000","numAffected":1,"numAtRisk":475},{"groupId":"EG001","numAffected":0,"numAtRisk":473}]},{"term":"Confusional state","organSystem":"Psychiatric disorders","sourceVocabulary":"MedDRA 18.0","assessmentType":"SYSTEMATIC_ASSESSMENT","stats":[{"groupId":"EG000","numAffected":3,"numAtRisk":475},{"groupId":"EG001","numAffected":0,"numAtRisk":473}]},{"term":"Crohn's disease","organSystem":"Gastrointestinal disorders","sourceVocabulary":"MedDRA 18.0","assessmentType":"SYSTEMATIC_ASSESSMENT","stats":[{"groupId":"EG000","numAffected":1,"numAtRisk":475},{"groupId":"EG001","numAffected":0,"numAtRisk":473}]},{"term":"Dermatitis acneiform","organSystem":"Skin and subcutaneous tissue disorders","sourceVocabulary":"MedDRA 18.0","assessmentType":"SYSTEMATIC_ASSESSMENT","stats":[{"groupId":"EG000","numAffected":1,"numAtRisk":475},{"groupId":"EG001","numAffected":0,"numAtRisk":473}]},{"term":"Disease progression","organSystem":"General disorders","sourceVocabulary":"MedDRA 18.0","assessmentType":"SYSTEMATIC_ASSESSMENT","stats":[{"groupId":"EG000","numAffected":4,"numAtRisk":475},{"groupId":"EG001","numAffected":5,"numAtRisk":473}]},{"term":"Fulminant type 1 diabetes mellitus","organSystem":"Metabolism and nutrition disorders","sourceVocabulary":"MedDRA 18.0","assessmentType":"SYSTEMATIC_ASSESSMENT","stats":[{"groupId":"EG000","numAffected":1,"numAtRisk":475},{"groupId":"EG001","numAffected":0,"numAtRisk":473}]},{"term":"Headache","organSystem":"Nervous system disorders","sourceVocabulary":"MedDRA 18.0","assessmentType":"SYSTEMATIC_ASSESSMENT","stats":[{"groupId":"EG000","numAffected":0,"numAtRisk":475},{"groupId":"EG001","numAffected":1,"numAtRisk":473}]},{"term":"Hip fracture","organSystem":"Injury, poisoning and procedural complications","sourceVocabulary":"MedDRA 18.0","assessmentType":"SYSTEMATIC_ASSESSMENT","stats":[{"groupId":"EG000","numAffected":0,"numAtRisk":475},{"groupId":"EG001","numAffected":1,"numAtRisk":473}]},{"term":"Hydrocholecystis","organSystem":"Hepatobiliary disorders","sourceVocabulary":"MedDRA 18.0","assessmentType":"SYSTEMATIC_ASSESSMENT","stats":[{"groupId":"EG000","numAffected":0,"numAtRisk":475},{"groupId":"EG001","numAffected":1,"numAtRisk":473}]},{"term":"Hypertension","organSystem":"Vascular disorders","sourceVocabulary":"MedDRA 18.0","assessmentType":"SYSTEMATIC_ASSESSMENT","stats":[{"groupId":"EG000","numAffected":2,"numAtRisk":475},{"groupId":"EG001","numAffected":0,"numAtRisk":473}]},{"term":"Hypoglycaemia","organSystem":"Metabolism and nutrition disorders","sourceVocabulary":"MedDRA 18.0","assessmentType":"SYSTEMATIC_ASSESSMENT","stats":[{"groupId":"EG000","numAffected":0,"numAtRisk":475},{"groupId":"EG001","numAffected":1,"numAtRisk":473}]},{"term":"Hypophysitis","organSystem":"Endocrine disorders","sourceVocabulary":"MedDRA 18.0","assessmentType":"SYSTEMATIC_ASSESSMENT","stats":[{"groupId":"EG000","numAffected":2,"numAtRisk":475},{"groupId":"EG001","numAffected":0,"numAtRisk":473}]},{"term":"Ileal perforation","organSystem":"Gastrointestinal disorders","sourceVocabulary":"MedDRA 18.0","assessmentType":"SYSTEMATIC_ASSESSMENT","stats":[{"groupId":"EG000","numAffected":1,"numAtRisk":475},{"groupId":"EG001","numAffected":0,"numAtRisk":473}]},{"term":"Intestinal perforation","organSystem":"Gastrointestinal disorders","sourceVocabulary":"MedDRA 18.0","assessmentType":"SYSTEMATIC_ASSESSMENT","stats":[{"groupId":"EG000","numAffected":3,"numAtRisk":475},{"groupId":"EG001","numAffected":0,"numAtRisk":473}]},{"term":"Leukopenia","organSystem":"Blood and lymphatic system disorders","sourceVocabulary":"MedDRA 18.0","assessmentType":"SYSTEMATIC_ASSESSMENT","stats":[{"groupId":"EG000","numAffected":3,"numAtRisk":475},{"groupId":"EG001","numAffected":5,"numAtRisk":473}]},{"term":"Nasopharyngitis","organSystem":"Infections and infestations","sourceVocabulary":"MedDRA 18.0","assessmentType":"SYSTEMATIC_ASSESSMENT","stats":[{"groupId":"EG000","numAffected":1,"numAtRisk":475},{"groupId":"EG001","numAffected":0,"numAtRisk":473}]},{"term":"Neuroendocrine carcinoma","organSystem":"Neoplasms benign, malignant and unspecified (incl cysts and polyps)","sourceVocabulary":"MedDRA 18.0","assessmentType":"SYSTEMATIC_ASSESSMENT","stats":[{"groupId":"EG000","numAffected":1,"numAtRisk":475},{"groupId":"EG001","numAffected":0,"numAtRisk":473}]},{"term":"Peripheral embolism","organSystem":"Vascular disorders","sourceVocabulary":"MedDRA 18.0","assessmentType":"SYSTEMATIC_ASSESSMENT","stats":[{"groupId":"EG000","numAffected":0,"numAtRisk":475},{"groupId":"EG001","numAffected":1,"numAtRisk":473}]},{"term":"Pulmonary embolism","organSystem":"Respiratory, thoracic and mediastinal disorders","sourceVocabulary":"MedDRA 18.0","assessmentType":"SYSTEMATIC_ASSESSMENT","stats":[{"groupId":"EG000","numAffected":11,"numAtRisk":475},{"groupId":"EG001","numAffected":10,"numAtRisk":473}]},{"term":"Pulmonary haemorrhage","organSystem":"Respiratory, thoracic and mediastinal disorders","sourceVocabulary":"MedDRA 18.0","assessmentType":"SYSTEMATIC_ASSESSMENT","stats":[{"groupId":"EG000","numAffected":4,"numAtRisk":475},{"groupId":"EG001","numAffected":3,"numAtRisk":473}]},{"term":"Pulmonary sepsis","organSystem":"Infections and infestations","sourceVocabulary":"MedDRA 18.0","assessmentType":"SYSTEMATIC_ASSESSMENT","stats":[{"groupId":"EG000","numAffected":1,"numAtRisk":475},{"groupId":"EG001","numAffected":0,"numAtRisk":473}]},{"term":"Pulmonary tuberculosis","organSystem":"Infections and infestations","sourceVocabulary":"MedDRA 18.0","assessmentType":"SYSTEMATIC_ASSESSMENT","stats":[{"groupId":"EG000","numAffected":1,"numAtRisk":475},{"groupId":"EG001","numAffected":0,"numAtRisk":473}]},{"term":"Radiation pneumonitis","organSystem":"Injury, poisoning and procedural complications","sourceVocabulary":"MedDRA 18.0","assessmentType":"SYSTEMATIC_ASSESSMENT","stats":[{"groupId":"EG000","numAffected":0,"numAtRisk":475},{"groupId":"EG001","numAffected":1,"numAtRisk":473}]},{"term":"Shock haemorrhagic","organSystem":"Vascular disorders","sourceVocabulary":"MedDRA 18.0","assessmentType":"SYSTEMATIC_ASSESSMENT","stats":[{"groupId":"EG000","numAffected":1,"numAtRisk":475},{"groupId":"EG001","numAffected":0,"numAtRisk":473}]},{"term":"Skin ulcer","organSystem":"Skin and subcutaneous tissue disorders","sourceVocabulary":"MedDRA 18.0","assessmentType":"SYSTEMATIC_ASSESSMENT","stats":[{"groupId":"EG000","numAffected":0,"numAtRisk":475},{"groupId":"EG001","numAffected":1,"numAtRisk":473}]},{"term":"Tachypnoea","organSystem":"Respiratory, thoracic and mediastinal disorders","sourceVocabulary":"MedDRA 18.0","assessmentType":"SYSTEMATIC_ASSESSMENT","stats":[{"groupId":"EG000","numAffected":1,"numAtRisk":475},{"groupId":"EG001","numAffected":0,"numAtRisk":473}]},{"term":"Thrombocytopenia","organSystem":"Blood and lymphatic system disorders","sourceVocabulary":"MedDRA 18.0","assessmentType":"SYSTEMATIC_ASSESSMENT","stats":[{"groupId":"EG000","numAffected":7,"numAtRisk":475},{"groupId":"EG001","numAffected":11,"numAtRisk":473}]},{"term":"Traumatic haemorrhage","organSystem":"Injury, poisoning and procedural complications","sourceVocabulary":"MedDRA 18.0","assessmentType":"SYSTEMATIC_ASSESSMENT","stats":[{"groupId":"EG000","numAffected":0,"numAtRisk":475},{"groupId":"EG001","numAffected":1,"numAtRisk":473}]},{"term":"Viraemia","organSystem":"Infections and infestations","sourceVocabulary":"MedDRA 18.0","assessmentType":"SYSTEMATIC_ASSESSMENT","stats":[{"groupId":"EG000","numAffected":1,"numAtRisk":475},{"groupId":"EG001","numAffected":0,"numAtRisk":473}]},{"term":"Acute respiratory failure","organSystem":"Respiratory, thoracic and mediastinal disorders","sourceVocabulary":"MedDRA 18.0","assessmentType":"SYSTEMATIC_ASSESSMENT","stats":[{"groupId":"EG000","numAffected":0,"numAtRisk":475},{"groupId":"EG001","numAffected":3,"numAtRisk":473}]},{"term":"Adrenocortical insufficiency acute","organSystem":"Endocrine disorders","sourceVocabulary":"MedDRA 18.0","assessmentType":"SYSTEMATIC_ASSESSMENT","stats":[{"groupId":"EG000","numAffected":1,"numAtRisk":475},{"groupId":"EG001","numAffected":0,"numAtRisk":473}]},{"term":"Brain oedema","organSystem":"Nervous system disorders","sourceVocabulary":"MedDRA 18.0","assessmentType":"SYSTEMATIC_ASSESSMENT","stats":[{"groupId":"EG000","numAffected":0,"numAtRisk":475},{"groupId":"EG001","numAffected":1,"numAtRisk":473}]},{"term":"Bronchopneumonia","organSystem":"Infections and infestations","sourceVocabulary":"MedDRA 18.0","assessmentType":"SYSTEMATIC_ASSESSMENT","stats":[{"groupId":"EG000","numAffected":1,"numAtRisk":475},{"groupId":"EG001","numAffected":2,"numAtRisk":473}]},{"term":"Bronchospasm","organSystem":"Respiratory, thoracic and mediastinal disorders","sourceVocabulary":"MedDRA 18.0","assessmentType":"SYSTEMATIC_ASSESSMENT","stats":[{"groupId":"EG000","numAffected":1,"numAtRisk":475},{"groupId":"EG001","numAffected":0,"numAtRisk":473}]},{"term":"Cervical radiculopathy","organSystem":"Nervous system disorders","sourceVocabulary":"MedDRA 18.0","assessmentType":"SYSTEMATIC_ASSESSMENT","stats":[{"groupId":"EG000","numAffected":0,"numAtRisk":475},{"groupId":"EG001","numAffected":1,"numAtRisk":473}]},{"term":"Contusion","organSystem":"Injury, poisoning and procedural complications","sourceVocabulary":"MedDRA 18.0","assessmentType":"SYSTEMATIC_ASSESSMENT","stats":[{"groupId":"EG000","numAffected":1,"numAtRisk":475},{"groupId":"EG001","numAffected":0,"numAtRisk":473}]},{"term":"Death","organSystem":"General disorders","sourceVocabulary":"MedDRA 18.0","assessmentType":"SYSTEMATIC_ASSESSMENT","stats":[{"groupId":"EG000","numAffected":10,"numAtRisk":475},{"groupId":"EG001","numAffected":7,"numAtRisk":473}]},{"term":"Drug hypersensitivity","organSystem":"Immune system disorders","sourceVocabulary":"MedDRA 18.0","assessmentType":"SYSTEMATIC_ASSESSMENT","stats":[{"groupId":"EG000","numAffected":3,"numAtRisk":475},{"groupId":"EG001","numAffected":1,"numAtRisk":473}]},{"term":"Empyema","organSystem":"Infections and infestations","sourceVocabulary":"MedDRA 18.0","assessmentType":"SYSTEMATIC_ASSESSMENT","stats":[{"groupId":"EG000","numAffected":1,"numAtRisk":475},{"groupId":"EG001","numAffected":0,"numAtRisk":473}]},{"term":"Erythema multiforme","organSystem":"Skin and subcutaneous tissue disorders","sourceVocabulary":"MedDRA 18.0","assessmentType":"SYSTEMATIC_ASSESSMENT","stats":[{"groupId":"EG000","numAffected":1,"numAtRisk":475},{"groupId":"EG001","numAffected":0,"numAtRisk":473}]},{"term":"Extravasation","organSystem":"General disorders","sourceVocabulary":"MedDRA 18.0","assessmentType":"SYSTEMATIC_ASSESSMENT","stats":[{"groupId":"EG000","numAffected":1,"numAtRisk":475},{"groupId":"EG001","numAffected":0,"numAtRisk":473}]},{"term":"Gastroenteritis rotavirus","organSystem":"Infections and infestations","sourceVocabulary":"MedDRA 18.0","assessmentType":"SYSTEMATIC_ASSESSMENT","stats":[{"groupId":"EG000","numAffected":0,"numAtRisk":475},{"groupId":"EG001","numAffected":1,"numAtRisk":473}]},{"term":"Haemoptysis","organSystem":"Respiratory, thoracic and mediastinal disorders","sourceVocabulary":"MedDRA 18.0","assessmentType":"SYSTEMATIC_ASSESSMENT","stats":[{"groupId":"EG000","numAffected":9,"numAtRisk":475},{"groupId":"EG001","numAffected":10,"numAtRisk":473}]},{"term":"Heart injury","organSystem":"Injury, poisoning and procedural complications","sourceVocabulary":"MedDRA 18.0","assessmentType":"SYSTEMATIC_ASSESSMENT","stats":[{"groupId":"EG000","numAffected":1,"numAtRisk":475},{"groupId":"EG001","numAffected":0,"numAtRisk":473}]},{"term":"Hyperthyroidism","organSystem":"Endocrine disorders","sourceVocabulary":"MedDRA 18.0","assessmentType":"SYSTEMATIC_ASSESSMENT","stats":[{"groupId":"EG000","numAffected":1,"numAtRisk":475},{"groupId":"EG001","numAffected":0,"numAtRisk":473}]},{"term":"Hypomagnesaemia","organSystem":"Metabolism and nutrition disorders","sourceVocabulary":"MedDRA 18.0","assessmentType":"SYSTEMATIC_ASSESSMENT","stats":[{"groupId":"EG000","numAffected":1,"numAtRisk":475},{"groupId":"EG001","numAffected":2,"numAtRisk":473}]},{"term":"Infection","organSystem":"Infections and infestations","sourceVocabulary":"MedDRA 18.0","assessmentType":"SYSTEMATIC_ASSESSMENT","stats":[{"groupId":"EG000","numAffected":3,"numAtRisk":475},{"groupId":"EG001","numAffected":4,"numAtRisk":473}]},{"term":"Joint dislocation","organSystem":"Injury, poisoning and procedural complications","sourceVocabulary":"MedDRA 18.0","assessmentType":"SYSTEMATIC_ASSESSMENT","stats":[{"groupId":"EG000","numAffected":0,"numAtRisk":475},{"groupId":"EG001","numAffected":1,"numAtRisk":473}]},{"term":"Large intestine perforation","organSystem":"Gastrointestinal disorders","sourceVocabulary":"MedDRA 18.0","assessmentType":"SYSTEMATIC_ASSESSMENT","stats":[{"groupId":"EG000","numAffected":1,"numAtRisk":475},{"groupId":"EG001","numAffected":0,"numAtRisk":473}]},{"term":"Leukocytosis","organSystem":"Blood and lymphatic system disorders","sourceVocabulary":"MedDRA 18.0","assessmentType":"SYSTEMATIC_ASSESSMENT","stats":[{"groupId":"EG000","numAffected":1,"numAtRisk":475},{"groupId":"EG001","numAffected":0,"numAtRisk":473}]},{"term":"Lung squamous cell carcinoma metastatic","organSystem":"Neoplasms benign, malignant and unspecified (incl cysts and polyps)","sourceVocabulary":"MedDRA 18.0","assessmentType":"SYSTEMATIC_ASSESSMENT","stats":[{"groupId":"EG000","numAffected":0,"numAtRisk":475},{"groupId":"EG001","numAffected":1,"numAtRisk":473}]},{"term":"Migraine","organSystem":"Nervous system disorders","sourceVocabulary":"MedDRA 18.0","assessmentType":"SYSTEMATIC_ASSESSMENT","stats":[{"groupId":"EG000","numAffected":1,"numAtRisk":475},{"groupId":"EG001","numAffected":0,"numAtRisk":473}]},{"term":"Musculoskeletal pain","organSystem":"Musculoskeletal and connective tissue disorders","sourceVocabulary":"MedDRA 18.0","assessmentType":"SYSTEMATIC_ASSESSMENT","stats":[{"groupId":"EG000","numAffected":1,"numAtRisk":475},{"groupId":"EG001","numAffected":1,"numAtRisk":473}]},{"term":"Necrotising fasciitis","organSystem":"Infections and infestations","sourceVocabulary":"MedDRA 18.0","assessmentType":"SYSTEMATIC_ASSESSMENT","stats":[{"groupId":"EG000","numAffected":1,"numAtRisk":475},{"groupId":"EG001","numAffected":0,"numAtRisk":473}]},{"term":"Neuropathy peripheral","organSystem":"Nervous system disorders","sourceVocabulary":"MedDRA 18.0","assessmentType":"SYSTEMATIC_ASSESSMENT","stats":[{"groupId":"EG000","numAffected":1,"numAtRisk":475},{"groupId":"EG001","numAffected":0,"numAtRisk":473}]},{"term":"Partial seizures","organSystem":"Nervous system disorders","sourceVocabulary":"MedDRA 18.0","assessmentType":"SYSTEMATIC_ASSESSMENT","stats":[{"groupId":"EG000","numAffected":0,"numAtRisk":475},{"groupId":"EG001","numAffected":1,"numAtRisk":473}]},{"term":"Pericarditis","organSystem":"Cardiac disorders","sourceVocabulary":"MedDRA 18.0","assessmentType":"SYSTEMATIC_ASSESSMENT","stats":[{"groupId":"EG000","numAffected":0,"numAtRisk":475},{"groupId":"EG001","numAffected":2,"numAtRisk":473}]},{"term":"Platelet count decreased","organSystem":"Investigations","sourceVocabulary":"MedDRA 18.0","assessmentType":"SYSTEMATIC_ASSESSMENT","stats":[{"groupId":"EG000","numAffected":1,"numAtRisk":475},{"groupId":"EG001","numAffected":3,"numAtRisk":473}]},{"term":"Pneumothorax","organSystem":"Respiratory, thoracic and mediastinal disorders","sourceVocabulary":"MedDRA 18.0","assessmentType":"SYSTEMATIC_ASSESSMENT","stats":[{"groupId":"EG000","numAffected":4,"numAtRisk":475},{"groupId":"EG001","numAffected":1,"numAtRisk":473}]},{"term":"Pneumothorax spontaneous","organSystem":"Respiratory, thoracic and mediastinal disorders","sourceVocabulary":"MedDRA 18.0","assessmentType":"SYSTEMATIC_ASSESSMENT","stats":[{"groupId":"EG000","numAffected":1,"numAtRisk":475},{"groupId":"EG001","numAffected":0,"numAtRisk":473}]},{"term":"Pyrexia","organSystem":"General disorders","sourceVocabulary":"MedDRA 18.0","assessmentType":"SYSTEMATIC_ASSESSMENT","stats":[{"groupId":"EG000","numAffected":21,"numAtRisk":475},{"groupId":"EG001","numAffected":14,"numAtRisk":473}]},{"term":"Red blood cell count decreased","organSystem":"Investigations","sourceVocabulary":"MedDRA 18.0","assessmentType":"SYSTEMATIC_ASSESSMENT","stats":[{"groupId":"EG000","numAffected":0,"numAtRisk":475},{"groupId":"EG001","numAffected":1,"numAtRisk":473}]},{"term":"Renal failure","organSystem":"Renal and urinary disorders","sourceVocabulary":"MedDRA 18.0","assessmentType":"SYSTEMATIC_ASSESSMENT","stats":[{"groupId":"EG000","numAffected":4,"numAtRisk":475},{"groupId":"EG001","numAffected":2,"numAtRisk":473}]},{"term":"Septic shock","organSystem":"Infections and infestations","sourceVocabulary":"MedDRA 18.0","assessmentType":"SYSTEMATIC_ASSESSMENT","stats":[{"groupId":"EG000","numAffected":0,"numAtRisk":475},{"groupId":"EG001","numAffected":1,"numAtRisk":473}]},{"term":"Sinusitis","organSystem":"Infections and infestations","sourceVocabulary":"MedDRA 18.0","assessmentType":"SYSTEMATIC_ASSESSMENT","stats":[{"groupId":"EG000","numAffected":0,"numAtRisk":475},{"groupId":"EG001","numAffected":1,"numAtRisk":473}]},{"term":"Small intestine carcinoma","organSystem":"Neoplasms benign, malignant and unspecified (incl cysts and polyps)","sourceVocabulary":"MedDRA 18.0","assessmentType":"SYSTEMATIC_ASSESSMENT","stats":[{"groupId":"EG000","numAffected":0,"numAtRisk":475},{"groupId":"EG001","numAffected":1,"numAtRisk":473}]},{"term":"Tumour lysis syndrome","organSystem":"Metabolism and nutrition disorders","sourceVocabulary":"MedDRA 18.0","assessmentType":"SYSTEMATIC_ASSESSMENT","stats":[{"groupId":"EG000","numAffected":0,"numAtRisk":475},{"groupId":"EG001","numAffected":1,"numAtRisk":473}]},{"term":"Vomiting","organSystem":"Gastrointestinal disorders","sourceVocabulary":"MedDRA 18.0","assessmentType":"SYSTEMATIC_ASSESSMENT","stats":[{"groupId":"EG000","numAffected":6,"numAtRisk":475},{"groupId":"EG001","numAffected":5,"numAtRisk":473}]},{"term":"Abdominal abscess","organSystem":"Infections and infestations","sourceVocabulary":"MedDRA 18.0","assessmentType":"SYSTEMATIC_ASSESSMENT","stats":[{"groupId":"EG000","numAffected":1,"numAtRisk":475},{"groupId":"EG001","numAffected":0,"numAtRisk":473}]},{"term":"Abdominal pain upper","organSystem":"Gastrointestinal disorders","sourceVocabulary":"MedDRA 18.0","assessmentType":"SYSTEMATIC_ASSESSMENT","stats":[{"groupId":"EG000","numAffected":1,"numAtRisk":475},{"groupId":"EG001","numAffected":1,"numAtRisk":473}]},{"term":"Alanine aminotransferase increased","organSystem":"Investigations","sourceVocabulary":"MedDRA 18.0","assessmentType":"SYSTEMATIC_ASSESSMENT","stats":[{"groupId":"EG000","numAffected":2,"numAtRisk":475},{"groupId":"EG001","numAffected":0,"numAtRisk":473}]},{"term":"Atelectasis","organSystem":"Respiratory, thoracic and mediastinal disorders","sourceVocabulary":"MedDRA 18.0","assessmentType":"SYSTEMATIC_ASSESSMENT","stats":[{"groupId":"EG000","numAffected":1,"numAtRisk":475},{"groupId":"EG001","numAffected":2,"numAtRisk":473}]},{"term":"Body temperature increased","organSystem":"Investigations","sourceVocabulary":"MedDRA 18.0","assessmentType":"SYSTEMATIC_ASSESSMENT","stats":[{"groupId":"EG000","numAffected":1,"numAtRisk":475},{"groupId":"EG001","numAffected":0,"numAtRisk":473}]},{"term":"Bronchitis chronic","organSystem":"Respiratory, thoracic and mediastinal disorders","sourceVocabulary":"MedDRA 18.0","assessmentType":"SYSTEMATIC_ASSESSMENT","stats":[{"groupId":"EG000","numAffected":0,"numAtRisk":475},{"groupId":"EG001","numAffected":1,"numAtRisk":473}]},{"term":"Cerebral haemorrhage","organSystem":"Nervous system disorders","sourceVocabulary":"MedDRA 18.0","assessmentType":"SYSTEMATIC_ASSESSMENT","stats":[{"groupId":"EG000","numAffected":1,"numAtRisk":475},{"groupId":"EG001","numAffected":0,"numAtRisk":473}]},{"term":"Cerebral ischaemia","organSystem":"Nervous system disorders","sourceVocabulary":"MedDRA 18.0","assessmentType":"SYSTEMATIC_ASSESSMENT","stats":[{"groupId":"EG000","numAffected":1,"numAtRisk":475},{"groupId":"EG001","numAffected":2,"numAtRisk":473}]},{"term":"Cholangitis","organSystem":"Hepatobiliary disorders","sourceVocabulary":"MedDRA 18.0","assessmentType":"SYSTEMATIC_ASSESSMENT","stats":[{"groupId":"EG000","numAffected":0,"numAtRisk":475},{"groupId":"EG001","numAffected":1,"numAtRisk":473}]},{"term":"Circulatory collapse","organSystem":"Vascular disorders","sourceVocabulary":"MedDRA 18.0","assessmentType":"SYSTEMATIC_ASSESSMENT","stats":[{"groupId":"EG000","numAffected":1,"numAtRisk":475},{"groupId":"EG001","numAffected":0,"numAtRisk":473}]},{"term":"Dehydration","organSystem":"Metabolism and nutrition disorders","sourceVocabulary":"MedDRA 18.0","assessmentType":"SYSTEMATIC_ASSESSMENT","stats":[{"groupId":"EG000","numAffected":8,"numAtRisk":475},{"groupId":"EG001","numAffected":7,"numAtRisk":473}]},{"term":"Depression","organSystem":"Psychiatric disorders","sourceVocabulary":"MedDRA 18.0","assessmentType":"SYSTEMATIC_ASSESSMENT","stats":[{"groupId":"EG000","numAffected":0,"numAtRisk":475},{"groupId":"EG001","numAffected":1,"numAtRisk":473}]},{"term":"Dizziness","organSystem":"Nervous system disorders","sourceVocabulary":"MedDRA 18.0","assessmentType":"SYSTEMATIC_ASSESSMENT","stats":[{"groupId":"EG000","numAffected":0,"numAtRisk":475},{"groupId":"EG001","numAffected":1,"numAtRisk":473}]},{"term":"Drug-induced liver injury","organSystem":"Hepatobiliary disorders","sourceVocabulary":"MedDRA 18.0","assessmentType":"SYSTEMATIC_ASSESSMENT","stats":[{"groupId":"EG000","numAffected":1,"numAtRisk":475},{"groupId":"EG001","numAffected":0,"numAtRisk":473}]},{"term":"Dyspnoea","organSystem":"Respiratory, thoracic and mediastinal disorders","sourceVocabulary":"MedDRA 18.0","assessmentType":"SYSTEMATIC_ASSESSMENT","stats":[{"groupId":"EG000","numAffected":17,"numAtRisk":475},{"groupId":"EG001","numAffected":16,"numAtRisk":473}]},{"term":"Embolism","organSystem":"Vascular disorders","sourceVocabulary":"MedDRA 18.0","assessmentType":"SYSTEMATIC_ASSESSMENT","stats":[{"groupId":"EG000","numAffected":0,"numAtRisk":475},{"groupId":"EG001","numAffected":1,"numAtRisk":473}]},{"term":"Endocarditis","organSystem":"Infections and infestations","sourceVocabulary":"MedDRA 18.0","assessmentType":"SYSTEMATIC_ASSESSMENT","stats":[{"groupId":"EG000","numAffected":0,"numAtRisk":475},{"groupId":"EG001","numAffected":1,"numAtRisk":473}]},{"term":"Febrile infection","organSystem":"Infections and infestations","sourceVocabulary":"MedDRA 18.0","assessmentType":"SYSTEMATIC_ASSESSMENT","stats":[{"groupId":"EG000","numAffected":1,"numAtRisk":475},{"groupId":"EG001","numAffected":0,"numAtRisk":473}]},{"term":"Hepatitis","organSystem":"Hepatobiliary disorders","sourceVocabulary":"MedDRA 18.0","assessmentType":"SYSTEMATIC_ASSESSMENT","stats":[{"groupId":"EG000","numAffected":1,"numAtRisk":475},{"groupId":"EG001","numAffected":0,"numAtRisk":473}]},{"term":"Hydrocephalus","organSystem":"Nervous system disorders","sourceVocabulary":"MedDRA 18.0","assessmentType":"SYSTEMATIC_ASSESSMENT","stats":[{"groupId":"EG000","numAffected":1,"numAtRisk":475},{"groupId":"EG001","numAffected":0,"numAtRisk":473}]},{"term":"Hyponatraemia","organSystem":"Metabolism and nutrition disorders","sourceVocabulary":"MedDRA 18.0","assessmentType":"SYSTEMATIC_ASSESSMENT","stats":[{"groupId":"EG000","numAffected":3,"numAtRisk":475},{"groupId":"EG001","numAffected":0,"numAtRisk":473}]},{"term":"Hypopituitarism","organSystem":"Endocrine disorders","sourceVocabulary":"MedDRA 18.0","assessmentType":"SYSTEMATIC_ASSESSMENT","stats":[{"groupId":"EG000","numAffected":2,"numAtRisk":475},{"groupId":"EG001","numAffected":0,"numAtRisk":473}]},{"term":"Hypotension","organSystem":"Vascular disorders","sourceVocabulary":"MedDRA 18.0","assessmentType":"SYSTEMATIC_ASSESSMENT","stats":[{"groupId":"EG000","numAffected":2,"numAtRisk":475},{"groupId":"EG001","numAffected":3,"numAtRisk":473}]},{"term":"Impaired gastric emptying","organSystem":"Gastrointestinal disorders","sourceVocabulary":"MedDRA 18.0","assessmentType":"SYSTEMATIC_ASSESSMENT","stats":[{"groupId":"EG000","numAffected":1,"numAtRisk":475},{"groupId":"EG001","numAffected":0,"numAtRisk":473}]},{"term":"Infusion related reaction","organSystem":"Injury, poisoning and procedural complications","sourceVocabulary":"MedDRA 18.0","assessmentType":"SYSTEMATIC_ASSESSMENT","stats":[{"groupId":"EG000","numAffected":1,"numAtRisk":475},{"groupId":"EG001","numAffected":0,"numAtRisk":473}]},{"term":"Interstitial lung disease","organSystem":"Respiratory, thoracic and mediastinal disorders","sourceVocabulary":"MedDRA 18.0","assessmentType":"SYSTEMATIC_ASSESSMENT","stats":[{"groupId":"EG000","numAffected":3,"numAtRisk":475},{"groupId":"EG001","numAffected":0,"numAtRisk":473}]},{"term":"Ischaemic stroke","organSystem":"Nervous system disorders","sourceVocabulary":"MedDRA 18.0","assessmentType":"SYSTEMATIC_ASSESSMENT","stats":[{"groupId":"EG000","numAffected":0,"numAtRisk":475},{"groupId":"EG001","numAffected":1,"numAtRisk":473}]},{"term":"Localised infection","organSystem":"Infections and infestations","sourceVocabulary":"MedDRA 18.0","assessmentType":"SYSTEMATIC_ASSESSMENT","stats":[{"groupId":"EG000","numAffected":0,"numAtRisk":475},{"groupId":"EG001","numAffected":1,"numAtRisk":473}]},{"term":"Lower respiratory tract infection","organSystem":"Infections and infestations","sourceVocabulary":"MedDRA 18.0","assessmentType":"SYSTEMATIC_ASSESSMENT","stats":[{"groupId":"EG000","numAffected":3,"numAtRisk":475},{"groupId":"EG001","numAffected":2,"numAtRisk":473}]},{"term":"Lumbar vertebral fracture","organSystem":"Injury, poisoning and procedural complications","sourceVocabulary":"MedDRA 18.0","assessmentType":"SYSTEMATIC_ASSESSMENT","stats":[{"groupId":"EG000","numAffected":0,"numAtRisk":475},{"groupId":"EG001","numAffected":1,"numAtRisk":473}]},{"term":"Lung abscess","organSystem":"Infections and infestations","sourceVocabulary":"MedDRA 18.0","assessmentType":"SYSTEMATIC_ASSESSMENT","stats":[{"groupId":"EG000","numAffected":3,"numAtRisk":475},{"groupId":"EG001","numAffected":1,"numAtRisk":473}]},{"term":"Lung infection","organSystem":"Infections and infestations","sourceVocabulary":"MedDRA 18.0","assessmentType":"SYSTEMATIC_ASSESSMENT","stats":[{"groupId":"EG000","numAffected":9,"numAtRisk":475},{"groupId":"EG001","numAffected":5,"numAtRisk":473}]},{"term":"Lung neoplasm malignant","organSystem":"Neoplasms benign, malignant and unspecified (incl cysts and polyps)","sourceVocabulary":"MedDRA 18.0","assessmentType":"SYSTEMATIC_ASSESSMENT","stats":[{"groupId":"EG000","numAffected":3,"numAtRisk":475},{"groupId":"EG001","numAffected":8,"numAtRisk":473}]},{"term":"Metastases to meninges","organSystem":"Neoplasms benign, malignant and unspecified (incl cysts and polyps)","sourceVocabulary":"MedDRA 18.0","assessmentType":"SYSTEMATIC_ASSESSMENT","stats":[{"groupId":"EG000","numAffected":0,"numAtRisk":475},{"groupId":"EG001","numAffected":1,"numAtRisk":473}]},{"term":"Orchitis","organSystem":"Infections and infestations","sourceVocabulary":"MedDRA 18.0","assessmentType":"SYSTEMATIC_ASSESSMENT","stats":[{"groupId":"EG000","numAffected":0,"numAtRisk":475},{"groupId":"EG001","numAffected":1,"numAtRisk":473}]},{"term":"Pancreatitis","organSystem":"Gastrointestinal disorders","sourceVocabulary":"MedDRA 18.0","assessmentType":"SYSTEMATIC_ASSESSMENT","stats":[{"groupId":"EG000","numAffected":1,"numAtRisk":475},{"groupId":"EG001","numAffected":0,"numAtRisk":473}]},{"term":"Perivascular dermatitis","organSystem":"Skin and subcutaneous tissue disorders","sourceVocabulary":"MedDRA 18.0","assessmentType":"SYSTEMATIC_ASSESSMENT","stats":[{"groupId":"EG000","numAffected":1,"numAtRisk":475},{"groupId":"EG001","numAffected":0,"numAtRisk":473}]},{"term":"Pneumocystis jirovecii pneumonia","organSystem":"Infections and infestations","sourceVocabulary":"MedDRA 18.0","assessmentType":"SYSTEMATIC_ASSESSMENT","stats":[{"groupId":"EG000","numAffected":1,"numAtRisk":475},{"groupId":"EG001","numAffected":0,"numAtRisk":473}]},{"term":"Pruritus","organSystem":"Skin and subcutaneous tissue disorders","sourceVocabulary":"MedDRA 18.0","assessmentType":"SYSTEMATIC_ASSESSMENT","stats":[{"groupId":"EG000","numAffected":1,"numAtRisk":475},{"groupId":"EG001","numAffected":0,"numAtRisk":473}]},{"term":"Rectal haemorrhage","organSystem":"Gastrointestinal disorders","sourceVocabulary":"MedDRA 18.0","assessmentType":"SYSTEMATIC_ASSESSMENT","stats":[{"groupId":"EG000","numAffected":1,"numAtRisk":475},{"groupId":"EG001","numAffected":0,"numAtRisk":473}]},{"term":"Spinal pain","organSystem":"Musculoskeletal and connective tissue disorders","sourceVocabulary":"MedDRA 18.0","assessmentType":"SYSTEMATIC_ASSESSMENT","stats":[{"groupId":"EG000","numAffected":1,"numAtRisk":475},{"groupId":"EG001","numAffected":0,"numAtRisk":473}]},{"term":"Thyroiditis","organSystem":"Endocrine disorders","sourceVocabulary":"MedDRA 18.0","assessmentType":"SYSTEMATIC_ASSESSMENT","stats":[{"groupId":"EG000","numAffected":1,"numAtRisk":475},{"groupId":"EG001","numAffected":0,"numAtRisk":473}]},{"term":"Tubulointerstitial nephritis","organSystem":"Renal and urinary disorders","sourceVocabulary":"MedDRA 18.0","assessmentType":"SYSTEMATIC_ASSESSMENT","stats":[{"groupId":"EG000","numAffected":1,"numAtRisk":475},{"groupId":"EG001","numAffected":0,"numAtRisk":473}]},{"term":"Vertigo","organSystem":"Ear and labyrinth disorders","sourceVocabulary":"MedDRA 18.0","assessmentType":"SYSTEMATIC_ASSESSMENT","stats":[{"groupId":"EG000","numAffected":0,"numAtRisk":475},{"groupId":"EG001","numAffected":2,"numAtRisk":473}]},{"term":"Acute myocardial infarction","organSystem":"Cardiac disorders","sourceVocabulary":"MedDRA 18.0","assessmentType":"SYSTEMATIC_ASSESSMENT","stats":[{"groupId":"EG000","numAffected":2,"numAtRisk":475},{"groupId":"EG001","numAffected":0,"numAtRisk":473}]},{"term":"Adrenal insufficiency","organSystem":"Endocrine disorders","sourceVocabulary":"MedDRA 18.0","assessmentType":"SYSTEMATIC_ASSESSMENT","stats":[{"groupId":"EG000","numAffected":2,"numAtRisk":475},{"groupId":"EG001","numAffected":0,"numAtRisk":473}]},{"term":"Anaemia of malignant disease","organSystem":"Blood and lymphatic system disorders","sourceVocabulary":"MedDRA 18.0","assessmentType":"SYSTEMATIC_ASSESSMENT","stats":[{"groupId":"EG000","numAffected":0,"numAtRisk":475},{"groupId":"EG001","numAffected":1,"numAtRisk":473}]},{"term":"Brain injury","organSystem":"Nervous system disorders","sourceVocabulary":"MedDRA 18.0","assessmentType":"SYSTEMATIC_ASSESSMENT","stats":[{"groupId":"EG000","numAffected":1,"numAtRisk":475},{"groupId":"EG001","numAffected":0,"numAtRisk":473}]},{"term":"Cachexia","organSystem":"Metabolism and nutrition disorders","sourceVocabulary":"MedDRA 18.0","assessmentType":"SYSTEMATIC_ASSESSMENT","stats":[{"groupId":"EG000","numAffected":2,"numAtRisk":475},{"groupId":"EG001","numAffected":0,"numAtRisk":473}]},{"term":"Cardiopulmonary failure","organSystem":"Cardiac disorders","sourceVocabulary":"MedDRA 18.0","assessmentType":"SYSTEMATIC_ASSESSMENT","stats":[{"groupId":"EG000","numAffected":1,"numAtRisk":475},{"groupId":"EG001","numAffected":0,"numAtRisk":473}]},{"term":"Cellulitis","organSystem":"Infections and infestations","sourceVocabulary":"MedDRA 18.0","assessmentType":"SYSTEMATIC_ASSESSMENT","stats":[{"groupId":"EG000","numAffected":2,"numAtRisk":475},{"groupId":"EG001","numAffected":1,"numAtRisk":473}]},{"term":"Chills","organSystem":"General disorders","sourceVocabulary":"MedDRA 18.0","assessmentType":"SYSTEMATIC_ASSESSMENT","stats":[{"groupId":"EG000","numAffected":1,"numAtRisk":475},{"groupId":"EG001","numAffected":0,"numAtRisk":473}]},{"term":"Cough","organSystem":"Respiratory, thoracic and mediastinal disorders","sourceVocabulary":"MedDRA 18.0","assessmentType":"SYSTEMATIC_ASSESSMENT","stats":[{"groupId":"EG000","numAffected":0,"numAtRisk":475},{"groupId":"EG001","numAffected":3,"numAtRisk":473}]},{"term":"Delirium","organSystem":"Psychiatric disorders","sourceVocabulary":"MedDRA 18.0","assessmentType":"SYSTEMATIC_ASSESSMENT","stats":[{"groupId":"EG000","numAffected":0,"numAtRisk":475},{"groupId":"EG001","numAffected":1,"numAtRisk":473}]},{"term":"Depressed mood","organSystem":"Psychiatric disorders","sourceVocabulary":"MedDRA 18.0","assessmentType":"SYSTEMATIC_ASSESSMENT","stats":[{"groupId":"EG000","numAffected":0,"numAtRisk":475},{"groupId":"EG001","numAffected":1,"numAtRisk":473}]},{"term":"Fall","organSystem":"Injury, poisoning and procedural complications","sourceVocabulary":"MedDRA 18.0","assessmentType":"SYSTEMATIC_ASSESSMENT","stats":[{"groupId":"EG000","numAffected":0,"numAtRisk":475},{"groupId":"EG001","numAffected":2,"numAtRisk":473}]},{"term":"Gastroenteritis","organSystem":"Infections and infestations","sourceVocabulary":"MedDRA 18.0","assessmentType":"SYSTEMATIC_ASSESSMENT","stats":[{"groupId":"EG000","numAffected":1,"numAtRisk":475},{"groupId":"EG001","numAffected":2,"numAtRisk":473}]},{"term":"Hypersomnia","organSystem":"Nervous system disorders","sourceVocabulary":"MedDRA 18.0","assessmentType":"SYSTEMATIC_ASSESSMENT","stats":[{"groupId":"EG000","numAffected":1,"numAtRisk":475},{"groupId":"EG001","numAffected":0,"numAtRisk":473}]},{"term":"Hypokalaemia","organSystem":"Metabolism and nutrition disorders","sourceVocabulary":"MedDRA 18.0","assessmentType":"SYSTEMATIC_ASSESSMENT","stats":[{"groupId":"EG000","numAffected":2,"numAtRisk":475},{"groupId":"EG001","numAffected":1,"numAtRisk":473}]},{"term":"Hypoxia","organSystem":"Respiratory, thoracic and mediastinal disorders","sourceVocabulary":"MedDRA 18.0","assessmentType":"SYSTEMATIC_ASSESSMENT","stats":[{"groupId":"EG000","numAffected":2,"numAtRisk":475},{"groupId":"EG001","numAffected":0,"numAtRisk":473}]},{"term":"Laryngitis","organSystem":"Infections and infestations","sourceVocabulary":"MedDRA 18.0","assessmentType":"SYSTEMATIC_ASSESSMENT","stats":[{"groupId":"EG000","numAffected":0,"numAtRisk":475},{"groupId":"EG001","numAffected":1,"numAtRisk":473}]},{"term":"Liver function test abnormal","organSystem":"Investigations","sourceVocabulary":"MedDRA 18.0","assessmentType":"SYSTEMATIC_ASSESSMENT","stats":[{"groupId":"EG000","numAffected":3,"numAtRisk":475},{"groupId":"EG001","numAffected":0,"numAtRisk":473}]},{"term":"Lung cancer metastatic","organSystem":"Neoplasms benign, malignant and unspecified (incl cysts and polyps)","sourceVocabulary":"MedDRA 18.0","assessmentType":"SYSTEMATIC_ASSESSMENT","stats":[{"groupId":"EG000","numAffected":0,"numAtRisk":475},{"groupId":"EG001","numAffected":1,"numAtRisk":473}]},{"term":"Lung disorder","organSystem":"Respiratory, thoracic and mediastinal disorders","sourceVocabulary":"MedDRA 18.0","assessmentType":"SYSTEMATIC_ASSESSMENT","stats":[{"groupId":"EG000","numAffected":1,"numAtRisk":475},{"groupId":"EG001","numAffected":0,"numAtRisk":473}]},{"term":"Malaise","organSystem":"General disorders","sourceVocabulary":"MedDRA 18.0","assessmentType":"SYSTEMATIC_ASSESSMENT","stats":[{"groupId":"EG000","numAffected":0,"numAtRisk":475},{"groupId":"EG001","numAffected":1,"numAtRisk":473}]},{"term":"Metastatic neoplasm","organSystem":"Neoplasms benign, malignant and unspecified (incl cysts and polyps)","sourceVocabulary":"MedDRA 18.0","assessmentType":"SYSTEMATIC_ASSESSMENT","stats":[{"groupId":"EG000","numAffected":1,"numAtRisk":475},{"groupId":"EG001","numAffected":0,"numAtRisk":473}]},{"term":"Neck pain","organSystem":"Musculoskeletal and connective tissue disorders","sourceVocabulary":"MedDRA 18.0","assessmentType":"SYSTEMATIC_ASSESSMENT","stats":[{"groupId":"EG000","numAffected":0,"numAtRisk":475},{"groupId":"EG001","numAffected":1,"numAtRisk":473}]},{"term":"Neoplasm malignant","organSystem":"Neoplasms benign, malignant and unspecified (incl cysts and polyps)","sourceVocabulary":"MedDRA 18.0","assessmentType":"SYSTEMATIC_ASSESSMENT","stats":[{"groupId":"EG000","numAffected":1,"numAtRisk":475},{"groupId":"EG001","numAffected":1,"numAtRisk":473}]},{"term":"Nephropathy","organSystem":"Renal and urinary disorders","sourceVocabulary":"MedDRA 18.0","assessmentType":"SYSTEMATIC_ASSESSMENT","stats":[{"groupId":"EG000","numAffected":1,"numAtRisk":475},{"groupId":"EG001","numAffected":0,"numAtRisk":473}]},{"term":"Obstructive uropathy","organSystem":"Renal and urinary disorders","sourceVocabulary":"MedDRA 18.0","assessmentType":"SYSTEMATIC_ASSESSMENT","stats":[{"groupId":"EG000","numAffected":0,"numAtRisk":475},{"groupId":"EG001","numAffected":1,"numAtRisk":473}]},{"term":"Pain","organSystem":"General disorders","sourceVocabulary":"MedDRA 18.0","assessmentType":"SYSTEMATIC_ASSESSMENT","stats":[{"groupId":"EG000","numAffected":3,"numAtRisk":475},{"groupId":"EG001","numAffected":0,"numAtRisk":473}]},{"term":"Peripheral motor neuropathy","organSystem":"Nervous system disorders","sourceVocabulary":"MedDRA 18.0","assessmentType":"SYSTEMATIC_ASSESSMENT","stats":[{"groupId":"EG000","numAffected":0,"numAtRisk":475},{"groupId":"EG001","numAffected":1,"numAtRisk":473}]},{"term":"Pneumococcal infection","organSystem":"Infections and infestations","sourceVocabulary":"MedDRA 18.0","assessmentType":"SYSTEMATIC_ASSESSMENT","stats":[{"groupId":"EG000","numAffected":0,"numAtRisk":475},{"groupId":"EG001","numAffected":1,"numAtRisk":473}]},{"term":"Pneumonia","organSystem":"Infections and infestations","sourceVocabulary":"MedDRA 18.0","assessmentType":"SYSTEMATIC_ASSESSMENT","stats":[{"groupId":"EG000","numAffected":37,"numAtRisk":475},{"groupId":"EG001","numAffected":34,"numAtRisk":473}]},{"term":"Pneumonitis","organSystem":"Respiratory, thoracic and mediastinal disorders","sourceVocabulary":"MedDRA 18.0","assessmentType":"SYSTEMATIC_ASSESSMENT","stats":[{"groupId":"EG000","numAffected":4,"numAtRisk":475},{"groupId":"EG001","numAffected":4,"numAtRisk":473}]},{"term":"Rash","organSystem":"Skin and subcutaneous tissue disorders","sourceVocabulary":"MedDRA 18.0","assessmentType":"SYSTEMATIC_ASSESSMENT","stats":[{"groupId":"EG000","numAffected":6,"numAtRisk":475},{"groupId":"EG001","numAffected":0,"numAtRisk":473}]},{"term":"Respiratory failure","organSystem":"Respiratory, thoracic and mediastinal disorders","sourceVocabulary":"MedDRA 18.0","assessmentType":"SYSTEMATIC_ASSESSMENT","stats":[{"groupId":"EG000","numAffected":6,"numAtRisk":475},{"groupId":"EG001","numAffected":4,"numAtRisk":473}]},{"term":"Spinal compression fracture","organSystem":"Injury, poisoning and procedural complications","sourceVocabulary":"MedDRA 18.0","assessmentType":"SYSTEMATIC_ASSESSMENT","stats":[{"groupId":"EG000","numAffected":0,"numAtRisk":475},{"groupId":"EG001","numAffected":1,"numAtRisk":473}]},{"term":"Supraventricular tachycardia","organSystem":"Cardiac disorders","sourceVocabulary":"MedDRA 18.0","assessmentType":"SYSTEMATIC_ASSESSMENT","stats":[{"groupId":"EG000","numAffected":1,"numAtRisk":475},{"groupId":"EG001","numAffected":0,"numAtRisk":473}]},{"term":"Syncope","organSystem":"Nervous system disorders","sourceVocabulary":"MedDRA 18.0","assessmentType":"SYSTEMATIC_ASSESSMENT","stats":[{"groupId":"EG000","numAffected":3,"numAtRisk":475},{"groupId":"EG001","numAffected":1,"numAtRisk":473}]},{"term":"Tumour compression","organSystem":"Neoplasms benign, malignant and unspecified (incl cysts and polyps)","sourceVocabulary":"MedDRA 18.0","assessmentType":"SYSTEMATIC_ASSESSMENT","stats":[{"groupId":"EG000","numAffected":0,"numAtRisk":475},{"groupId":"EG001","numAffected":2,"numAtRisk":473}]},{"term":"Vena cava thrombosis","organSystem":"Vascular disorders","sourceVocabulary":"MedDRA 18.0","assessmentType":"SYSTEMATIC_ASSESSMENT","stats":[{"groupId":"EG000","numAffected":1,"numAtRisk":475},{"groupId":"EG001","numAffected":0,"numAtRisk":473}]},{"term":"Acute respiratory distress syndrome","organSystem":"Respiratory, thoracic and mediastinal disorders","sourceVocabulary":"MedDRA 18.0","assessmentType":"SYSTEMATIC_ASSESSMENT","stats":[{"groupId":"EG000","numAffected":1,"numAtRisk":475},{"groupId":"EG001","numAffected":0,"numAtRisk":473}]},{"term":"Azotaemia","organSystem":"Renal and urinary disorders","sourceVocabulary":"MedDRA 18.0","assessmentType":"SYSTEMATIC_ASSESSMENT","stats":[{"groupId":"EG000","numAffected":0,"numAtRisk":475},{"groupId":"EG001","numAffected":1,"numAtRisk":473}]},{"term":"Back pain","organSystem":"Musculoskeletal and connective tissue disorders","sourceVocabulary":"MedDRA 18.0","assessmentType":"SYSTEMATIC_ASSESSMENT","stats":[{"groupId":"EG000","numAffected":3,"numAtRisk":475},{"groupId":"EG001","numAffected":3,"numAtRisk":473}]},{"term":"Brain contusion","organSystem":"Injury, poisoning and procedural complications","sourceVocabulary":"MedDRA 18.0","assessmentType":"SYSTEMATIC_ASSESSMENT","stats":[{"groupId":"EG000","numAffected":1,"numAtRisk":475},{"groupId":"EG001","numAffected":0,"numAtRisk":473}]},{"term":"Brain herniation","organSystem":"Injury, poisoning and procedural complications","sourceVocabulary":"MedDRA 18.0","assessmentType":"SYSTEMATIC_ASSESSMENT","stats":[{"groupId":"EG000","numAffected":1,"numAtRisk":475},{"groupId":"EG001","numAffected":0,"numAtRisk":473}]},{"term":"C-reactive protein increased","organSystem":"Investigations","sourceVocabulary":"MedDRA 18.0","assessmentType":"SYSTEMATIC_ASSESSMENT","stats":[{"groupId":"EG000","numAffected":1,"numAtRisk":475},{"groupId":"EG001","numAffected":1,"numAtRisk":473}]},{"term":"Cancer pain","organSystem":"Neoplasms benign, malignant and unspecified (incl cysts and polyps)","sourceVocabulary":"MedDRA 18.0","assessmentType":"SYSTEMATIC_ASSESSMENT","stats":[{"groupId":"EG000","numAffected":1,"numAtRisk":475},{"groupId":"EG001","numAffected":0,"numAtRisk":473}]},{"term":"Cardiac arrest","organSystem":"Cardiac disorders","sourceVocabulary":"MedDRA 18.0","assessmentType":"SYSTEMATIC_ASSESSMENT","stats":[{"groupId":"EG000","numAffected":2,"numAtRisk":475},{"groupId":"EG001","numAffected":2,"numAtRisk":473}]},{"term":"Cardiac failure congestive","organSystem":"Cardiac disorders","sourceVocabulary":"MedDRA 18.0","assessmentType":"SYSTEMATIC_ASSESSMENT","stats":[{"groupId":"EG000","numAffected":1,"numAtRisk":475},{"groupId":"EG001","numAffected":0,"numAtRisk":473}]},{"term":"Cardiogenic shock","organSystem":"Cardiac disorders","sourceVocabulary":"MedDRA 18.0","assessmentType":"SYSTEMATIC_ASSESSMENT","stats":[{"groupId":"EG000","numAffected":1,"numAtRisk":475},{"groupId":"EG001","numAffected":0,"numAtRisk":473}]},{"term":"Cholecystitis","organSystem":"Hepatobiliary disorders","sourceVocabulary":"MedDRA 18.0","assessmentType":"SYSTEMATIC_ASSESSMENT","stats":[{"groupId":"EG000","numAffected":1,"numAtRisk":475},{"groupId":"EG001","numAffected":1,"numAtRisk":473}]},{"term":"Constipation","organSystem":"Gastrointestinal disorders","sourceVocabulary":"MedDRA 18.0","assessmentType":"SYSTEMATIC_ASSESSMENT","stats":[{"groupId":"EG000","numAffected":1,"numAtRisk":475},{"groupId":"EG001","numAffected":2,"numAtRisk":473}]},{"term":"Device occlusion","organSystem":"General disorders","sourceVocabulary":"MedDRA 18.0","assessmentType":"SYSTEMATIC_ASSESSMENT","stats":[{"groupId":"EG000","numAffected":0,"numAtRisk":475},{"groupId":"EG001","numAffected":1,"numAtRisk":473}]},{"term":"Diarrhoea","organSystem":"Gastrointestinal disorders","sourceVocabulary":"MedDRA 18.0","assessmentType":"SYSTEMATIC_ASSESSMENT","stats":[{"groupId":"EG000","numAffected":37,"numAtRisk":475},{"groupId":"EG001","numAffected":10,"numAtRisk":473}]},{"term":"Disseminated intravascular coagulation","organSystem":"Blood and lymphatic system disorders","sourceVocabulary":"MedDRA 18.0","assessmentType":"SYSTEMATIC_ASSESSMENT","stats":[{"groupId":"EG000","numAffected":1,"numAtRisk":475},{"groupId":"EG001","numAffected":1,"numAtRisk":473}]},{"term":"Eczema","organSystem":"Skin and subcutaneous tissue disorders","sourceVocabulary":"MedDRA 18.0","assessmentType":"SYSTEMATIC_ASSESSMENT","stats":[{"groupId":"EG000","numAffected":2,"numAtRisk":475},{"groupId":"EG001","numAffected":0,"numAtRisk":473}]},{"term":"Fatigue","organSystem":"General disorders","sourceVocabulary":"MedDRA 18.0","assessmentType":"SYSTEMATIC_ASSESSMENT","stats":[{"groupId":"EG000","numAffected":8,"numAtRisk":475},{"groupId":"EG001","numAffected":7,"numAtRisk":473}]},{"term":"Haemorrhagic anaemia","organSystem":"Blood and lymphatic system disorders","sourceVocabulary":"MedDRA 18.0","assessmentType":"SYSTEMATIC_ASSESSMENT","stats":[{"groupId":"EG000","numAffected":0,"numAtRisk":475},{"groupId":"EG001","numAffected":1,"numAtRisk":473}]},{"term":"Herpes zoster","organSystem":"Infections and infestations","sourceVocabulary":"MedDRA 18.0","assessmentType":"SYSTEMATIC_ASSESSMENT","stats":[{"groupId":"EG000","numAffected":0,"numAtRisk":475},{"groupId":"EG001","numAffected":1,"numAtRisk":473}]},{"term":"Hyperglycaemia","organSystem":"Metabolism and nutrition disorders","sourceVocabulary":"MedDRA 18.0","assessmentType":"SYSTEMATIC_ASSESSMENT","stats":[{"groupId":"EG000","numAffected":3,"numAtRisk":475},{"groupId":"EG001","numAffected":2,"numAtRisk":473}]},{"term":"Hyperkalaemia","organSystem":"Metabolism and nutrition disorders","sourceVocabulary":"MedDRA 18.0","assessmentType":"SYSTEMATIC_ASSESSMENT","stats":[{"groupId":"EG000","numAffected":0,"numAtRisk":475},{"groupId":"EG001","numAffected":1,"numAtRisk":473}]},{"term":"Hypothalamo-pituitary disorder","organSystem":"Endocrine disorders","sourceVocabulary":"MedDRA 18.0","assessmentType":"SYSTEMATIC_ASSESSMENT","stats":[{"groupId":"EG000","numAffected":1,"numAtRisk":475},{"groupId":"EG001","numAffected":0,"numAtRisk":473}]},{"term":"Intestinal obstruction","organSystem":"Gastrointestinal disorders","sourceVocabulary":"MedDRA 18.0","assessmentType":"SYSTEMATIC_ASSESSMENT","stats":[{"groupId":"EG000","numAffected":1,"numAtRisk":475},{"groupId":"EG001","numAffected":0,"numAtRisk":473}]},{"term":"Muscular weakness","organSystem":"Musculoskeletal and connective tissue disorders","sourceVocabulary":"MedDRA 18.0","assessmentType":"SYSTEMATIC_ASSESSMENT","stats":[{"groupId":"EG000","numAffected":0,"numAtRisk":475},{"groupId":"EG001","numAffected":2,"numAtRisk":473}]},{"term":"Myositis","organSystem":"Musculoskeletal and connective tissue disorders","sourceVocabulary":"MedDRA 18.0","assessmentType":"SYSTEMATIC_ASSESSMENT","stats":[{"groupId":"EG000","numAffected":1,"numAtRisk":475},{"groupId":"EG001","numAffected":0,"numAtRisk":473}]},{"term":"Orthostatic hypotension","organSystem":"Vascular disorders","sourceVocabulary":"MedDRA 18.0","assessmentType":"SYSTEMATIC_ASSESSMENT","stats":[{"groupId":"EG000","numAffected":0,"numAtRisk":475},{"groupId":"EG001","numAffected":1,"numAtRisk":473}]},{"term":"Pleural effusion","organSystem":"Respiratory, thoracic and mediastinal disorders","sourceVocabulary":"MedDRA 18.0","assessmentType":"SYSTEMATIC_ASSESSMENT","stats":[{"groupId":"EG000","numAffected":2,"numAtRisk":475},{"groupId":"EG001","numAffected":6,"numAtRisk":473}]},{"term":"Renal function test abnormal","organSystem":"Investigations","sourceVocabulary":"MedDRA 18.0","assessmentType":"SYSTEMATIC_ASSESSMENT","stats":[{"groupId":"EG000","numAffected":1,"numAtRisk":475},{"groupId":"EG001","numAffected":0,"numAtRisk":473}]},{"term":"Respiratory tract infection","organSystem":"Infections and infestations","sourceVocabulary":"MedDRA 18.0","assessmentType":"SYSTEMATIC_ASSESSMENT","stats":[{"groupId":"EG000","numAffected":1,"numAtRisk":475},{"groupId":"EG001","numAffected":2,"numAtRisk":473}]},{"term":"Sepsis","organSystem":"Infections and infestations","sourceVocabulary":"MedDRA 18.0","assessmentType":"SYSTEMATIC_ASSESSMENT","stats":[{"groupId":"EG000","numAffected":7,"numAtRisk":475},{"groupId":"EG001","numAffected":7,"numAtRisk":473}]},{"term":"Spinal column injury","organSystem":"Injury, poisoning and procedural complications","sourceVocabulary":"MedDRA 18.0","assessmentType":"SYSTEMATIC_ASSESSMENT","stats":[{"groupId":"EG000","numAffected":1,"numAtRisk":475},{"groupId":"EG001","numAffected":0,"numAtRisk":473}]},{"term":"Subileus","organSystem":"Gastrointestinal disorders","sourceVocabulary":"MedDRA 18.0","assessmentType":"SYSTEMATIC_ASSESSMENT","stats":[{"groupId":"EG000","numAffected":1,"numAtRisk":475},{"groupId":"EG001","numAffected":0,"numAtRisk":473}]},{"term":"Sudden death","organSystem":"General disorders","sourceVocabulary":"MedDRA 18.0","assessmentType":"SYSTEMATIC_ASSESSMENT","stats":[{"groupId":"EG000","numAffected":3,"numAtRisk":475},{"groupId":"EG001","numAffected":1,"numAtRisk":473}]},{"term":"Superior vena cava occlusion","organSystem":"Vascular disorders","sourceVocabulary":"MedDRA 18.0","assessmentType":"SYSTEMATIC_ASSESSMENT","stats":[{"groupId":"EG000","numAffected":1,"numAtRisk":475},{"groupId":"EG001","numAffected":0,"numAtRisk":473}]},{"term":"Tracheobronchitis","organSystem":"Infections and infestations","sourceVocabulary":"MedDRA 18.0","assessmentType":"SYSTEMATIC_ASSESSMENT","stats":[{"groupId":"EG000","numAffected":1,"numAtRisk":475},{"groupId":"EG001","numAffected":0,"numAtRisk":473}]},{"term":"Tumour perforation","organSystem":"Neoplasms benign, malignant and unspecified (incl cysts and polyps)","sourceVocabulary":"MedDRA 18.0","assessmentType":"SYSTEMATIC_ASSESSMENT","stats":[{"groupId":"EG000","numAffected":0,"numAtRisk":475},{"groupId":"EG001","numAffected":1,"numAtRisk":473}]},{"term":"Urinary tract infection","organSystem":"Infections and infestations","sourceVocabulary":"MedDRA 18.0","assessmentType":"SYSTEMATIC_ASSESSMENT","stats":[{"groupId":"EG000","numAffected":3,"numAtRisk":475},{"groupId":"EG001","numAffected":2,"numAtRisk":473}]},{"term":"Abdominal pain","organSystem":"Gastrointestinal disorders","sourceVocabulary":"MedDRA 18.0","assessmentType":"SYSTEMATIC_ASSESSMENT","stats":[{"groupId":"EG000","numAffected":3,"numAtRisk":475},{"groupId":"EG001","numAffected":1,"numAtRisk":473}]},{"term":"Acute hepatic failure","organSystem":"Hepatobiliary disorders","sourceVocabulary":"MedDRA 18.0","assessmentType":"SYSTEMATIC_ASSESSMENT","stats":[{"groupId":"EG000","numAffected":1,"numAtRisk":475},{"groupId":"EG001","numAffected":0,"numAtRisk":473}]},{"term":"Acute kidney injury","organSystem":"Renal and urinary disorders","sourceVocabulary":"MedDRA 18.0","assessmentType":"SYSTEMATIC_ASSESSMENT","stats":[{"groupId":"EG000","numAffected":3,"numAtRisk":475},{"groupId":"EG001","numAffected":2,"numAtRisk":473}]},{"term":"Blood glucose increased","organSystem":"Investigations","sourceVocabulary":"MedDRA 18.0","assessmentType":"SYSTEMATIC_ASSESSMENT","stats":[{"groupId":"EG000","numAffected":0,"numAtRisk":475},{"groupId":"EG001","numAffected":1,"numAtRisk":473}]},{"term":"Cerebrovascular accident","organSystem":"Nervous system disorders","sourceVocabulary":"MedDRA 18.0","assessmentType":"SYSTEMATIC_ASSESSMENT","stats":[{"groupId":"EG000","numAffected":3,"numAtRisk":475},{"groupId":"EG001","numAffected":4,"numAtRisk":473}]},{"term":"Colitis ischaemic","organSystem":"Gastrointestinal disorders","sourceVocabulary":"MedDRA 18.0","assessmentType":"SYSTEMATIC_ASSESSMENT","stats":[{"groupId":"EG000","numAffected":1,"numAtRisk":475},{"groupId":"EG001","numAffected":0,"numAtRisk":473}]},{"term":"Dysphagia","organSystem":"Gastrointestinal disorders","sourceVocabulary":"MedDRA 18.0","assessmentType":"SYSTEMATIC_ASSESSMENT","stats":[{"groupId":"EG000","numAffected":1,"numAtRisk":475},{"groupId":"EG001","numAffected":1,"numAtRisk":473}]},{"term":"Endocrine disorder","organSystem":"Endocrine disorders","sourceVocabulary":"MedDRA 18.0","assessmentType":"SYSTEMATIC_ASSESSMENT","stats":[{"groupId":"EG000","numAffected":1,"numAtRisk":475},{"groupId":"EG001","numAffected":0,"numAtRisk":473}]},{"term":"Erythema","organSystem":"Skin and subcutaneous tissue disorders","sourceVocabulary":"MedDRA 18.0","assessmentType":"SYSTEMATIC_ASSESSMENT","stats":[{"groupId":"EG000","numAffected":1,"numAtRisk":475},{"groupId":"EG001","numAffected":0,"numAtRisk":473}]},{"term":"Facial paresis","organSystem":"Nervous system disorders","sourceVocabulary":"MedDRA 18.0","assessmentType":"SYSTEMATIC_ASSESSMENT","stats":[{"groupId":"EG000","numAffected":2,"numAtRisk":475},{"groupId":"EG001","numAffected":0,"numAtRisk":473}]},{"term":"Febrile neutropenia","organSystem":"Blood and lymphatic system disorders","sourceVocabulary":"MedDRA 18.0","assessmentType":"SYSTEMATIC_ASSESSMENT","stats":[{"groupId":"EG000","numAffected":20,"numAtRisk":475},{"groupId":"EG001","numAffected":11,"numAtRisk":473}]},{"term":"Gastrointestinal haemorrhage","organSystem":"Gastrointestinal disorders","sourceVocabulary":"MedDRA 18.0","assessmentType":"SYSTEMATIC_ASSESSMENT","stats":[{"groupId":"EG000","numAffected":0,"numAtRisk":475},{"groupId":"EG001","numAffected":2,"numAtRisk":473}]},{"term":"General physical condition abnormal","organSystem":"Investigations","sourceVocabulary":"MedDRA 18.0","assessmentType":"SYSTEMATIC_ASSESSMENT","stats":[{"groupId":"EG000","numAffected":2,"numAtRisk":475},{"groupId":"EG001","numAffected":1,"numAtRisk":473}]},{"term":"Hypercalcaemia","organSystem":"Metabolism and nutrition disorders","sourceVocabulary":"MedDRA 18.0","assessmentType":"SYSTEMATIC_ASSESSMENT","stats":[{"groupId":"EG000","numAffected":1,"numAtRisk":475},{"groupId":"EG001","numAffected":2,"numAtRisk":473}]},{"term":"Ileus","organSystem":"Gastrointestinal disorders","sourceVocabulary":"MedDRA 18.0","assessmentType":"SYSTEMATIC_ASSESSMENT","stats":[{"groupId":"EG000","numAffected":0,"numAtRisk":475},{"groupId":"EG001","numAffected":3,"numAtRisk":473}]},{"term":"Infectious colitis","organSystem":"Infections and infestations","sourceVocabulary":"MedDRA 18.0","assessmentType":"SYSTEMATIC_ASSESSMENT","stats":[{"groupId":"EG000","numAffected":1,"numAtRisk":475},{"groupId":"EG001","numAffected":0,"numAtRisk":473}]},{"term":"Jaundice cholestatic","organSystem":"Hepatobiliary disorders","sourceVocabulary":"MedDRA 18.0","assessmentType":"SYSTEMATIC_ASSESSMENT","stats":[{"groupId":"EG000","numAffected":1,"numAtRisk":475},{"groupId":"EG001","numAffected":0,"numAtRisk":473}]},{"term":"Metastases to liver","organSystem":"Neoplasms benign, malignant and unspecified (incl cysts and polyps)","sourceVocabulary":"MedDRA 18.0","assessmentType":"SYSTEMATIC_ASSESSMENT","stats":[{"groupId":"EG000","numAffected":0,"numAtRisk":475},{"groupId":"EG001","numAffected":1,"numAtRisk":473}]},{"term":"Multi-organ failure","organSystem":"General disorders","sourceVocabulary":"MedDRA 18.0","assessmentType":"SYSTEMATIC_ASSESSMENT","stats":[{"groupId":"EG000","numAffected":3,"numAtRisk":475},{"groupId":"EG001","numAffected":1,"numAtRisk":473}]},{"term":"Nausea","organSystem":"Gastrointestinal disorders","sourceVocabulary":"MedDRA 18.0","assessmentType":"SYSTEMATIC_ASSESSMENT","stats":[{"groupId":"EG000","numAffected":2,"numAtRisk":475},{"groupId":"EG001","numAffected":1,"numAtRisk":473}]},{"term":"Neutropenia","organSystem":"Blood and lymphatic system disorders","sourceVocabulary":"MedDRA 18.0","assessmentType":"SYSTEMATIC_ASSESSMENT","stats":[{"groupId":"EG000","numAffected":16,"numAtRisk":475},{"groupId":"EG001","numAffected":9,"numAtRisk":473}]},{"term":"Neutropenic sepsis","organSystem":"Infections and infestations","sourceVocabulary":"MedDRA 18.0","assessmentType":"SYSTEMATIC_ASSESSMENT","stats":[{"groupId":"EG000","numAffected":1,"numAtRisk":475},{"groupId":"EG001","numAffected":1,"numAtRisk":473}]},{"term":"Neutrophil count decreased","organSystem":"Investigations","sourceVocabulary":"MedDRA 18.0","assessmentType":"SYSTEMATIC_ASSESSMENT","stats":[{"groupId":"EG000","numAffected":0,"numAtRisk":475},{"groupId":"EG001","numAffected":1,"numAtRisk":473}]},{"term":"Pain in extremity","organSystem":"Musculoskeletal and connective tissue disorders","sourceVocabulary":"MedDRA 18.0","assessmentType":"SYSTEMATIC_ASSESSMENT","stats":[{"groupId":"EG000","numAffected":1,"numAtRisk":475},{"groupId":"EG001","numAffected":0,"numAtRisk":473}]},{"term":"Palpitations","organSystem":"Cardiac disorders","sourceVocabulary":"MedDRA 18.0","assessmentType":"SYSTEMATIC_ASSESSMENT","stats":[{"groupId":"EG000","numAffected":0,"numAtRisk":475},{"groupId":"EG001","numAffected":1,"numAtRisk":473}]},{"term":"Pharyngitis","organSystem":"Infections and infestations","sourceVocabulary":"MedDRA 18.0","assessmentType":"SYSTEMATIC_ASSESSMENT","stats":[{"groupId":"EG000","numAffected":2,"numAtRisk":475},{"groupId":"EG001","numAffected":0,"numAtRisk":473}]},{"term":"Phlebitis superficial","organSystem":"Vascular disorders","sourceVocabulary":"MedDRA 18.0","assessmentType":"SYSTEMATIC_ASSESSMENT","stats":[{"groupId":"EG000","numAffected":0,"numAtRisk":475},{"groupId":"EG001","numAffected":1,"numAtRisk":473}]},{"term":"Polyneuropathy","organSystem":"Nervous system disorders","sourceVocabulary":"MedDRA 18.0","assessmentType":"SYSTEMATIC_ASSESSMENT","stats":[{"groupId":"EG000","numAffected":1,"numAtRisk":475},{"groupId":"EG001","numAffected":1,"numAtRisk":473}]},{"term":"Pulmonary artery stenosis","organSystem":"Respiratory, thoracic and mediastinal disorders","sourceVocabulary":"MedDRA 18.0","assessmentType":"SYSTEMATIC_ASSESSMENT","stats":[{"groupId":"EG000","numAffected":1,"numAtRisk":475},{"groupId":"EG001","numAffected":0,"numAtRisk":473}]},{"term":"Renal colic","organSystem":"Renal and urinary disorders","sourceVocabulary":"MedDRA 18.0","assessmentType":"SYSTEMATIC_ASSESSMENT","stats":[{"groupId":"EG000","numAffected":1,"numAtRisk":475},{"groupId":"EG001","numAffected":0,"numAtRisk":473}]},{"term":"Renal impairment","organSystem":"Renal and urinary disorders","sourceVocabulary":"MedDRA 18.0","assessmentType":"SYSTEMATIC_ASSESSMENT","stats":[{"groupId":"EG000","numAffected":1,"numAtRisk":475},{"groupId":"EG001","numAffected":2,"numAtRisk":473}]},{"term":"Seizure","organSystem":"Nervous system disorders","sourceVocabulary":"MedDRA 18.0","assessmentType":"SYSTEMATIC_ASSESSMENT","stats":[{"groupId":"EG000","numAffected":1,"numAtRisk":475},{"groupId":"EG001","numAffected":0,"numAtRisk":473}]},{"term":"Sinus tachycardia","organSystem":"Cardiac disorders","sourceVocabulary":"MedDRA 18.0","assessmentType":"SYSTEMATIC_ASSESSMENT","stats":[{"groupId":"EG000","numAffected":1,"numAtRisk":475},{"groupId":"EG001","numAffected":1,"numAtRisk":473}]},{"term":"Stomatitis","organSystem":"Gastrointestinal disorders","sourceVocabulary":"MedDRA 18.0","assessmentType":"SYSTEMATIC_ASSESSMENT","stats":[{"groupId":"EG000","numAffected":1,"numAtRisk":475},{"groupId":"EG001","numAffected":0,"numAtRisk":473}]},{"term":"Systemic inflammatory response syndrome","organSystem":"General disorders","sourceVocabulary":"MedDRA 18.0","assessmentType":"SYSTEMATIC_ASSESSMENT","stats":[{"groupId":"EG000","numAffected":1,"numAtRisk":475},{"groupId":"EG001","numAffected":0,"numAtRisk":473}]},{"term":"Thrombosis","organSystem":"Vascular disorders","sourceVocabulary":"MedDRA 18.0","assessmentType":"SYSTEMATIC_ASSESSMENT","stats":[{"groupId":"EG000","numAffected":1,"numAtRisk":475},{"groupId":"EG001","numAffected":0,"numAtRisk":473}]},{"term":"Tuberculosis","organSystem":"Infections and infestations","sourceVocabulary":"MedDRA 18.0","assessmentType":"SYSTEMATIC_ASSESSMENT","stats":[{"groupId":"EG000","numAffected":1,"numAtRisk":475},{"groupId":"EG001","numAffected":0,"numAtRisk":473}]},{"term":"Type 2 diabetes mellitus","organSystem":"Metabolism and nutrition disorders","sourceVocabulary":"MedDRA 18.0","assessmentType":"SYSTEMATIC_ASSESSMENT","stats":[{"groupId":"EG000","numAffected":0,"numAtRisk":475},{"groupId":"EG001","numAffected":1,"numAtRisk":473}]},{"term":"Ulcerative keratitis","organSystem":"Eye disorders","sourceVocabulary":"MedDRA 18.0","assessmentType":"SYSTEMATIC_ASSESSMENT","stats":[{"groupId":"EG000","numAffected":1,"numAtRisk":475},{"groupId":"EG001","numAffected":0,"numAtRisk":473}]},{"term":"Guillain-barre syndrome","organSystem":"Nervous system disorders","sourceVocabulary":"MedDRA 18.0","assessmentType":"SYSTEMATIC_ASSESSMENT","stats":[{"groupId":"EG000","numAffected":1,"numAtRisk":475},{"groupId":"EG001","numAffected":0,"numAtRisk":473}]}],"otherEvents":[{"term":"Anaemia","organSystem":"Blood and lymphatic system disorders","sourceVocabulary":"MedDRA 18.0","assessmentType":"SYSTEMATIC_ASSESSMENT","stats":[{"groupId":"EG000","numAffected":171,"numAtRisk":475},{"groupId":"EG001","numAffected":157,"numAtRisk":473}]},{"term":"Decreased appetite","organSystem":"Metabolism and nutrition disorders","sourceVocabulary":"MedDRA 18.0","assessmentType":"SYSTEMATIC_ASSESSMENT","stats":[{"groupId":"EG000","numAffected":145,"numAtRisk":475},{"groupId":"EG001","numAffected":116,"numAtRisk":473}]},{"term":"Haemoglobin decreased","organSystem":"Investigations","sourceVocabulary":"MedDRA 18.0","assessmentType":"SYSTEMATIC_ASSESSMENT","stats":[{"groupId":"EG000","numAffected":38,"numAtRisk":475},{"groupId":"EG001","numAffected":30,"numAtRisk":473}]},{"term":"Myalgia","organSystem":"Musculoskeletal and connective tissue disorders","sourceVocabulary":"MedDRA 18.0","assessmentType":"SYSTEMATIC_ASSESSMENT","stats":[{"groupId":"EG000","numAffected":66,"numAtRisk":475},{"groupId":"EG001","numAffected":61,"numAtRisk":473}]},{"term":"Oedema peripheral","organSystem":"General disorders","sourceVocabulary":"MedDRA 18.0","assessmentType":"SYSTEMATIC_ASSESSMENT","stats":[{"groupId":"EG000","numAffected":25,"numAtRisk":475},{"groupId":"EG001","numAffected":31,"numAtRisk":473}]},{"term":"Peripheral sensory neuropathy","organSystem":"Nervous system disorders","sourceVocabulary":"MedDRA 18.0","assessmentType":"SYSTEMATIC_ASSESSMENT","stats":[{"groupId":"EG000","numAffected":71,"numAtRisk":475},{"groupId":"EG001","numAffected":98,"numAtRisk":473}]},{"term":"White blood cell count decreased","organSystem":"Investigations","sourceVocabulary":"MedDRA 18.0","assessmentType":"SYSTEMATIC_ASSESSMENT","stats":[{"groupId":"EG000","numAffected":25,"numAtRisk":475},{"groupId":"EG001","numAffected":31,"numAtRisk":473}]},{"term":"Aspartate aminotransferase increased","organSystem":"Investigations","sourceVocabulary":"MedDRA 18.0","assessmentType":"SYSTEMATIC_ASSESSMENT","stats":[{"groupId":"EG000","numAffected":34,"numAtRisk":475},{"groupId":"EG001","numAffected":20,"numAtRisk":473}]},{"term":"Asthenia","organSystem":"General disorders","sourceVocabulary":"MedDRA 18.0","assessmentType":"SYSTEMATIC_ASSESSMENT","stats":[{"groupId":"EG000","numAffected":80,"numAtRisk":475},{"groupId":"EG001","numAffected":55,"numAtRisk":473}]},{"term":"Bone pain","organSystem":"Musculoskeletal and connective tissue disorders","sourceVocabulary":"MedDRA 18.0","assessmentType":"SYSTEMATIC_ASSESSMENT","stats":[{"groupId":"EG000","numAffected":32,"numAtRisk":475},{"groupId":"EG001","numAffected":26,"numAtRisk":473}]},{"term":"Chest pain","organSystem":"General disorders","sourceVocabulary":"MedDRA 18.0","assessmentType":"SYSTEMATIC_ASSESSMENT","stats":[{"groupId":"EG000","numAffected":26,"numAtRisk":475},{"groupId":"EG001","numAffected":45,"numAtRisk":473}]},{"term":"Paraesthesia","organSystem":"Nervous system disorders","sourceVocabulary":"MedDRA 18.0","assessmentType":"SYSTEMATIC_ASSESSMENT","stats":[{"groupId":"EG000","numAffected":20,"numAtRisk":475},{"groupId":"EG001","numAffected":28,"numAtRisk":473}]},{"term":"Weight decreased","organSystem":"Investigations","sourceVocabulary":"MedDRA 18.0","assessmentType":"SYSTEMATIC_ASSESSMENT","stats":[{"groupId":"EG000","numAffected":44,"numAtRisk":475},{"groupId":"EG001","numAffected":27,"numAtRisk":473}]},{"term":"Headache","organSystem":"Nervous system disorders","sourceVocabulary":"MedDRA 18.0","assessmentType":"SYSTEMATIC_ASSESSMENT","stats":[{"groupId":"EG000","numAffected":30,"numAtRisk":475},{"groupId":"EG001","numAffected":22,"numAtRisk":473}]},{"term":"Leukopenia","organSystem":"Blood and lymphatic system disorders","sourceVocabulary":"MedDRA 18.0","assessmentType":"SYSTEMATIC_ASSESSMENT","stats":[{"groupId":"EG000","numAffected":44,"numAtRisk":475},{"groupId":"EG001","numAffected":54,"numAtRisk":473}]},{"term":"Thrombocytopenia","organSystem":"Blood and lymphatic system disorders","sourceVocabulary":"MedDRA 18.0","assessmentType":"SYSTEMATIC_ASSESSMENT","stats":[{"groupId":"EG000","numAffected":77,"numAtRisk":475},{"groupId":"EG001","numAffected":70,"numAtRisk":473}]},{"term":"Alopecia","organSystem":"Skin and subcutaneous tissue disorders","sourceVocabulary":"MedDRA 18.0","assessmentType":"SYSTEMATIC_ASSESSMENT","stats":[{"groupId":"EG000","numAffected":181,"numAtRisk":475},{"groupId":"EG001","numAffected":175,"numAtRisk":473}]},{"term":"Haemoptysis","organSystem":"Respiratory, thoracic and mediastinal disorders","sourceVocabulary":"MedDRA 18.0","assessmentType":"SYSTEMATIC_ASSESSMENT","stats":[{"groupId":"EG000","numAffected":34,"numAtRisk":475},{"groupId":"EG001","numAffected":41,"numAtRisk":473}]},{"term":"Hypomagnesaemia","organSystem":"Metabolism and nutrition disorders","sourceVocabulary":"MedDRA 18.0","assessmentType":"SYSTEMATIC_ASSESSMENT","stats":[{"groupId":"EG000","numAffected":27,"numAtRisk":475},{"groupId":"EG001","numAffected":15,"numAtRisk":473}]},{"term":"Insomnia","organSystem":"Psychiatric disorders","sourceVocabulary":"MedDRA 18.0","assessmentType":"SYSTEMATIC_ASSESSMENT","stats":[{"groupId":"EG000","numAffected":61,"numAtRisk":475},{"groupId":"EG001","numAffected":49,"numAtRisk":473}]},{"term":"Mucosal inflammation","organSystem":"General disorders","sourceVocabulary":"MedDRA 18.0","assessmentType":"SYSTEMATIC_ASSESSMENT","stats":[{"groupId":"EG000","numAffected":10,"numAtRisk":475},{"groupId":"EG001","numAffected":27,"numAtRisk":473}]},{"term":"Musculoskeletal pain","organSystem":"Musculoskeletal and connective tissue disorders","sourceVocabulary":"MedDRA 18.0","assessmentType":"SYSTEMATIC_ASSESSMENT","stats":[{"groupId":"EG000","numAffected":20,"numAtRisk":475},{"groupId":"EG001","numAffected":24,"numAtRisk":473}]},{"term":"Neuropathy peripheral","organSystem":"Nervous system disorders","sourceVocabulary":"MedDRA 18.0","assessmentType":"SYSTEMATIC_ASSESSMENT","stats":[{"groupId":"EG000","numAffected":61,"numAtRisk":475},{"groupId":"EG001","numAffected":57,"numAtRisk":473}]},{"term":"Platelet count decreased","organSystem":"Investigations","sourceVocabulary":"MedDRA 18.0","assessmentType":"SYSTEMATIC_ASSESSMENT","stats":[{"groupId":"EG000","numAffected":47,"numAtRisk":475},{"groupId":"EG001","numAffected":32,"numAtRisk":473}]},{"term":"Pyrexia","organSystem":"General disorders","sourceVocabulary":"MedDRA 18.0","assessmentType":"SYSTEMATIC_ASSESSMENT","stats":[{"groupId":"EG000","numAffected":91,"numAtRisk":475},{"groupId":"EG001","numAffected":70,"numAtRisk":473}]},{"term":"Vomiting","organSystem":"Gastrointestinal disorders","sourceVocabulary":"MedDRA 18.0","assessmentType":"SYSTEMATIC_ASSESSMENT","stats":[{"groupId":"EG000","numAffected":89,"numAtRisk":475},{"groupId":"EG001","numAffected":68,"numAtRisk":473}]},{"term":"Abdominal pain upper","organSystem":"Gastrointestinal disorders","sourceVocabulary":"MedDRA 18.0","assessmentType":"SYSTEMATIC_ASSESSMENT","stats":[{"groupId":"EG000","numAffected":24,"numAtRisk":475},{"groupId":"EG001","numAffected":23,"numAtRisk":473}]},{"term":"Alanine aminotransferase increased","organSystem":"Investigations","sourceVocabulary":"MedDRA 18.0","assessmentType":"SYSTEMATIC_ASSESSMENT","stats":[{"groupId":"EG000","numAffected":37,"numAtRisk":475},{"groupId":"EG001","numAffected":26,"numAtRisk":473}]},{"term":"Dehydration","organSystem":"Metabolism and nutrition disorders","sourceVocabulary":"MedDRA 18.0","assessmentType":"SYSTEMATIC_ASSESSMENT","stats":[{"groupId":"EG000","numAffected":24,"numAtRisk":475},{"groupId":"EG001","numAffected":7,"numAtRisk":473}]},{"term":"Dizziness","organSystem":"Nervous system disorders","sourceVocabulary":"MedDRA 18.0","assessmentType":"SYSTEMATIC_ASSESSMENT","stats":[{"groupId":"EG000","numAffected":35,"numAtRisk":475},{"groupId":"EG001","numAffected":58,"numAtRisk":473}]},{"term":"Dyspnoea","organSystem":"Respiratory, thoracic and mediastinal disorders","sourceVocabulary":"MedDRA 18.0","assessmentType":"SYSTEMATIC_ASSESSMENT","stats":[{"groupId":"EG000","numAffected":94,"numAtRisk":475},{"groupId":"EG001","numAffected":97,"numAtRisk":473}]},{"term":"Hyponatraemia","organSystem":"Metabolism and nutrition disorders","sourceVocabulary":"MedDRA 18.0","assessmentType":"SYSTEMATIC_ASSESSMENT","stats":[{"groupId":"EG000","numAffected":37,"numAtRisk":475},{"groupId":"EG001","numAffected":11,"numAtRisk":473}]},{"term":"Pruritus","organSystem":"Skin and subcutaneous tissue disorders","sourceVocabulary":"MedDRA 18.0","assessmentType":"SYSTEMATIC_ASSESSMENT","stats":[{"groupId":"EG000","numAffected":78,"numAtRisk":475},{"groupId":"EG001","numAffected":27,"numAtRisk":473}]},{"term":"Arthralgia","organSystem":"Musculoskeletal and connective tissue disorders","sourceVocabulary":"MedDRA 18.0","assessmentType":"SYSTEMATIC_ASSESSMENT","stats":[{"groupId":"EG000","numAffected":77,"numAtRisk":475},{"groupId":"EG001","numAffected":58,"numAtRisk":473}]},{"term":"Cough","organSystem":"Respiratory, thoracic and mediastinal disorders","sourceVocabulary":"MedDRA 18.0","assessmentType":"SYSTEMATIC_ASSESSMENT","stats":[{"groupId":"EG000","numAffected":82,"numAtRisk":475},{"groupId":"EG001","numAffected":85,"numAtRisk":473}]},{"term":"Hypokalaemia","organSystem":"Metabolism and nutrition disorders","sourceVocabulary":"MedDRA 18.0","assessmentType":"SYSTEMATIC_ASSESSMENT","stats":[{"groupId":"EG000","numAffected":51,"numAtRisk":475},{"groupId":"EG001","numAffected":31,"numAtRisk":473}]},{"term":"Rash","organSystem":"Skin and subcutaneous tissue disorders","sourceVocabulary":"MedDRA 18.0","assessmentType":"SYSTEMATIC_ASSESSMENT","stats":[{"groupId":"EG000","numAffected":87,"numAtRisk":475},{"groupId":"EG001","numAffected":45,"numAtRisk":473}]},{"term":"Back pain","organSystem":"Musculoskeletal and connective tissue disorders","sourceVocabulary":"MedDRA 18.0","assessmentType":"SYSTEMATIC_ASSESSMENT","stats":[{"groupId":"EG000","numAffected":34,"numAtRisk":475},{"groupId":"EG001","numAffected":38,"numAtRisk":473}]},{"term":"Constipation","organSystem":"Gastrointestinal disorders","sourceVocabulary":"MedDRA 18.0","assessmentType":"SYSTEMATIC_ASSESSMENT","stats":[{"groupId":"EG000","numAffected":117,"numAtRisk":475},{"groupId":"EG001","numAffected":103,"numAtRisk":473}]},{"term":"Diarrhoea","organSystem":"Gastrointestinal disorders","sourceVocabulary":"MedDRA 18.0","assessmentType":"SYSTEMATIC_ASSESSMENT","stats":[{"groupId":"EG000","numAffected":145,"numAtRisk":475},{"groupId":"EG001","numAffected":89,"numAtRisk":473}]},{"term":"Fatigue","organSystem":"General disorders","sourceVocabulary":"MedDRA 18.0","assessmentType":"SYSTEMATIC_ASSESSMENT","stats":[{"groupId":"EG000","numAffected":142,"numAtRisk":475},{"groupId":"EG001","numAffected":140,"numAtRisk":473}]},{"term":"Abdominal pain","organSystem":"Gastrointestinal disorders","sourceVocabulary":"MedDRA 18.0","assessmentType":"SYSTEMATIC_ASSESSMENT","stats":[{"groupId":"EG000","numAffected":25,"numAtRisk":475},{"groupId":"EG001","numAffected":26,"numAtRisk":473}]},{"term":"Nausea","organSystem":"Gastrointestinal disorders","sourceVocabulary":"MedDRA 18.0","assessmentType":"SYSTEMATIC_ASSESSMENT","stats":[{"groupId":"EG000","numAffected":152,"numAtRisk":475},{"groupId":"EG001","numAffected":151,"numAtRisk":473}]},{"term":"Neutropenia","organSystem":"Blood and lymphatic system disorders","sourceVocabulary":"MedDRA 18.0","assessmentType":"SYSTEMATIC_ASSESSMENT","stats":[{"groupId":"EG000","numAffected":107,"numAtRisk":475},{"groupId":"EG001","numAffected":102,"numAtRisk":473}]},{"term":"Neutrophil count decreased","organSystem":"Investigations","sourceVocabulary":"MedDRA 18.0","assessmentType":"SYSTEMATIC_ASSESSMENT","stats":[{"groupId":"EG000","numAffected":31,"numAtRisk":475},{"groupId":"EG001","numAffected":31,"numAtRisk":473}]},{"term":"Pain in extremity","organSystem":"Musculoskeletal and connective tissue disorders","sourceVocabulary":"MedDRA 18.0","assessmentType":"SYSTEMATIC_ASSESSMENT","stats":[{"groupId":"EG000","numAffected":43,"numAtRisk":475},{"groupId":"EG001","numAffected":43,"numAtRisk":473}]},{"term":"Stomatitis","organSystem":"Gastrointestinal disorders","sourceVocabulary":"MedDRA 18.0","assessmentType":"SYSTEMATIC_ASSESSMENT","stats":[{"groupId":"EG000","numAffected":27,"numAtRisk":475},{"groupId":"EG001","numAffected":24,"numAtRisk":473}]}]},"moreInfoModule":{"certainAgreement":{"piSponsorEmployee":false,"restrictionType":"OTHER","restrictiveAgreement":true,"otherDetails":"Bristol-Myers Squibb Co. agreements with investigators vary; constant is our right to embargo communications regarding trial results prior to public release for a period ≤60 days from submittal for review. We will not prohibit investigators from publishing, but will prohibit the disclosure of previously undisclosed confidential information other than study results, and request postponement of single-center publications until after disclosure of the clinical trial's primary publication."},"pointOfContact":{"title":"Bristol-Myers Squibb Study Director","organization":"Bristol-Myers Squibb","email":"Clinical.Trials@bms.com"}}},"derivedSection":{"miscInfoModule":{"versionHolder":"2025-12-17"},"interventionBrowseModule":{"meshes":[{"id":"D000074324","term":"Ipilimumab"},{"id":"D017239","term":"Paclitaxel"},{"id":"D016190","term":"Carboplatin"}],"ancestors":[{"id":"D061067","term":"Antibodies, Monoclonal, Humanized"},{"id":"D000911","term":"Antibodies, Monoclonal"},{"id":"D000906","term":"Antibodies"},{"id":"D007136","term":"Immunoglobulins"},{"id":"D007162","term":"Immunoproteins"},{"id":"D001798","term":"Blood Proteins"},{"id":"D011506","term":"Proteins"},{"id":"D000602","term":"Amino Acids, Peptides, and Proteins"},{"id":"D012712","term":"Serum Globulins"},{"id":"D005916","term":"Globulins"},{"id":"D043823","term":"Taxoids"},{"id":"D043822","term":"Cyclodecanes"},{"id":"D003516","term":"Cycloparaffins"},{"id":"D006840","term":"Hydrocarbons, Alicyclic"},{"id":"D006844","term":"Hydrocarbons, Cyclic"},{"id":"D006838","term":"Hydrocarbons"},{"id":"D009930","term":"Organic Chemicals"},{"id":"D004224","term":"Diterpenes"},{"id":"D013729","term":"Terpenes"},{"id":"D056831","term":"Coordination Complexes"}]}},"hasResults":true}