{"protocolSection":{"identificationModule":{"nctId":"NCT00050960","nctIdAliases":["NCT00036907"],"orgStudyIdInfo":{"id":"L1069-48"},"organization":{"fullName":"Eisai Inc.","class":"INDUSTRY"},"briefTitle":"Evaluation of Efficacy, Safety and Tolerability of Targretin Capsules in Patients With Advanced or Metastatic Non-small Cell Lung Cancer","officialTitle":"Randomized Phase III Trial Comparing Targretin Capsules/Carboplatin/Paclitaxel Versus Carboplatin/Paclitaxel in Chemotherapy-Naïve Patients With Advanced or Metastatic Non-Small Cell Lung Cancer"},"statusModule":{"statusVerifiedDate":"2012-07","overallStatus":"COMPLETED","expandedAccessInfo":{"hasExpandedAccess":false},"startDateStruct":{"date":"2002-05"},"primaryCompletionDateStruct":{"date":"2004-07","type":"ACTUAL"},"completionDateStruct":{"date":"2005-03","type":"ACTUAL"},"studyFirstSubmitDate":"2002-12-31","studyFirstSubmitQcDate":"2003-01-02","studyFirstPostDateStruct":{"date":"2003-01-03","type":"ESTIMATED"},"resultsFirstSubmitDate":"2010-07-23","resultsFirstSubmitQcDate":"2010-07-23","resultsFirstPostDateStruct":{"date":"2010-08-24","type":"ESTIMATED"},"lastUpdateSubmitDate":"2012-07-07","lastUpdatePostDateStruct":{"date":"2012-07-13","type":"ESTIMATED"}},"sponsorCollaboratorsModule":{"responsibleParty":{"oldNameTitle":"Eisai, Inc","oldOrganization":"Eisai, Inc"},"leadSponsor":{"name":"Eisai Inc.","class":"INDUSTRY"}},"descriptionModule":{"briefSummary":"This study evaluates the use of Targretin capsules (bexarotene) in combination with standard chemotherapy for the treatment of metastatic Non-Small Cell Lung Cancer (NSCLC) in patients who have not yet received chemotherapy for their lung cancer.","detailedDescription":"This study evaluates the use of Targretin capsules (bexarotene) in combination with Carboplatin and Paclitaxel for the treatment of metastatic non-small cell lung cancer in patients who have not yet received chemotherapy for their lung cancer. Every patient receives a platinum-containing chemotherapy every three weeks for at least four chemotherapy cycles (approximately four months). Half of the patients are randomly assigned to receive Targretin capsules once daily in addition to the chemotherapy. The other half is randomized to receive a standard platinum-containing chemotherapy without Targretin capsules."},"conditionsModule":{"conditions":["Non-small Cell Lung Cancer"],"keywords":["NSCLC","Targretin","Retinoid","Bexarotene"]},"designModule":{"studyType":"INTERVENTIONAL","phases":["PHASE3"],"designInfo":{"allocation":"RANDOMIZED","interventionModel":"PARALLEL","primaryPurpose":"TREATMENT","maskingInfo":{"masking":"NONE"}},"enrollmentInfo":{"count":612,"type":"ACTUAL"}},"armsInterventionsModule":{"armGroups":[{"label":"bexarotene with carboplatin and paclitaxel","type":"EXPERIMENTAL","interventionNames":["Drug: bexarotene with carboplatin and paclitaxel"]},{"label":"carboplatin and paclitaxel","type":"EXPERIMENTAL","interventionNames":["Drug: carboplatin and paclitaxel"]}],"interventions":[{"type":"DRUG","name":"bexarotene with carboplatin and paclitaxel","description":"bexarotene capsules (400 mg/m\\^2/day) in combination with carboplatin IV (AUC 6) every 3 weeks and paclitaxel IV (200 mg/m\\^2) every 3 weeks. Subjects in this group also received an antilipid agent which was selected at the discretion of the investigator.","armGroupLabels":["bexarotene with carboplatin and paclitaxel"]},{"type":"DRUG","name":"carboplatin and paclitaxel","description":"carboplatin IV (AUC 6) every 3 weeks and paclitaxel IV (200 mg/m\\^2) every 3 weeks.","armGroupLabels":["carboplatin and paclitaxel"]}]},"outcomesModule":{"primaryOutcomes":[{"measure":"Overall Survival","timeFrame":"From date of randomization to date of death"}]},"eligibilityModule":{"eligibilityCriteria":"Patients must have:\n\n* Pathologic (histologic or cytologic) confirmation of NSCLC\n* Stage IIIB with malignant pleural effusion or Stage IV disease\n* At least one measurable or evaluable NSCLC lesion that has not been previously irradiated unless radiation therapy was more than three weeks prior to entry in the study and the lesion has been shown to have progressed subsequent to the radiation therapy\n* ECOG performance status 0 or 1\n* Adequate organ system function\n* Fasting serum triglycerides that are within the age-adjusted normal range (or normalized with appropriate intervention such as antilipid therapy prior to the initiation of Targretin capsule therapy).\n\nPatients must be able to complete at least four cycles of combination chemotherapy (i.e., approximately four months)\n\nPatients must not have had:\n\n* Brain metastasis\n* Prior chemotherapy for NSCLC\n* Prior platinum-based chemotherapy for any indication","healthyVolunteers":false,"sex":"ALL","stdAges":["CHILD","ADULT","OLDER_ADULT"]},"contactsLocationsModule":{"overallOfficials":[{"name":"Mack Mabry, M.D.","affiliation":"Ligand Pharmaceuticals","role":"STUDY_DIRECTOR"}],"locations":[{"facility":"Montgomery Cancer Center, L.L.C.","city":"Montgomery","state":"Alabama","zip":"36106","country":"United States","geoPoint":{"lat":32.36681,"lon":-86.29997}},{"facility":"Arizona Clinical Research Center, Inc.","city":"Tucson","state":"Arizona","zip":"85712","country":"United States","geoPoint":{"lat":32.22174,"lon":-110.92648}},{"facility":"Bay Area Cancer Research Group, LLC","city":"Concord","state":"California","zip":"94520","country":"United States","geoPoint":{"lat":37.97798,"lon":-122.03107}},{"facility":"Compassionate Cancer Care Medical Group, Inc.","city":"Fountain Valley","state":"California","zip":"92708","country":"United States","geoPoint":{"lat":33.70918,"lon":-117.95367}},{"facility":"Pacific Coast Hematology/Oncology Medical Group, Inc.","city":"Fountain Valley","state":"California","zip":"92708","country":"United States","geoPoint":{"lat":33.70918,"lon":-117.95367}},{"facility":"California Cancer Care, Inc.","city":"Greenbrae","state":"California","zip":"94909","country":"United States","geoPoint":{"lat":37.94854,"lon":-122.5247}},{"facility":"Coast Hematology and Oncology Associates","city":"Long Beach","state":"California","zip":"90806","country":"United States","geoPoint":{"lat":33.76696,"lon":-118.18923}},{"facility":"Metropolitan Hematology/Oncology Medical Group","city":"Los Angeles","state":"California","zip":"90057","country":"United States","geoPoint":{"lat":34.05223,"lon":-118.24368}},{"facility":"Sant P. Chawla, Inc.","city":"Los Angeles","state":"California","zip":"90067","country":"United States","geoPoint":{"lat":34.05223,"lon":-118.24368}},{"facility":"UCLA Medical Center","city":"Los Angeles","state":"California","zip":"94115","country":"United States","geoPoint":{"lat":34.05223,"lon":-118.24368}},{"facility":"Sutter Gould Medical Foundation","city":"Modesto","state":"California","zip":"95355","country":"United States","geoPoint":{"lat":37.6391,"lon":-120.99688}},{"facility":"Medical Oncology Care Associates","city":"Orange","state":"California","zip":"92868","country":"United States","geoPoint":{"lat":33.78779,"lon":-117.85311}},{"facility":"Southern California Kaiser Permanente Medical Group","city":"San Diego","state":"California","zip":"92120","country":"United States","geoPoint":{"lat":32.71571,"lon":-117.16472}},{"facility":"Sharp Health Care","city":"San Diego","state":"California","zip":"92123","country":"United States","geoPoint":{"lat":32.71571,"lon":-117.16472}},{"facility":"UCSF/Mount Zion Comprehensive Cancer Center","city":"San Francisco","state":"California","zip":"94115","country":"United States","geoPoint":{"lat":37.77493,"lon":-122.41942}},{"facility":"Medical Group of North County, Inc., San Diego Cancer Center","city":"Vista","state":"California","zip":"92083","country":"United States","geoPoint":{"lat":33.20004,"lon":-117.24254}},{"facility":"Rocky Mountain Cancer Centers - Midtown","city":"Denver","state":"Colorado","zip":"80218","country":"United States","geoPoint":{"lat":39.73915,"lon":-104.9847}},{"facility":"Eastern Connecticut Hematology & Oncology","city":"Norwich","state":"Connecticut","zip":"06360","country":"United States","geoPoint":{"lat":41.52426,"lon":-72.07591}},{"facility":"Georgetown University Hospital","city":"Washington D.C.","state":"District of Columbia","zip":"20007","country":"United States","geoPoint":{"lat":38.89511,"lon":-77.03637}},{"facility":"Washington Cancer Institute","city":"Washington D.C.","state":"District of Columbia","zip":"20010","country":"United States","geoPoint":{"lat":38.89511,"lon":-77.03637}},{"facility":"Comprehensive Cancer Care Specialists of Boca Raton","city":"Boca Raton","state":"Florida","zip":"33428","country":"United States","geoPoint":{"lat":26.35869,"lon":-80.0831}},{"facility":"University of Florida/Jacksonville","city":"Jacksonville","state":"Florida","zip":"32209","country":"United States","geoPoint":{"lat":30.33218,"lon":-81.65565}},{"facility":"Watson Clinic","city":"Lakeland","state":"Florida","zip":"33805","country":"United States","geoPoint":{"lat":28.03947,"lon":-81.9498}},{"facility":"Oncology and Radiation Associates","city":"Miami","state":"Florida","zip":"33133","country":"United States","geoPoint":{"lat":25.77427,"lon":-80.19366}},{"facility":"Florida Cancer Institute","city":"New Port Richey","state":"Florida","zip":"34652","country":"United States","geoPoint":{"lat":28.24418,"lon":-82.71927}},{"facility":"Florida Oncology Associates","city":"Orange Park","state":"Florida","zip":"32073","country":"United States","geoPoint":{"lat":30.16607,"lon":-81.70648}},{"facility":"Cancer Centers of Florida, P.A.","city":"Orlando","state":"Florida","zip":"32806","country":"United States","geoPoint":{"lat":28.53834,"lon":-81.37924}},{"facility":"South Florida Oncology & Hematology Consultants","city":"Plantation","state":"Florida","zip":"33324","country":"United States","geoPoint":{"lat":26.13421,"lon":-80.23184}},{"facility":"Medical Oncology Associates of Augusta","city":"Augusta","state":"Georgia","zip":"30901","country":"United States","geoPoint":{"lat":33.47097,"lon":-81.97484}},{"facility":"Georgia Oncology Partners Research & Education Foundation","city":"Marietta","state":"Georgia","zip":"30060","country":"United States","geoPoint":{"lat":33.9526,"lon":-84.54993}},{"facility":"St. Luke's/Mountain State Tumor Institute (MSTI)","city":"Boise","state":"Idaho","zip":"83712","country":"United States","geoPoint":{"lat":43.6135,"lon":-116.20345}},{"facility":"Weiss Memorial Hospital","city":"Chicago","state":"Illinois","zip":"60640","country":"United States","geoPoint":{"lat":41.85003,"lon":-87.65005}},{"facility":"Northwest Oncology and Hematology, SC","city":"Elk Grove Village","state":"Illinois","zip":"60007","country":"United States","geoPoint":{"lat":42.00392,"lon":-87.97035}},{"facility":"Lutheran General Cancer Care Center","city":"Park Ridge","state":"Illinois","zip":"60068","country":"United States","geoPoint":{"lat":42.01114,"lon":-87.84062}},{"facility":"Oncology/Hematology Associates of Central Illinois, P.C.","city":"Peoria","state":"Illinois","zip":"61602","country":"United States","geoPoint":{"lat":40.69365,"lon":-89.58899}},{"facility":"Hematology Oncology Assoc. of Illinois","city":"Skokie","state":"Illinois","zip":"60077","country":"United States","geoPoint":{"lat":42.03336,"lon":-87.73339}},{"facility":"Central Indiana Cancer Centers","city":"Indianapolis","state":"Indiana","zip":"46227","country":"United States","geoPoint":{"lat":39.76838,"lon":-86.15804}},{"facility":"Cancer Care Center","city":"New Albany","state":"Indiana","zip":"47150","country":"United States","geoPoint":{"lat":38.28562,"lon":-85.82413}},{"facility":"Michiana Hematology-Oncology","city":"South Bend","state":"Indiana","zip":"46601","country":"United States","geoPoint":{"lat":41.68338,"lon":-86.25001}},{"facility":"Kansas City Oncology and Hematology Group, Kansas City Cancer Centers","city":"Overland Park","state":"Kansas","zip":"66210","country":"United States","geoPoint":{"lat":38.98223,"lon":-94.67079}},{"facility":"Drs. Carroll, Sheth, and Raghavan","city":"Louisville","state":"Kentucky","zip":"40215","country":"United States","geoPoint":{"lat":38.25424,"lon":-85.75941}},{"facility":"Southwest Oncology Associates","city":"Lafayette","state":"Louisiana","zip":"70503","country":"United States","geoPoint":{"lat":30.22409,"lon":-92.01984}},{"facility":"APMC","city":"Metairie","state":"Louisiana","zip":"70006","country":"United States","geoPoint":{"lat":29.98409,"lon":-90.15285}},{"facility":"Louisiana State University Health Sciences Center","city":"New Orleans","state":"Louisiana","zip":"70112","country":"United States","geoPoint":{"lat":29.95465,"lon":-90.07507}},{"facility":"Tulane University Health Sciences Center","city":"New Orleans","state":"Louisiana","zip":"70112","country":"United States","geoPoint":{"lat":29.95465,"lon":-90.07507}},{"facility":"Mercy Medical Center","city":"Baltimore","state":"Maryland","zip":"21202","country":"United States","geoPoint":{"lat":39.29038,"lon":-76.61219}},{"facility":"Chesapeake Oncology-Hematology Associates","city":"Baltimore","state":"Maryland","zip":"21225","country":"United States","geoPoint":{"lat":39.29038,"lon":-76.61219}},{"facility":"Associates in Oncology/Hematology PC","city":"Rockville","state":"Maryland","zip":"20850","country":"United States","geoPoint":{"lat":39.084,"lon":-77.15276}},{"facility":"Berkshire Hematology Oncology, PC","city":"Pittsfield","state":"Massachusetts","zip":"01201","country":"United States","geoPoint":{"lat":42.45008,"lon":-73.24538}},{"facility":"University of Michigan Medical Center","city":"Ann Arbor","state":"Michigan","zip":"48109","country":"United States","geoPoint":{"lat":42.27756,"lon":-83.74088}},{"facility":"Providence Cancer Institute","city":"Southfield","state":"Michigan","zip":"48075","country":"United States","geoPoint":{"lat":42.47337,"lon":-83.22187}},{"facility":"St. Lukes Hospital","city":"Duluth","state":"Minnesota","zip":"55805","country":"United States","geoPoint":{"lat":46.78327,"lon":-92.10658}},{"facility":"Minnesota Oncology Hematology, P.A.","city":"Minneapolis","state":"Minnesota","zip":"55407","country":"United States","geoPoint":{"lat":44.97997,"lon":-93.26384}},{"facility":"Missouri Cancer Associates","city":"Columbia","state":"Missouri","zip":"65201","country":"United States","geoPoint":{"lat":38.95171,"lon":-92.33407}},{"facility":"Hematology Oncology Centers of the Northern Rockies","city":"Billings","state":"Montana","zip":"59101","country":"United States","geoPoint":{"lat":45.78329,"lon":-108.50069}},{"facility":"Montana Cancer & Infectious Disease Specialists","city":"Missoula","state":"Montana","zip":"59802","country":"United States","geoPoint":{"lat":46.87215,"lon":-113.994}},{"facility":"Cancer and Blood Specialists of Nevada","city":"Henderson","state":"Nevada","zip":"89014","country":"United States","geoPoint":{"lat":36.0397,"lon":-114.98194}},{"facility":"Nevada Cancer Center","city":"Las Vegas","state":"Nevada","zip":"89109","country":"United States","geoPoint":{"lat":36.17497,"lon":-115.13722}},{"facility":"Dartmouth-Hitchcock Medical Center","city":"Lebanon","state":"New Hampshire","zip":"03756","country":"United States","geoPoint":{"lat":43.64229,"lon":-72.25176}},{"facility":"Orange Medical Group","city":"East Orange","state":"New Jersey","zip":"07018","country":"United States","geoPoint":{"lat":40.76732,"lon":-74.20487}},{"facility":"VA New Jersey Health Care System","city":"East Orange","state":"New Jersey","zip":"07018","country":"United States","geoPoint":{"lat":40.76732,"lon":-74.20487}},{"facility":"Hematology-Oncology Associates of Northern NJ, PA","city":"Morristown","state":"New Jersey","zip":"07962","country":"United States","geoPoint":{"lat":40.79677,"lon":-74.48154}},{"facility":"Somerset Hematology Oncology Associates","city":"Somerset","state":"New Jersey","zip":"08873","country":"United States","geoPoint":{"lat":40.4976,"lon":-74.48849}},{"facility":"University of Medicine & Dentistry of NJ, School of Osteopathic Medicine","city":"Stratford","state":"New Jersey","zip":"08084","country":"United States","geoPoint":{"lat":39.82678,"lon":-75.01545}},{"facility":"Overlook Oncology Center","city":"Summit","state":"New Jersey","zip":"07901","country":"United States","geoPoint":{"lat":40.71562,"lon":-74.36468}},{"facility":"San Juan Oncology Associates","city":"Farmington","state":"New Mexico","zip":"87401","country":"United States","geoPoint":{"lat":36.72806,"lon":-108.21869}},{"facility":"New York Oncology Hematology, P.C., Capital District Hematology Oncology Associates","city":"Albany","state":"New York","zip":"12208","country":"United States","geoPoint":{"lat":42.65258,"lon":-73.75623}},{"facility":"Erie Medical Center","city":"Buffalo","state":"New York","zip":"14215","country":"United States","geoPoint":{"lat":42.88645,"lon":-78.87837}},{"facility":"Roswell Park Cancer Institute","city":"Buffalo","state":"New York","zip":"14263","country":"United States","geoPoint":{"lat":42.88645,"lon":-78.87837}},{"facility":"Arena Oncology Associates","city":"Great Neck","state":"New York","zip":"11021","country":"United States","geoPoint":{"lat":40.80066,"lon":-73.72846}},{"facility":"Cancer Institute of Long Island, Inc.","city":"Great Neck","state":"New York","zip":"11023","country":"United States","geoPoint":{"lat":40.80066,"lon":-73.72846}},{"facility":"Cancer Research of Long Island, Inc.","city":"Great Neck","state":"New York","zip":"11023","country":"United States","geoPoint":{"lat":40.80066,"lon":-73.72846}},{"facility":"Broome Oncology, LLC","city":"Johnson City","state":"New York","zip":"13790","country":"United States","geoPoint":{"lat":42.11563,"lon":-75.95881}},{"facility":"New York Presbyterian Hospital, Weill Medical College of Cornell University","city":"New York","state":"New York","zip":"10021","country":"United States","geoPoint":{"lat":40.71427,"lon":-74.00597}},{"facility":"Columbia Presbyterian Medical Center","city":"New York","state":"New York","zip":"10032","country":"United States","geoPoint":{"lat":40.71427,"lon":-74.00597}},{"facility":"VA Medical Center","city":"Northport","state":"New York","zip":"11768","country":"United States","geoPoint":{"lat":40.90093,"lon":-73.34317}},{"facility":"New York Oncology Hematology, P.C., Riverview Cancer Care Medical Associates","city":"Rexford","state":"New York","zip":"12148","country":"United States","geoPoint":{"lat":42.85313,"lon":-73.8879}},{"facility":"South Shore Hematology Oncology Associates, PC","city":"Rockville Centre","state":"New York","zip":"11570","country":"United States","geoPoint":{"lat":40.65871,"lon":-73.64124}},{"facility":"Raleigh Hematology Oncology Clinic","city":"Cary","state":"North Carolina","zip":"27511","country":"United States","geoPoint":{"lat":35.79154,"lon":-78.78112}},{"facility":"Northwest Carolina Oncology and Hematology, P.A.","city":"Hickory","state":"North Carolina","zip":"28602","country":"United States","geoPoint":{"lat":35.73319,"lon":-81.3412}},{"facility":"Nashat Y. Gabrail, MD, Inc.","city":"Canton","state":"Ohio","zip":"44718","country":"United States","geoPoint":{"lat":40.79895,"lon":-81.37845}},{"facility":"University of Cincinnati, Barrett Cancer Center","city":"Cincinnati","state":"Ohio","zip":"45219","country":"United States","geoPoint":{"lat":39.12711,"lon":-84.51439}},{"facility":"Columbus Community Clinical Oncology Program","city":"Columbus","state":"Ohio","zip":"43206","country":"United States","geoPoint":{"lat":39.96118,"lon":-82.99879}},{"facility":"Dayton Oncology/Hematology Consultants","city":"Dayton","state":"Ohio","zip":"45439","country":"United States","geoPoint":{"lat":39.75895,"lon":-84.19161}},{"facility":"University of Oklahoma Health Sciences Center","city":"Oklahoma City","state":"Oklahoma","zip":"73104","country":"United States","geoPoint":{"lat":35.46756,"lon":-97.51643}},{"facility":"Cancer Care Associates - Mercy Campus","city":"Oklahoma City","state":"Oklahoma","zip":"73120","country":"United States","geoPoint":{"lat":35.46756,"lon":-97.51643}},{"facility":"Cancer Care Associates","city":"Tulsa","state":"Oklahoma","zip":"74136","country":"United States","geoPoint":{"lat":36.15398,"lon":-95.99277}},{"facility":"Oncology/Hematology, Kaiser Permanente Northwest","city":"Portland","state":"Oregon","zip":"97227","country":"United States","geoPoint":{"lat":45.52345,"lon":-122.67621}},{"facility":"Oncology Hematology of Lehigh Valley, PC","city":"Bethlehem","state":"Pennsylvania","zip":"18015","country":"United States","geoPoint":{"lat":40.62593,"lon":-75.37046}},{"facility":"Medical Oncology Associates of Wyoming Valley, PC","city":"Kingston","state":"Pennsylvania","zip":"18704","country":"United States","geoPoint":{"lat":41.26175,"lon":-75.89686}},{"facility":"Charleston Hematology Oncology P.A.","city":"Charleston","state":"South Carolina","zip":"29403","country":"United States","geoPoint":{"lat":32.77632,"lon":-79.93275}},{"facility":"Liberty Hematology/Oncology","city":"Columbia","state":"South Carolina","zip":"29203","country":"United States","geoPoint":{"lat":34.00071,"lon":-81.03481}},{"facility":"WJB Dorn VA Medical Center","city":"Columbia","state":"South Carolina","zip":"29209","country":"United States","geoPoint":{"lat":34.00071,"lon":-81.03481}},{"facility":"Cancer Centers of the Carolinas","city":"Seneca","state":"South Carolina","zip":"29672","country":"United States","geoPoint":{"lat":34.68566,"lon":-82.9532}},{"facility":"Santee Hematology/Oncology","city":"Sumter","state":"South Carolina","zip":"29150","country":"United States","geoPoint":{"lat":33.92044,"lon":-80.34147}},{"facility":"Thompson Cancer Survival Center","city":"Knoxville","state":"Tennessee","zip":"37916","country":"United States","geoPoint":{"lat":35.96064,"lon":-83.92074}},{"facility":"Boston Baskin Cancer Group","city":"Memphis","state":"Tennessee","zip":"38104","country":"United States","geoPoint":{"lat":35.14953,"lon":-90.04898}},{"facility":"Texas Oncology, P.A.","city":"Arlington","state":"Texas","zip":"76012","country":"United States","geoPoint":{"lat":32.73569,"lon":-97.10807}},{"facility":"South Austin Cancer Center","city":"Austin","state":"Texas","zip":"78745","country":"United States","geoPoint":{"lat":30.26715,"lon":-97.74306}},{"facility":"Lone Star Oncology Consultants, P.A.","city":"Austin","state":"Texas","zip":"78759","country":"United States","geoPoint":{"lat":30.26715,"lon":-97.74306}},{"facility":"Cancer Specialists of South Texas, PA","city":"Corpus Christi","state":"Texas","zip":"78412","country":"United States","geoPoint":{"lat":27.80058,"lon":-97.39638}},{"facility":"Texas Cancer Center at Medical City","city":"Dallas","state":"Texas","zip":"75230","country":"United States","geoPoint":{"lat":32.78306,"lon":-96.80667}},{"facility":"Texas Oncology, P.A.","city":"Dallas","state":"Texas","zip":"75246","country":"United States","geoPoint":{"lat":32.78306,"lon":-96.80667}},{"facility":"Texas Oncology, P.A.","city":"Fort Worth","state":"Texas","zip":"76104","country":"United States","geoPoint":{"lat":32.72541,"lon":-97.32085}},{"facility":"Texas Oncology, P.A.","city":"Garland","state":"Texas","zip":"75042","country":"United States","geoPoint":{"lat":32.91262,"lon":-96.63888}},{"facility":"University of Texas, MD Anderson Cancer Center","city":"Houston","state":"Texas","zip":"77030","country":"United States","geoPoint":{"lat":29.76328,"lon":-95.36327}},{"facility":"Allison Cancer Center","city":"Midland","state":"Texas","zip":"79701","country":"United States","geoPoint":{"lat":31.99735,"lon":-102.07791}},{"facility":"West Texas Cancer Center","city":"Odessa","state":"Texas","zip":"79761","country":"United States","geoPoint":{"lat":31.84568,"lon":-102.36764}},{"facility":"Hope Oncology","city":"Richardson","state":"Texas","zip":"75080","country":"United States","geoPoint":{"lat":32.94818,"lon":-96.72972}},{"facility":"Hematology & Oncology Associates of South Texas","city":"San Antonio","state":"Texas","zip":"78229","country":"United States","geoPoint":{"lat":29.42412,"lon":-98.49363}},{"facility":"Tyler Cancer Center","city":"Tyler","state":"Texas","zip":"75702","country":"United States","geoPoint":{"lat":32.35126,"lon":-95.30106}},{"facility":"Texoma Cancer Center","city":"Wichita Falls","state":"Texas","zip":"76310","country":"United States","geoPoint":{"lat":33.91371,"lon":-98.49339}},{"facility":"Utah Cancer Specialists","city":"Salt Lake City","state":"Utah","zip":"84106","country":"United States","geoPoint":{"lat":40.76078,"lon":-111.89105}},{"facility":"Arlington Fairfax Hematology Oncology","city":"Arlington","state":"Virginia","zip":"22205","country":"United States","geoPoint":{"lat":38.88101,"lon":-77.10428}},{"facility":"Hematology Oncology Patient Enterprises, Center for Cancer Care","city":"Charlottesville","state":"Virginia","zip":"22902","country":"United States","geoPoint":{"lat":38.02931,"lon":-78.47668}},{"facility":"Danville Hematology & Oncology, Inc.","city":"Danville","state":"Virginia","zip":"24541","country":"United States","geoPoint":{"lat":36.58597,"lon":-79.39502}},{"facility":"Virginia Oncology Associates","city":"Norfolk","state":"Virginia","zip":"23502","country":"United States","geoPoint":{"lat":36.84681,"lon":-76.28522}},{"facility":"Stark MD, PC","city":"Portsmouth","state":"Virginia","zip":"23707","country":"United States","geoPoint":{"lat":36.83543,"lon":-76.29827}},{"facility":"Virginia Cancer Institute","city":"Richmond","state":"Virginia","zip":"23230","country":"United States","geoPoint":{"lat":37.55376,"lon":-77.46026}},{"facility":"Yakima Regional Cancer Care Center, Internal Medicine Associates of Yakima, Inc.","city":"Yakima","state":"Washington","zip":"98902","country":"United States","geoPoint":{"lat":46.60207,"lon":-120.5059}},{"facility":"Morgantown Internal Medicine Group","city":"Morgantown","state":"West Virginia","zip":"26505","country":"United States","geoPoint":{"lat":39.62953,"lon":-79.9559}},{"facility":"Sozialmedizinisches Zentrum","city":"Vienna","zip":"1145","country":"Austria","geoPoint":{"lat":48.20849,"lon":16.37208}},{"facility":"Kaiser-Franz-Josef-Spital","city":"Vienna","zip":"A-1100","country":"Austria","geoPoint":{"lat":48.20849,"lon":16.37208}},{"facility":"Allgemeines offentliches Krankenhaus der barmherzigen Schwestern vom Heiligen Kreuz Pneumologie","city":"Wels","zip":"4600","country":"Austria","geoPoint":{"lat":48.16667,"lon":14.03333}},{"facility":"Algoma Regional Cancer Program - Sault Area Hospital","city":"Sault Ste. Marie","state":"Ontario","zip":"P6A 2C4","country":"Canada","geoPoint":{"lat":46.51677,"lon":-84.33325}},{"facility":"Humber River Regional Hospital","city":"Weston","state":"Ontario","zip":"M9N 1N8","country":"Canada","geoPoint":{"lat":43.70359,"lon":-79.51513}},{"facility":"S.M.B.D. Jewish General Hospital","city":"Montreal","state":"Quebec","zip":"H3T 1E2","country":"Canada","geoPoint":{"lat":45.50884,"lon":-73.58781}},{"facility":"Centre Hospitalier du Pays d'Aix","city":"Aix-en-Provence","zip":"13616","country":"France","geoPoint":{"lat":43.5283,"lon":5.44973}},{"facility":"Centre Hospitalier General de la Region Annecienne","city":"Annecy","zip":"47011","country":"France","geoPoint":{"lat":45.90878,"lon":6.12565}},{"facility":"Centre Hospitalier d'Antibes-Juan-Les-Pins","city":"Antibes","zip":"06606","country":"France","geoPoint":{"lat":43.58127,"lon":7.12487}},{"facility":"CHRU Hopital de Bois Guillaume","city":"Bois-Guillaume","zip":"76230","country":"France","geoPoint":{"lat":49.4602,"lon":1.12219}},{"facility":"DOP International","city":"Créteil","zip":"94010","country":"France","geoPoint":{"lat":48.79266,"lon":2.46569}},{"facility":"Hopital de Draguignan","city":"Draguignan","zip":"83300","country":"France","geoPoint":{"lat":43.53692,"lon":6.46458}},{"facility":"Centre Hospitalier General","city":"Gap","zip":"05007","country":"France","geoPoint":{"lat":44.55858,"lon":6.07868}},{"facility":"Hopital du Cluzeau","city":"Limoges","zip":"87042","country":"France","geoPoint":{"lat":45.83362,"lon":1.24759}},{"facility":"CHU Hopital St. Marguerite","city":"Marseille","zip":"29274","country":"France","geoPoint":{"lat":43.29695,"lon":5.38107}},{"facility":"Centre Regional de Lutte contre le Cancer (CRLC), Val d'Aurelle-Paul Lamarque","city":"Montpellier","zip":"34298","country":"France","geoPoint":{"lat":43.61093,"lon":3.87635}},{"facility":"Hopital Saint Antoine","city":"Paris","zip":"75571","country":"France","geoPoint":{"lat":48.85341,"lon":2.3488}},{"facility":"CHU - Hopital Nord","city":"Saint-Etienne","zip":"42055","country":"France","geoPoint":{"lat":45.43389,"lon":4.39}},{"facility":"Hopital Saint Anne","city":"Toulon Naval","zip":"83800","country":"France"},{"facility":"Service de Pneumology, Hopital Adulte de Brabois","city":"Vandœuvre-lès-Nancy","zip":"54511","country":"France","geoPoint":{"lat":48.66115,"lon":6.17114}},{"facility":"Centre Hospitalier","city":"Villefranche Sur Soane","zip":"69655","country":"France"},{"facility":"Dept. of Internal Medicine, St. Nikolaus-Stiftshospital Andernach","city":"Andernach","zip":"D-56626","country":"Germany","geoPoint":{"lat":50.43109,"lon":7.40425}},{"facility":"Aesklepios-Fachkliniken Muchen-Gauting","city":"Gauting","zip":"D-82131","country":"Germany","geoPoint":{"lat":48.06919,"lon":11.37703}},{"facility":"Krankenhaus GroBhansdorf, Zentrum fur Pneumologie und Thoraxchirurgie","city":"GroBhansdorf","zip":"22927","country":"Germany"},{"facility":"Ludwig-Maximilians Universitat Munchen","city":"München","zip":"80336","country":"Germany","geoPoint":{"lat":51.60698,"lon":13.31243}},{"facility":"Charite Universitatsklinikum der Humboldt-Universitat zu Berlin","city":"SchumannstraBe, Berlin","zip":"10117","country":"Germany","geoPoint":{"lat":52.52437,"lon":13.41053}},{"facility":"Hospital Provincial de Castellon","city":"Castellon","zip":"12002","country":"Spain","geoPoint":{"lat":39.98567,"lon":-0.04935}},{"facility":"Hospital Clinico San Carlos","city":"Madrid","zip":"28040","country":"Spain","geoPoint":{"lat":40.4165,"lon":-3.70256}},{"facility":"Hospital Universitario Doctor Peset","city":"Valencia","zip":"46 017","country":"Spain","geoPoint":{"lat":39.47391,"lon":-0.37966}},{"facility":"Hospital Universitario La Fe Servicio de Oncologia","city":"Valencia","zip":"46018","country":"Spain","geoPoint":{"lat":39.47391,"lon":-0.37966}},{"facility":"Hospital Arnau de Villanova, Servicio de Oncologia","city":"Valencia","zip":"46039","country":"Spain","geoPoint":{"lat":39.47391,"lon":-0.37966}},{"facility":"Hospital Clinico Universitario, Servicio Hematologia y Oncologia","city":"Valencia","zip":"46044","country":"Spain","geoPoint":{"lat":39.47391,"lon":-0.37966}},{"facility":"Hospital de Sagunto Servicio de Oncologia","city":"Valencia","zip":"46520","country":"Spain","geoPoint":{"lat":39.47391,"lon":-0.37966}}]},"referencesModule":{"seeAlsoLinks":[{"label":"Related Info","url":"http://www.Ligand.com"}]}},"resultsSection":{"participantFlowModule":{"groups":[{"id":"FG000","title":"Bexarotene With Carboplatin and Paclitaxel","description":"bexarotene capsules (400 mg/m\\^2/day) in combination with carboplatin IV (AUC 6) every 3 weeks and paclitaxel IV (200 mg/m\\^2) every 3 weeks. Subjects in this group also received an antilipid agent which was selected at the discretion of the investigator."},{"id":"FG001","title":"Carboplatin and Paclitaxel","description":"carboplatin IV (AUC 6) every 3 weeks and paclitaxel IV (200 mg/m\\^2) every 3 weeks."}],"periods":[{"title":"Overall Study","milestones":[{"type":"STARTED","achievements":[{"groupId":"FG000","numSubjects":"306"},{"groupId":"FG001","numSubjects":"306"}]},{"type":"COMPLETED","achievements":[{"groupId":"FG000","comment":"Represents number of patients with no primary reason for termination","numSubjects":"4"},{"groupId":"FG001","comment":"Represents number of patients with no primary reason for termination","numSubjects":"2"}]},{"type":"NOT COMPLETED","achievements":[{"groupId":"FG000","numSubjects":"302"},{"groupId":"FG001","numSubjects":"304"}]}],"dropWithdraws":[{"type":"Progressive Disease","reasons":[{"groupId":"FG000","numSubjects":"137"},{"groupId":"FG001","numSubjects":"93"}]},{"type":"Stable Disease","reasons":[{"groupId":"FG000","numSubjects":"19"},{"groupId":"FG001","numSubjects":"48"}]},{"type":"Partial Response","reasons":[{"groupId":"FG000","numSubjects":"14"},{"groupId":"FG001","numSubjects":"19"}]},{"type":"Complete Response","reasons":[{"groupId":"FG000","numSubjects":"0"},{"groupId":"FG001","numSubjects":"2"}]},{"type":"Adverse Event","reasons":[{"groupId":"FG000","numSubjects":"62"},{"groupId":"FG001","numSubjects":"61"}]},{"type":"Lost to Follow-up","reasons":[{"groupId":"FG000","numSubjects":"0"},{"groupId":"FG001","numSubjects":"1"}]},{"type":"Withdrawal by Subject","reasons":[{"groupId":"FG000","numSubjects":"23"},{"groupId":"FG001","numSubjects":"18"}]},{"type":"Administrative","reasons":[{"groupId":"FG000","numSubjects":"31"},{"groupId":"FG001","numSubjects":"46"}]},{"type":"Non-compliance","reasons":[{"groupId":"FG000","numSubjects":"3"},{"groupId":"FG001","numSubjects":"1"}]},{"type":"Death","reasons":[{"groupId":"FG000","numSubjects":"13"},{"groupId":"FG001","numSubjects":"15"}]}]}]},"baselineCharacteristicsModule":{"groups":[{"id":"BG000","title":"Bexarotene With Carboplatin and Paclitaxel","description":"bexarotene capsules (400 mg/m\\^2/day) in combination with carboplatin IV (AUC 6) every 3 weeks and paclitaxel IV (200 mg/m\\^2) every 3 weeks. Subjects in this group also received an antilipid agent which was selected at the discretion of the investigator."},{"id":"BG001","title":"Carboplatin and Paclitaxel","description":"carboplatin IV (AUC 6) every 3 weeks and paclitaxel IV (200 mg/m\\^2) every 3 weeks."},{"id":"BG002","title":"Total","description":"Total of all reporting groups"}],"denoms":[{"units":"Participants","counts":[{"groupId":"BG000","value":"306"},{"groupId":"BG001","value":"306"},{"groupId":"BG002","value":"612"}]}],"measures":[{"title":"Age, Categorical","paramType":"COUNT_OF_PARTICIPANTS","unitOfMeasure":"Participants","classes":[{"categories":[{"title":"<=18 years","measurements":[{"groupId":"BG000","value":"0"},{"groupId":"BG001","value":"0"},{"groupId":"BG002","value":"0"}]},{"title":"Between 18 and 65 years","measurements":[{"groupId":"BG000","value":"166"},{"groupId":"BG001","value":"174"},{"groupId":"BG002","value":"340"}]},{"title":">=65 years","measurements":[{"groupId":"BG000","value":"140"},{"groupId":"BG001","value":"132"},{"groupId":"BG002","value":"272"}]}]}]},{"title":"Age Continuous","paramType":"MEAN","dispersionType":"STANDARD_DEVIATION","unitOfMeasure":"years","classes":[{"categories":[{"measurements":[{"groupId":"BG000","value":"62.5","spread":"9.6"},{"groupId":"BG001","value":"61.7","spread":"10.3"},{"groupId":"BG002","value":"62.1","spread":"10.0"}]}]}]},{"title":"Sex: Female, Male","paramType":"COUNT_OF_PARTICIPANTS","unitOfMeasure":"Participants","classes":[{"categories":[{"title":"Female","measurements":[{"groupId":"BG000","value":"103"},{"groupId":"BG001","value":"103"},{"groupId":"BG002","value":"206"}]},{"title":"Male","measurements":[{"groupId":"BG000","value":"203"},{"groupId":"BG001","value":"203"},{"groupId":"BG002","value":"406"}]}]}]},{"title":"Ethnicity (NIH/OMB)","paramType":"COUNT_OF_PARTICIPANTS","unitOfMeasure":"Participants","classes":[{"categories":[{"title":"Hispanic or Latino","measurements":[{"groupId":"BG000","value":"2"},{"groupId":"BG001","value":"9"},{"groupId":"BG002","value":"11"}]},{"title":"Not Hispanic or Latino","measurements":[{"groupId":"BG000","value":"304"},{"groupId":"BG001","value":"297"},{"groupId":"BG002","value":"601"}]},{"title":"Unknown or Not Reported","measurements":[{"groupId":"BG000","value":"0"},{"groupId":"BG001","value":"0"},{"groupId":"BG002","value":"0"}]}]}]},{"title":"Race (NIH/OMB)","description":"Counts are correct as reported. The BL measure title of \"race\" does not include counts of Hispanic or Latino population- which are reported in the BL measure title of \"Ethnicity.\"","paramType":"NUMBER","unitOfMeasure":"Participants","classes":[{"title":"American Indian or Alaska Native","categories":[{"measurements":[{"groupId":"BG000","value":"0"},{"groupId":"BG001","value":"0"},{"groupId":"BG002","value":"0"}]}]},{"title":"Asian","categories":[{"measurements":[{"groupId":"BG000","value":"7"},{"groupId":"BG001","value":"3"},{"groupId":"BG002","value":"10"}]}]},{"title":"Native Hawaiian or Other Pacific Islander","categories":[{"measurements":[{"groupId":"BG000","value":"0"},{"groupId":"BG001","value":"0"},{"groupId":"BG002","value":"0"}]}]},{"title":"Black or African American","categories":[{"measurements":[{"groupId":"BG000","value":"23"},{"groupId":"BG001","value":"20"},{"groupId":"BG002","value":"43"}]}]},{"title":"White","categories":[{"measurements":[{"groupId":"BG000","value":"269"},{"groupId":"BG001","value":"272"},{"groupId":"BG002","value":"541"}]}]},{"title":"More than one race","categories":[{"measurements":[{"groupId":"BG000","value":"0"},{"groupId":"BG001","value":"0"},{"groupId":"BG002","value":"0"}]}]},{"title":"Unknown or Not Reported","categories":[{"measurements":[{"groupId":"BG000","value":"5"},{"groupId":"BG001","value":"2"},{"groupId":"BG002","value":"7"}]}]}]}]},"outcomeMeasuresModule":{"outcomeMeasures":[{"type":"PRIMARY","title":"Overall Survival","populationDescription":"Intent-to-Treat (ITT)","reportingStatus":"POSTED","paramType":"MEDIAN","dispersionType":"Full Range","unitOfMeasure":"Months","timeFrame":"From date of randomization to date of death","groups":[{"id":"OG000","title":"Bexarotene With Carboplatin and Paclitaxel","description":"bexarotene capsules (400 mg/m\\^2/day) in combination with carboplatin IV (AUC 6) every 3 weeks and paclitaxel IV (200 mg/m\\^2) every 3 weeks. Subjects in this group also received an antilipid agent which was selected at the discretion of the investigator."},{"id":"OG001","title":"Carboplatin and Paclitaxel","description":"carboplatin IV (AUC 6) every 3 weeks and paclitaxel IV (200 mg/m\\^2) every 3 weeks."}],"denoms":[{"units":"Participants","counts":[{"groupId":"OG000","value":"306"},{"groupId":"OG001","value":"306"}]}],"classes":[{"categories":[{"measurements":[{"groupId":"OG000","value":"8.5","lowerLimit":"7.7","upperLimit":"9.3"},{"groupId":"OG001","value":"9.2","lowerLimit":"8.3","upperLimit":"10.5"}]}]}]}]},"adverseEventsModule":{"frequencyThreshold":"5","description":"Number of participants at risk reflects the number exposed to at least one dose of any study medication. Twenty-four subjects in Participant Flow did not receive any study medication.","eventGroups":[{"id":"EG000","title":"Bexarotene With Carboplatin and Paclitaxel","description":"bexarotene capsules (400 mg/m\\^2/day) in combination with carboplatin IV (AUC 6) every 3 weeks and paclitaxel IV (200 mg/m\\^2) every 3 weeks. Subjects in this group also received an antilipid agent which was selected at the discretion of the investigator.","seriousNumAffected":256,"seriousNumAtRisk":293,"otherNumAffected":293,"otherNumAtRisk":293},{"id":"EG001","title":"Carboplatin and Paclitaxel","description":"carboplatin IV (AUC 6) every 3 weeks and paclitaxel IV (200 mg/m\\^2) every 3 weeks.","seriousNumAffected":242,"seriousNumAtRisk":295,"otherNumAffected":295,"otherNumAtRisk":295}],"seriousEvents":[{"term":"Non-small cell lung cancer","organSystem":"Neoplasms benign, malignant and unspecified (incl cysts and polyps)","stats":[{"groupId":"EG000","numAffected":219,"numAtRisk":293},{"groupId":"EG001","numAffected":213,"numAtRisk":295}]},{"term":"Non-small cell lung cancer Stage IV","organSystem":"Neoplasms benign, malignant and unspecified (incl cysts and polyps)","stats":[{"groupId":"EG000","numAffected":3,"numAtRisk":293},{"groupId":"EG001","numAffected":0,"numAtRisk":295}]},{"term":"Non-small cell lung cancer metastatic","organSystem":"Neoplasms benign, malignant and unspecified (incl cysts and polyps)","stats":[{"groupId":"EG000","numAffected":1,"numAtRisk":293},{"groupId":"EG001","numAffected":3,"numAtRisk":295}]},{"term":"Dehydration","organSystem":"Metabolism and nutrition disorders","stats":[{"groupId":"EG000","numAffected":19,"numAtRisk":293},{"groupId":"EG001","numAffected":7,"numAtRisk":295}]},{"term":"Anorexia","organSystem":"Metabolism and nutrition disorders","stats":[{"groupId":"EG000","numAffected":4,"numAtRisk":293},{"groupId":"EG001","numAffected":0,"numAtRisk":295}]},{"term":"Hyponatremia","organSystem":"Metabolism and nutrition disorders","stats":[{"groupId":"EG000","numAffected":3,"numAtRisk":293},{"groupId":"EG001","numAffected":2,"numAtRisk":295}]},{"term":"Dyspnoea","organSystem":"Respiratory, thoracic and mediastinal disorders","stats":[{"groupId":"EG000","numAffected":18,"numAtRisk":293},{"groupId":"EG001","numAffected":11,"numAtRisk":295}]},{"term":"Pulmonary embolism","organSystem":"Respiratory, thoracic and mediastinal disorders","stats":[{"groupId":"EG000","numAffected":10,"numAtRisk":293},{"groupId":"EG001","numAffected":8,"numAtRisk":295}]},{"term":"Pleural effusion","organSystem":"Respiratory, thoracic and mediastinal disorders","stats":[{"groupId":"EG000","numAffected":8,"numAtRisk":293},{"groupId":"EG001","numAffected":4,"numAtRisk":295}]},{"term":"Respiratory failure","organSystem":"Respiratory, thoracic and mediastinal disorders","stats":[{"groupId":"EG000","numAffected":8,"numAtRisk":293},{"groupId":"EG001","numAffected":3,"numAtRisk":295}]},{"term":"Dyspnoea exacerbated","organSystem":"Respiratory, thoracic and mediastinal disorders","stats":[{"groupId":"EG000","numAffected":5,"numAtRisk":293},{"groupId":"EG001","numAffected":3,"numAtRisk":295}]},{"term":"Haemoptysis","organSystem":"Respiratory, thoracic and mediastinal disorders","stats":[{"groupId":"EG000","numAffected":5,"numAtRisk":293},{"groupId":"EG001","numAffected":1,"numAtRisk":295}]},{"term":"Hypoxia","organSystem":"Respiratory, thoracic and mediastinal disorders","stats":[{"groupId":"EG000","numAffected":4,"numAtRisk":293},{"groupId":"EG001","numAffected":4,"numAtRisk":295}]},{"term":"Chronic obstructive airways disease exacerbated","organSystem":"Respiratory, thoracic and mediastinal disorders","stats":[{"groupId":"EG000","numAffected":3,"numAtRisk":293},{"groupId":"EG001","numAffected":2,"numAtRisk":295}]},{"term":"Anaemia","organSystem":"Blood and lymphatic system disorders","stats":[{"groupId":"EG000","numAffected":14,"numAtRisk":293},{"groupId":"EG001","numAffected":7,"numAtRisk":295}]},{"term":"Febrile neutropenia","organSystem":"Blood and lymphatic system disorders","stats":[{"groupId":"EG000","numAffected":11,"numAtRisk":293},{"groupId":"EG001","numAffected":9,"numAtRisk":295}]},{"term":"Neutropenia","organSystem":"Blood and lymphatic system disorders","stats":[{"groupId":"EG000","numAffected":11,"numAtRisk":293},{"groupId":"EG001","numAffected":2,"numAtRisk":295}]},{"term":"Thrombocytopenia","organSystem":"Blood and lymphatic system disorders","stats":[{"groupId":"EG000","numAffected":5,"numAtRisk":293},{"groupId":"EG001","numAffected":4,"numAtRisk":295}]},{"term":"Pancytopenia","organSystem":"Blood and lymphatic system disorders","stats":[{"groupId":"EG000","numAffected":3,"numAtRisk":293},{"groupId":"EG001","numAffected":0,"numAtRisk":295}]},{"term":"Vomiting","organSystem":"Gastrointestinal disorders","stats":[{"groupId":"EG000","numAffected":9,"numAtRisk":293},{"groupId":"EG001","numAffected":6,"numAtRisk":295}]},{"term":"Nausea","organSystem":"Gastrointestinal disorders","stats":[{"groupId":"EG000","numAffected":8,"numAtRisk":293},{"groupId":"EG001","numAffected":6,"numAtRisk":295}]},{"term":"Diarrhea","organSystem":"Gastrointestinal disorders","stats":[{"groupId":"EG000","numAffected":8,"numAtRisk":293},{"groupId":"EG001","numAffected":5,"numAtRisk":295}]},{"term":"Abdominal pain","organSystem":"Gastrointestinal disorders","stats":[{"groupId":"EG000","numAffected":5,"numAtRisk":293},{"groupId":"EG001","numAffected":1,"numAtRisk":295}]},{"term":"Constipation","organSystem":"Gastrointestinal disorders","stats":[{"groupId":"EG000","numAffected":4,"numAtRisk":293},{"groupId":"EG001","numAffected":0,"numAtRisk":295}]},{"term":"Atrial fibrillation","organSystem":"Cardiac disorders","stats":[{"groupId":"EG000","numAffected":4,"numAtRisk":293},{"groupId":"EG001","numAffected":4,"numAtRisk":295}]},{"term":"Cardiac failure congestive","organSystem":"Cardiac disorders","stats":[{"groupId":"EG000","numAffected":1,"numAtRisk":293},{"groupId":"EG001","numAffected":4,"numAtRisk":295}]},{"term":"Pericardial effusion","organSystem":"Cardiac disorders","stats":[{"groupId":"EG000","numAffected":1,"numAtRisk":293},{"groupId":"EG001","numAffected":3,"numAtRisk":295}]},{"term":"Pyrexia","organSystem":"General disorders","stats":[{"groupId":"EG000","numAffected":12,"numAtRisk":293},{"groupId":"EG001","numAffected":8,"numAtRisk":295}]},{"term":"Asthenia","organSystem":"General disorders","stats":[{"groupId":"EG000","numAffected":9,"numAtRisk":293},{"groupId":"EG001","numAffected":4,"numAtRisk":295}]},{"term":"Chest pain","organSystem":"General disorders","stats":[{"groupId":"EG000","numAffected":3,"numAtRisk":293},{"groupId":"EG001","numAffected":7,"numAtRisk":295}]},{"term":"Fatigue","organSystem":"General disorders","stats":[{"groupId":"EG000","numAffected":3,"numAtRisk":293},{"groupId":"EG001","numAffected":1,"numAtRisk":295}]},{"term":"Oedema peripheral","organSystem":"General disorders","stats":[{"groupId":"EG000","numAffected":3,"numAtRisk":293},{"groupId":"EG001","numAffected":1,"numAtRisk":295}]},{"term":"Pain","organSystem":"General disorders","stats":[{"groupId":"EG000","numAffected":3,"numAtRisk":293},{"groupId":"EG001","numAffected":1,"numAtRisk":295}]},{"term":"Hepatic failure","organSystem":"Hepatobiliary disorders","stats":[{"groupId":"EG000","numAffected":3,"numAtRisk":293},{"groupId":"EG001","numAffected":0,"numAtRisk":295}]},{"term":"Arthralgia","organSystem":"Musculoskeletal and connective tissue disorders","stats":[{"groupId":"EG000","numAffected":3,"numAtRisk":293},{"groupId":"EG001","numAffected":1,"numAtRisk":295}]},{"term":"Pain in extremity","organSystem":"Musculoskeletal and connective tissue disorders","stats":[{"groupId":"EG000","numAffected":3,"numAtRisk":293},{"groupId":"EG001","numAffected":0,"numAtRisk":295}]},{"term":"Pneumonia","organSystem":"Infections and infestations","stats":[{"groupId":"EG000","numAffected":9,"numAtRisk":293},{"groupId":"EG001","numAffected":6,"numAtRisk":295}]},{"term":"Sepsis","organSystem":"Infections and infestations","stats":[{"groupId":"EG000","numAffected":3,"numAtRisk":293},{"groupId":"EG001","numAffected":2,"numAtRisk":295}]},{"term":"Convulsion","organSystem":"Nervous system disorders","stats":[{"groupId":"EG000","numAffected":4,"numAtRisk":293},{"groupId":"EG001","numAffected":3,"numAtRisk":295}]},{"term":"Cerebrovascular accident","organSystem":"Nervous system disorders","stats":[{"groupId":"EG000","numAffected":3,"numAtRisk":293},{"groupId":"EG001","numAffected":1,"numAtRisk":295}]},{"term":"Spinal cord compression","organSystem":"Nervous system disorders","stats":[{"groupId":"EG000","numAffected":4,"numAtRisk":293},{"groupId":"EG001","numAffected":0,"numAtRisk":295}]},{"term":"Polyneuropathy","organSystem":"Nervous system disorders","stats":[{"groupId":"EG000","numAffected":3,"numAtRisk":293},{"groupId":"EG001","numAffected":1,"numAtRisk":295}]},{"term":"Confusional state","organSystem":"Psychiatric disorders","stats":[{"groupId":"EG000","numAffected":4,"numAtRisk":293},{"groupId":"EG001","numAffected":1,"numAtRisk":295}]},{"term":"Deep vein thrombosis","organSystem":"Vascular disorders","stats":[{"groupId":"EG000","numAffected":3,"numAtRisk":293},{"groupId":"EG001","numAffected":7,"numAtRisk":295}]},{"term":"Hypotension","organSystem":"Vascular disorders","stats":[{"groupId":"EG000","numAffected":2,"numAtRisk":293},{"groupId":"EG001","numAffected":3,"numAtRisk":295}]}],"otherEvents":[{"term":"Anemia","organSystem":"Blood and lymphatic system disorders","stats":[{"groupId":"EG000","numAffected":147,"numAtRisk":293},{"groupId":"EG001","numAffected":112,"numAtRisk":295}]},{"term":"Neutropenia","organSystem":"Blood and lymphatic system disorders","stats":[{"groupId":"EG000","numAffected":138,"numAtRisk":293},{"groupId":"EG001","numAffected":71,"numAtRisk":295}]},{"term":"Thrombocytopenia","organSystem":"Blood and lymphatic system disorders","stats":[{"groupId":"EG000","numAffected":44,"numAtRisk":293},{"groupId":"EG001","numAffected":42,"numAtRisk":295}]},{"term":"Leukopenia","organSystem":"Blood and lymphatic system disorders","stats":[{"groupId":"EG000","numAffected":31,"numAtRisk":293},{"groupId":"EG001","numAffected":12,"numAtRisk":295}]},{"term":"Febrile neutropenia","organSystem":"Blood and lymphatic system disorders","stats":[{"groupId":"EG000","numAffected":17,"numAtRisk":293},{"groupId":"EG001","numAffected":10,"numAtRisk":295}]},{"term":"Hypotriglyceridemia","organSystem":"Metabolism and nutrition disorders","stats":[{"groupId":"EG000","numAffected":168,"numAtRisk":293},{"groupId":"EG001","numAffected":6,"numAtRisk":295}]},{"term":"Anorexia","organSystem":"Metabolism and nutrition disorders","stats":[{"groupId":"EG000","numAffected":71,"numAtRisk":293},{"groupId":"EG001","numAffected":48,"numAtRisk":295}]},{"term":"Dehydration","organSystem":"Metabolism and nutrition disorders","stats":[{"groupId":"EG000","numAffected":40,"numAtRisk":293},{"groupId":"EG001","numAffected":22,"numAtRisk":295}]},{"term":"Hypercholesterolemia","organSystem":"Metabolism and nutrition disorders","stats":[{"groupId":"EG000","numAffected":35,"numAtRisk":293},{"groupId":"EG001","numAffected":2,"numAtRisk":295}]},{"term":"Hypomagnesemia","organSystem":"Metabolism and nutrition disorders","stats":[{"groupId":"EG000","numAffected":26,"numAtRisk":293},{"groupId":"EG001","numAffected":5,"numAtRisk":295}]},{"term":"Hypokalaemia","organSystem":"Metabolism and nutrition disorders","stats":[{"groupId":"EG000","numAffected":22,"numAtRisk":293},{"groupId":"EG001","numAffected":8,"numAtRisk":295}]},{"term":"Hyperglycaemia","organSystem":"Metabolism and nutrition disorders","stats":[{"groupId":"EG000","numAffected":15,"numAtRisk":293},{"groupId":"EG001","numAffected":8,"numAtRisk":295}]},{"term":"Hyponatremia","organSystem":"Metabolism and nutrition disorders","stats":[{"groupId":"EG000","numAffected":16,"numAtRisk":293},{"groupId":"EG001","numAffected":6,"numAtRisk":295}]},{"term":"Hyperlipidemia","organSystem":"Metabolism and nutrition disorders","stats":[{"groupId":"EG000","numAffected":16,"numAtRisk":293},{"groupId":"EG001","numAffected":2,"numAtRisk":295}]},{"term":"Insomnia","organSystem":"Psychiatric disorders","stats":[{"groupId":"EG000","numAffected":70,"numAtRisk":293},{"groupId":"EG001","numAffected":56,"numAtRisk":295}]},{"term":"Depression","organSystem":"Psychiatric disorders","stats":[{"groupId":"EG000","numAffected":39,"numAtRisk":293},{"groupId":"EG001","numAffected":27,"numAtRisk":295}]},{"term":"Anxiety","organSystem":"Psychiatric disorders","stats":[{"groupId":"EG000","numAffected":32,"numAtRisk":293},{"groupId":"EG001","numAffected":31,"numAtRisk":295}]},{"term":"Confusional state","organSystem":"Psychiatric disorders","stats":[{"groupId":"EG000","numAffected":24,"numAtRisk":293},{"groupId":"EG001","numAffected":7,"numAtRisk":295}]},{"term":"Neuropathy peripheral","organSystem":"Nervous system disorders","stats":[{"groupId":"EG000","numAffected":69,"numAtRisk":293},{"groupId":"EG001","numAffected":70,"numAtRisk":295}]},{"term":"Dizziness","organSystem":"Nervous system disorders","stats":[{"groupId":"EG000","numAffected":44,"numAtRisk":293},{"groupId":"EG001","numAffected":32,"numAtRisk":295}]},{"term":"Headache","organSystem":"Nervous system disorders","stats":[{"groupId":"EG000","numAffected":38,"numAtRisk":293},{"groupId":"EG001","numAffected":28,"numAtRisk":295}]},{"term":"Paraesthesia","organSystem":"Nervous system disorders","stats":[{"groupId":"EG000","numAffected":29,"numAtRisk":293},{"groupId":"EG001","numAffected":34,"numAtRisk":295}]},{"term":"Polyneuropathy","organSystem":"Nervous system disorders","stats":[{"groupId":"EG000","numAffected":28,"numAtRisk":293},{"groupId":"EG001","numAffected":31,"numAtRisk":295}]},{"term":"Neuropathy","organSystem":"Nervous system disorders","stats":[{"groupId":"EG000","numAffected":26,"numAtRisk":293},{"groupId":"EG001","numAffected":19,"numAtRisk":295}]},{"term":"Dysgeusia","organSystem":"Nervous system disorders","stats":[{"groupId":"EG000","numAffected":17,"numAtRisk":293},{"groupId":"EG001","numAffected":23,"numAtRisk":295}]},{"term":"Dyspnoea","organSystem":"Respiratory, thoracic and mediastinal disorders","stats":[{"groupId":"EG000","numAffected":74,"numAtRisk":293},{"groupId":"EG001","numAffected":52,"numAtRisk":295}]},{"term":"Cough","organSystem":"Respiratory, thoracic and mediastinal disorders","stats":[{"groupId":"EG000","numAffected":61,"numAtRisk":293},{"groupId":"EG001","numAffected":47,"numAtRisk":295}]},{"term":"Dyspnoea exacerbated","organSystem":"Respiratory, thoracic and mediastinal disorders","stats":[{"groupId":"EG000","numAffected":20,"numAtRisk":293},{"groupId":"EG001","numAffected":23,"numAtRisk":295}]},{"term":"Haemoptysis","organSystem":"Respiratory, thoracic and mediastinal disorders","stats":[{"groupId":"EG000","numAffected":17,"numAtRisk":293},{"groupId":"EG001","numAffected":17,"numAtRisk":295}]},{"term":"Epistaxis","organSystem":"Respiratory, thoracic and mediastinal disorders","stats":[{"groupId":"EG000","numAffected":20,"numAtRisk":293},{"groupId":"EG001","numAffected":11,"numAtRisk":295}]},{"term":"Pharyngolaryngeal pain","organSystem":"Respiratory, thoracic and mediastinal disorders","stats":[{"groupId":"EG000","numAffected":19,"numAtRisk":293},{"groupId":"EG001","numAffected":9,"numAtRisk":295}]},{"term":"Hoarseness","organSystem":"Respiratory, thoracic and mediastinal disorders","stats":[{"groupId":"EG000","numAffected":15,"numAtRisk":293},{"groupId":"EG001","numAffected":10,"numAtRisk":295}]},{"term":"Hypotension","organSystem":"Vascular disorders","stats":[{"groupId":"EG000","numAffected":18,"numAtRisk":293},{"groupId":"EG001","numAffected":10,"numAtRisk":295}]},{"term":"Flushing","organSystem":"Vascular disorders","stats":[{"groupId":"EG000","numAffected":16,"numAtRisk":293},{"groupId":"EG001","numAffected":9,"numAtRisk":295}]},{"term":"Nausea","organSystem":"Gastrointestinal disorders","stats":[{"groupId":"EG000","numAffected":147,"numAtRisk":293},{"groupId":"EG001","numAffected":140,"numAtRisk":295}]},{"term":"Diarrhoea","organSystem":"Gastrointestinal disorders","stats":[{"groupId":"EG000","numAffected":108,"numAtRisk":293},{"groupId":"EG001","numAffected":68,"numAtRisk":295}]},{"term":"Vomiting","organSystem":"Gastrointestinal disorders","stats":[{"groupId":"EG000","numAffected":96,"numAtRisk":293},{"groupId":"EG001","numAffected":78,"numAtRisk":295}]},{"term":"Constipation","organSystem":"Gastrointestinal disorders","stats":[{"groupId":"EG000","numAffected":80,"numAtRisk":293},{"groupId":"EG001","numAffected":84,"numAtRisk":295}]},{"term":"Abdominal pain","organSystem":"Gastrointestinal disorders","stats":[{"groupId":"EG000","numAffected":39,"numAtRisk":293},{"groupId":"EG001","numAffected":19,"numAtRisk":295}]},{"term":"Dyspepsia","organSystem":"Gastrointestinal disorders","stats":[{"groupId":"EG000","numAffected":19,"numAtRisk":293},{"groupId":"EG001","numAffected":19,"numAtRisk":295}]},{"term":"Stomatitis","organSystem":"Gastrointestinal disorders","stats":[{"groupId":"EG000","numAffected":19,"numAtRisk":293},{"groupId":"EG001","numAffected":18,"numAtRisk":295}]},{"term":"Abdominal pain upper","organSystem":"Gastrointestinal disorders","stats":[{"groupId":"EG000","numAffected":17,"numAtRisk":293},{"groupId":"EG001","numAffected":12,"numAtRisk":295}]},{"term":"Dysphagia","organSystem":"Gastrointestinal disorders","stats":[{"groupId":"EG000","numAffected":20,"numAtRisk":293},{"groupId":"EG001","numAffected":8,"numAtRisk":295}]},{"term":"Alopecia","organSystem":"Skin and subcutaneous tissue disorders","stats":[{"groupId":"EG000","numAffected":147,"numAtRisk":293},{"groupId":"EG001","numAffected":154,"numAtRisk":295}]},{"term":"Rash","organSystem":"Skin and subcutaneous tissue disorders","stats":[{"groupId":"EG000","numAffected":47,"numAtRisk":293},{"groupId":"EG001","numAffected":22,"numAtRisk":295}]},{"term":"Pruritis","organSystem":"Skin and subcutaneous tissue disorders","stats":[{"groupId":"EG000","numAffected":27,"numAtRisk":293},{"groupId":"EG001","numAffected":20,"numAtRisk":295}]},{"term":"Dermatitis exfoliative","organSystem":"Skin and subcutaneous tissue disorders","stats":[{"groupId":"EG000","numAffected":35,"numAtRisk":293},{"groupId":"EG001","numAffected":2,"numAtRisk":295}]},{"term":"Dry skin","organSystem":"Skin and subcutaneous tissue disorders","stats":[{"groupId":"EG000","numAffected":24,"numAtRisk":293},{"groupId":"EG001","numAffected":5,"numAtRisk":295}]},{"term":"Skin desquamation","organSystem":"Skin and subcutaneous tissue disorders","stats":[{"groupId":"EG000","numAffected":15,"numAtRisk":293},{"groupId":"EG001","numAffected":0,"numAtRisk":295}]},{"term":"Arthralgia","organSystem":"Musculoskeletal and connective tissue disorders","stats":[{"groupId":"EG000","numAffected":78,"numAtRisk":293},{"groupId":"EG001","numAffected":68,"numAtRisk":295}]},{"term":"Myalgia","organSystem":"Musculoskeletal and connective tissue disorders","stats":[{"groupId":"EG000","numAffected":61,"numAtRisk":293},{"groupId":"EG001","numAffected":55,"numAtRisk":295}]},{"term":"Pain in extremity","organSystem":"Musculoskeletal and connective tissue disorders","stats":[{"groupId":"EG000","numAffected":55,"numAtRisk":293},{"groupId":"EG001","numAffected":32,"numAtRisk":295}]},{"term":"Back pain","organSystem":"Musculoskeletal and connective tissue disorders","stats":[{"groupId":"EG000","numAffected":34,"numAtRisk":293},{"groupId":"EG001","numAffected":35,"numAtRisk":295}]},{"term":"Bone pain","organSystem":"Musculoskeletal and connective tissue disorders","stats":[{"groupId":"EG000","numAffected":23,"numAtRisk":293},{"groupId":"EG001","numAffected":16,"numAtRisk":295}]},{"term":"Fatigue","organSystem":"General disorders","stats":[{"groupId":"EG000","numAffected":156,"numAtRisk":293},{"groupId":"EG001","numAffected":137,"numAtRisk":295}]},{"term":"Asthenia","organSystem":"General disorders","stats":[{"groupId":"EG000","numAffected":67,"numAtRisk":293},{"groupId":"EG001","numAffected":49,"numAtRisk":295}]},{"term":"Chest pain","organSystem":"General disorders","stats":[{"groupId":"EG000","numAffected":44,"numAtRisk":293},{"groupId":"EG001","numAffected":56,"numAtRisk":295}]},{"term":"Oedema peripheral","organSystem":"General disorders","stats":[{"groupId":"EG000","numAffected":39,"numAtRisk":293},{"groupId":"EG001","numAffected":38,"numAtRisk":295}]},{"term":"Pain","organSystem":"General disorders","stats":[{"groupId":"EG000","numAffected":27,"numAtRisk":293},{"groupId":"EG001","numAffected":30,"numAtRisk":295}]},{"term":"Pyrexia","organSystem":"General disorders","stats":[{"groupId":"EG000","numAffected":46,"numAtRisk":293},{"groupId":"EG001","numAffected":47,"numAtRisk":295}]},{"term":"Weight decreased","organSystem":"Investigations","stats":[{"groupId":"EG000","numAffected":41,"numAtRisk":293},{"groupId":"EG001","numAffected":30,"numAtRisk":295}]},{"term":"Blood triglycerides increased","organSystem":"Investigations","stats":[{"groupId":"EG000","numAffected":27,"numAtRisk":293},{"groupId":"EG001","numAffected":0,"numAtRisk":295}]},{"term":"Hypothyroidism","organSystem":"Endocrine disorders","stats":[{"groupId":"EG000","numAffected":73,"numAtRisk":293},{"groupId":"EG001","numAffected":2,"numAtRisk":295}]}]},"moreInfoModule":{"certainAgreement":{"piSponsorEmployee":false,"restrictiveAgreement":false},"pointOfContact":{"title":"Eisai, Inc.","organization":"Eisai Call Center","phone":"888-422-4743"}}},"derivedSection":{"miscInfoModule":{"versionHolder":"2025-12-17"},"conditionBrowseModule":{"meshes":[{"id":"D002289","term":"Carcinoma, Non-Small-Cell Lung"}],"ancestors":[{"id":"D002283","term":"Carcinoma, Bronchogenic"},{"id":"D001984","term":"Bronchial Neoplasms"},{"id":"D008175","term":"Lung Neoplasms"},{"id":"D012142","term":"Respiratory Tract Neoplasms"},{"id":"D013899","term":"Thoracic Neoplasms"},{"id":"D009371","term":"Neoplasms by Site"},{"id":"D009369","term":"Neoplasms"},{"id":"D008171","term":"Lung Diseases"},{"id":"D012140","term":"Respiratory Tract Diseases"}]},"interventionBrowseModule":{"meshes":[{"id":"D000077610","term":"Bexarotene"},{"id":"D016190","term":"Carboplatin"},{"id":"D017239","term":"Paclitaxel"}],"ancestors":[{"id":"D013764","term":"Tetrahydronaphthalenes"},{"id":"D009281","term":"Naphthalenes"},{"id":"D011084","term":"Polycyclic Aromatic Hydrocarbons"},{"id":"D006841","term":"Hydrocarbons, Aromatic"},{"id":"D006844","term":"Hydrocarbons, Cyclic"},{"id":"D006838","term":"Hydrocarbons"},{"id":"D009930","term":"Organic Chemicals"},{"id":"D011083","term":"Polycyclic Compounds"},{"id":"D056831","term":"Coordination Complexes"},{"id":"D043823","term":"Taxoids"},{"id":"D043822","term":"Cyclodecanes"},{"id":"D003516","term":"Cycloparaffins"},{"id":"D006840","term":"Hydrocarbons, Alicyclic"},{"id":"D004224","term":"Diterpenes"},{"id":"D013729","term":"Terpenes"}]}},"hasResults":true}