{"protocolSection":{"identificationModule":{"nctId":"NCT01996332","orgStudyIdInfo":{"id":"ML17915"},"organization":{"fullName":"Hoffmann-La Roche","class":"INDUSTRY"},"briefTitle":"A Study of Tarceva (Erlotinib) Monotherapy in Patients With Advanced Non-Small Cell Lung Cancer (NSCLC)","officialTitle":"An Open-label Study of the Effect of Tarceva Monotherapy on Treatment Response in Patients With Advanced Non-small Cell Lung Cancer for Whom Tarceva Monotherapy is Considered the Best Option"},"statusModule":{"statusVerifiedDate":"2014-06","overallStatus":"COMPLETED","expandedAccessInfo":{"hasExpandedAccess":false},"startDateStruct":{"date":"2004-04"},"primaryCompletionDateStruct":{"date":"2012-10","type":"ACTUAL"},"completionDateStruct":{"date":"2012-10","type":"ACTUAL"},"studyFirstSubmitDate":"2013-11-22","studyFirstSubmitQcDate":"2013-11-22","studyFirstPostDateStruct":{"date":"2013-11-27","type":"ESTIMATED"},"resultsFirstSubmitDate":"2014-06-09","resultsFirstSubmitQcDate":"2014-06-09","resultsFirstPostDateStruct":{"date":"2014-07-10","type":"ESTIMATED"},"lastUpdateSubmitDate":"2014-06-09","lastUpdatePostDateStruct":{"date":"2014-07-10","type":"ESTIMATED"}},"sponsorCollaboratorsModule":{"responsibleParty":{"type":"SPONSOR"},"leadSponsor":{"name":"Hoffmann-La Roche","class":"INDUSTRY"}},"descriptionModule":{"briefSummary":"This study will evaluate the efficacy and safety of oral Tarceva in patients with advanced NSCLC for whom Tarceva monotherapy is considered the best therapeutic option. The anticipated time on study treatment is 3-12 months."},"conditionsModule":{"conditions":["Non-Small Cell Lung Cancer"]},"designModule":{"studyType":"INTERVENTIONAL","phases":["PHASE2"],"designInfo":{"allocation":"NON_RANDOMIZED","interventionModel":"SINGLE_GROUP","primaryPurpose":"TREATMENT","maskingInfo":{"masking":"NONE"}},"enrollmentInfo":{"count":1805,"type":"ACTUAL"}},"armsInterventionsModule":{"armGroups":[{"label":"Tarceva Arm","type":"EXPERIMENTAL","interventionNames":["Drug: erlotinib [Tarceva]"]}],"interventions":[{"type":"DRUG","name":"erlotinib [Tarceva]","description":"150 mg/day until progressive disease or unacceptable toxicity","armGroupLabels":["Tarceva Arm"]}]},"outcomesModule":{"primaryOutcomes":[{"measure":"Time to Disease Progression or Death by Line of Treatment","description":"Time to progression or death was defined as the time from inclusion to the date of disease progression or death, whichever occurred first.","timeFrame":"Baseline, every 6-8 weeks up to 3 years until disease progression or death"}],"secondaryOutcomes":[{"measure":"Percentage of Participants Achieving Clinical Benefit by Line of Treatment","description":"Efficacy was analyzed in terms of clinical benefit, defined as the sum of the number of participants achieving complete response \\[CR\\], partial response \\[PR\\], or stable disease \\[SD\\]. Tumor response was evaluated according to Response Evaluation Criteria in Solid Tumors (RECIST) criteria version 1.0. CR was defined as disappearance of all target and non-target lesions. PR was defined as greater than or equal to (≥)30 percent (%) decrease in sum of longest diameters of target lesions taking as reference baseline sum longest diameters associated to non-progressive disease response for non target lesions. SD was defined as neither sufficient shrinkage to qualify for PR nor sufficient increase to qualify for progressive disease taking as reference smallest sum of longest dimensions since treatment started associated to non-progressive disease response for non target lesions.","timeFrame":"Baseline, every 6-8 weeks up to 3 years or until death"},{"measure":"Overall Survival (OS) by Line of Treatment","description":"Time in months from the start of study treatment to date of death due to any cause. OS was calculated as (the death date or last known alive date \\[if death date was unavailable\\] minus the date of first dose of study medication plus 1 divided by 30.44).","timeFrame":"Baseline, every 6-8 weeks up to 3 years, or until death"}]},"eligibilityModule":{"eligibilityCriteria":"Inclusion Criteria:\n\n* adult patients \\>=18 years of age;\n* locally advanced or metastatic NSCLC (Stage IIIB or IV);\n* not a candidate for curative surgery or radical chemotherapy;\n* no brain metastases, or clinically stable metastases for \\>=2 months.\n\nExclusion Criteria:\n\n* radiotherapy over the previous 2 weeks;\n* weight loss \\>10% in the previous 6 weeks.","healthyVolunteers":false,"sex":"ALL","minimumAge":"18 Years","stdAges":["ADULT","OLDER_ADULT"]},"contactsLocationsModule":{"overallOfficials":[{"name":"Clinical Trials","affiliation":"Hoffmann-La Roche","role":"STUDY_CHAIR"}],"locations":[{"city":"Alcoy","state":"Alicante","zip":"03804","country":"Spain","geoPoint":{"lat":38.70545,"lon":-0.47432}},{"city":"Alicante","state":"Alicante","zip":"3010","country":"Spain","geoPoint":{"lat":38.34517,"lon":-0.48149}},{"city":"Elche","state":"Alicante","zip":"03203","country":"Spain","geoPoint":{"lat":38.26218,"lon":-0.70107}},{"city":"Almería","state":"Almeria","zip":"04009","country":"Spain","geoPoint":{"lat":36.83814,"lon":-2.45974}},{"city":"Ávila","state":"Avila","zip":"05071","country":"Spain","geoPoint":{"lat":40.65724,"lon":-4.69951}},{"city":"Badajoz","state":"Badajoz","zip":"06080","country":"Spain","geoPoint":{"lat":38.87789,"lon":-6.97061}},{"city":"Don Benito","state":"Badajoz","zip":"06400","country":"Spain","geoPoint":{"lat":38.95627,"lon":-5.86162}},{"city":"Mérida","state":"Badajoz","zip":"06800","country":"Spain","geoPoint":{"lat":38.91802,"lon":-6.34292}},{"city":"Ibiza Town","state":"Balearic Islands","zip":"07800","country":"Spain","geoPoint":{"lat":38.90883,"lon":1.43296}},{"city":"Palma de Mallorca","state":"Balearic Islands","zip":"07012","country":"Spain","geoPoint":{"lat":39.56939,"lon":2.65024}},{"city":"Palma de Mallorca","state":"Balearic Islands","zip":"07014","country":"Spain","geoPoint":{"lat":39.56939,"lon":2.65024}},{"city":"Palma de Mallorca","state":"Balearic Islands","zip":"07198","country":"Spain","geoPoint":{"lat":39.56939,"lon":2.65024}},{"city":"Badalona","state":"Barcelona","zip":"08911","country":"Spain","geoPoint":{"lat":41.45004,"lon":2.24741}},{"city":"Barcelona","state":"Barcelona","zip":"08003","country":"Spain","geoPoint":{"lat":41.38879,"lon":2.15899}},{"city":"Barcelona","state":"Barcelona","zip":"08017","country":"Spain","geoPoint":{"lat":41.38879,"lon":2.15899}},{"city":"Barcelona","state":"Barcelona","zip":"08022","country":"Spain","geoPoint":{"lat":41.38879,"lon":2.15899}},{"city":"Barcelona","state":"Barcelona","zip":"08029","country":"Spain","geoPoint":{"lat":41.38879,"lon":2.15899}},{"city":"Barcelona","state":"Barcelona","zip":"08036","country":"Spain","geoPoint":{"lat":41.38879,"lon":2.15899}},{"city":"Barcelona","state":"Barcelona","zip":"08041","country":"Spain","geoPoint":{"lat":41.38879,"lon":2.15899}},{"city":"Barcelona","state":"Barcelona","zip":"08227","country":"Spain","geoPoint":{"lat":41.38879,"lon":2.15899}},{"city":"Barcelona","state":"Barcelona","zip":"08907","country":"Spain","geoPoint":{"lat":41.38879,"lon":2.15899}},{"city":"Barcelona","state":"Barcelona","zip":"08916","country":"Spain","geoPoint":{"lat":41.38879,"lon":2.15899}},{"city":"Granollers","state":"Barcelona","zip":"08400","country":"Spain","geoPoint":{"lat":41.60797,"lon":2.28773}},{"city":"Manresa","state":"Barcelona","zip":"08243","country":"Spain","geoPoint":{"lat":41.72815,"lon":1.82399}},{"city":"Mataró","state":"Barcelona","zip":"08304","country":"Spain","geoPoint":{"lat":41.54211,"lon":2.4445}},{"city":"Sabadell, Barcelona","state":"Barcelona","zip":"08208","country":"Spain"},{"city":"Sant Coloma Gramenet","state":"Barcelona","zip":"08923","country":"Spain"},{"city":"Sant Pere de Ribes","state":"Barcelona","zip":"08810","country":"Spain","geoPoint":{"lat":41.26045,"lon":1.77391}},{"city":"Terrassa","state":"Barcelona","zip":"08221","country":"Spain","geoPoint":{"lat":41.56667,"lon":2.01667}},{"city":"Vic","state":"Barcelona","zip":"08500","country":"Spain","geoPoint":{"lat":41.93012,"lon":2.25486}},{"city":"Burgos","state":"Burgos","zip":"09006","country":"Spain","geoPoint":{"lat":42.34106,"lon":-3.70184}},{"city":"Cáceres","state":"Caceres","zip":"10003","country":"Spain","geoPoint":{"lat":39.47649,"lon":-6.37224}},{"city":"Algeciras","state":"Cadiz","zip":"11207","country":"Spain","geoPoint":{"lat":36.13326,"lon":-5.45051}},{"city":"Cadiz","state":"Cadiz","zip":"11009","country":"Spain","geoPoint":{"lat":36.52672,"lon":-6.2891}},{"city":"Jerez de la Frontera","state":"Cadiz","zip":"11407","country":"Spain","geoPoint":{"lat":36.68645,"lon":-6.13606}},{"city":"Puerto Real","state":"Cadiz","zip":"11510","country":"Spain","geoPoint":{"lat":36.52819,"lon":-6.19011}},{"city":"Santander","state":"Cantabria","zip":"39008","country":"Spain","geoPoint":{"lat":43.46589,"lon":-3.80493}},{"city":"Torrevieja","state":"Cantabria","zip":"03180","country":"Spain"},{"city":"Castellon","state":"Castellon","zip":"12002","country":"Spain","geoPoint":{"lat":39.98567,"lon":-0.04935}},{"city":"Córdoba","state":"Cordoba","zip":"14004","country":"Spain","geoPoint":{"lat":37.89155,"lon":-4.77275}},{"city":"Girona","state":"Girona","zip":"17007","country":"Spain","geoPoint":{"lat":41.98311,"lon":2.82493}},{"city":"Baza","state":"Granada","zip":"18800","country":"Spain","geoPoint":{"lat":37.49073,"lon":-2.77259}},{"city":"Granada","state":"Granada","zip":"18003","country":"Spain","geoPoint":{"lat":37.18817,"lon":-3.60667}},{"city":"Granada","state":"Granada","zip":"18014","country":"Spain","geoPoint":{"lat":37.18817,"lon":-3.60667}},{"city":"Donostia / San Sebastian","state":"Guipuzcoa","zip":"20014","country":"Spain","geoPoint":{"lat":43.31283,"lon":-1.97499}},{"city":"Huelva","state":"Huelva","zip":"21005","country":"Spain","geoPoint":{"lat":37.26638,"lon":-6.94004}},{"city":"Jaén","state":"Jaen","zip":"23007","country":"Spain","geoPoint":{"lat":37.76922,"lon":-3.79028}},{"city":"A Coruña","state":"La Coruña","zip":"15006","country":"Spain","geoPoint":{"lat":43.37135,"lon":-8.396}},{"city":"A Coruña","state":"La Coruña","zip":"15009","country":"Spain","geoPoint":{"lat":43.37135,"lon":-8.396}},{"city":"Ferrol","state":"La Coruña","zip":"15405","country":"Spain","geoPoint":{"lat":43.48451,"lon":-8.23293}},{"city":"Las Palmas de Gran Canaria","state":"Las Palmas","zip":"35016","country":"Spain","geoPoint":{"lat":28.10178,"lon":-15.41573}},{"city":"Las Palmas de Gran Canaria","state":"Las Palmas","zip":"35020","country":"Spain","geoPoint":{"lat":28.10178,"lon":-15.41573}},{"city":"León","state":"Leon","zip":"24071","country":"Spain","geoPoint":{"lat":42.60003,"lon":-5.57032}},{"city":"Lleida","state":"Lerida","zip":"25198","country":"Spain","geoPoint":{"lat":41.61674,"lon":0.62218}},{"city":"Lugo","state":"Lugo","zip":"27004","country":"Spain","geoPoint":{"lat":43.00992,"lon":-7.55602}},{"city":"Alcorcón","state":"Madrid","zip":"28922","country":"Spain","geoPoint":{"lat":40.34582,"lon":-3.82487}},{"city":"Madrid","state":"Madrid","zip":"28002","country":"Spain","geoPoint":{"lat":40.4165,"lon":-3.70256}},{"city":"Madrid","state":"Madrid","zip":"28006","country":"Spain","geoPoint":{"lat":40.4165,"lon":-3.70256}},{"city":"Madrid","state":"Madrid","zip":"28033","country":"Spain","geoPoint":{"lat":40.4165,"lon":-3.70256}},{"city":"Madrid","state":"Madrid","zip":"28034","country":"Spain","geoPoint":{"lat":40.4165,"lon":-3.70256}},{"city":"Madrid","state":"Madrid","zip":"28040","country":"Spain","geoPoint":{"lat":40.4165,"lon":-3.70256}},{"city":"Madrid","state":"Madrid","zip":"28041","country":"Spain","geoPoint":{"lat":40.4165,"lon":-3.70256}},{"city":"Madrid","state":"Madrid","zip":"28046","country":"Spain","geoPoint":{"lat":40.4165,"lon":-3.70256}},{"city":"Madrid","state":"Madrid","zip":"28222","country":"Spain","geoPoint":{"lat":40.4165,"lon":-3.70256}},{"city":"Madrid","state":"Madrid","zip":"28660","country":"Spain","geoPoint":{"lat":40.4165,"lon":-3.70256}},{"city":"Madrid","state":"Madrid","zip":"28935","country":"Spain","geoPoint":{"lat":40.4165,"lon":-3.70256}},{"city":"Málaga","state":"Malaga","zip":"29010","country":"Spain","geoPoint":{"lat":36.72016,"lon":-4.42034}},{"city":"Cartagena","state":"Murcia","zip":"30203","country":"Spain","geoPoint":{"lat":37.60197,"lon":-0.98397}},{"city":"Murcia","state":"Murcia","zip":"30008","country":"Spain","geoPoint":{"lat":37.98704,"lon":-1.13004}},{"city":"Murcia","state":"Murcia","zip":"30120","country":"Spain","geoPoint":{"lat":37.98704,"lon":-1.13004}},{"city":"Navarra","state":"Navarre","zip":"31008","country":"Spain"},{"city":"Pamplona","state":"Navarre","zip":"31008","country":"Spain","geoPoint":{"lat":42.81687,"lon":-1.64323}},{"city":"Ourense","state":"Orense","zip":"32005","country":"Spain","geoPoint":{"lat":42.33669,"lon":-7.86407}},{"city":"Palencia","state":"Palencia","zip":"34005","country":"Spain","geoPoint":{"lat":42.00955,"lon":-4.52406}},{"city":"Vigo","state":"Pontevedra","zip":"36204","country":"Spain","geoPoint":{"lat":42.23282,"lon":-8.72264}},{"city":"Vigo","state":"Pontevedra","zip":"36211","country":"Spain","geoPoint":{"lat":42.23282,"lon":-8.72264}},{"city":"Salamanca","state":"Salamanca","zip":"37007","country":"Spain","geoPoint":{"lat":40.96882,"lon":-5.66388}},{"city":"Segovia","state":"Segovia","zip":"40002","country":"Spain","geoPoint":{"lat":40.94808,"lon":-4.11839}},{"city":"Seville","state":"Sevilla","zip":"41009","country":"Spain","geoPoint":{"lat":37.38283,"lon":-5.97317}},{"city":"Seville","state":"Sevilla","zip":"41013","country":"Spain","geoPoint":{"lat":37.38283,"lon":-5.97317}},{"city":"Seville","state":"Sevilla","zip":"41014","country":"Spain","geoPoint":{"lat":37.38283,"lon":-5.97317}},{"city":"San Cristóbal de La Laguna","state":"Tenerife","zip":"38320","country":"Spain","geoPoint":{"lat":28.4853,"lon":-16.32014}},{"city":"Santa Cruz de Tenerife","state":"Tenerife","zip":"38010","country":"Spain","geoPoint":{"lat":28.46824,"lon":-16.25462}},{"city":"Sagunto","state":"Valencia","zip":"46520","country":"Spain","geoPoint":{"lat":39.68333,"lon":-0.26667}},{"city":"Valencia","state":"Valencia","zip":"41014","country":"Spain","geoPoint":{"lat":39.47391,"lon":-0.37966}},{"city":"Valencia","state":"Valencia","zip":"46009","country":"Spain","geoPoint":{"lat":39.47391,"lon":-0.37966}},{"city":"Valencia","state":"Valencia","zip":"46010","country":"Spain","geoPoint":{"lat":39.47391,"lon":-0.37966}},{"city":"Valencia","state":"Valencia","zip":"46015","country":"Spain","geoPoint":{"lat":39.47391,"lon":-0.37966}},{"city":"Valencia","state":"Valencia","zip":"46017","country":"Spain","geoPoint":{"lat":39.47391,"lon":-0.37966}},{"city":"Valencia","state":"Valencia","zip":"46026","country":"Spain","geoPoint":{"lat":39.47391,"lon":-0.37966}},{"city":"Valladolid","state":"Valladolid","zip":"47010","country":"Spain","geoPoint":{"lat":41.65541,"lon":-4.72353}},{"city":"Barakaldo","state":"Vizcaya","zip":"48903","country":"Spain","geoPoint":{"lat":43.29639,"lon":-2.98813}},{"city":"Bilbao","state":"Vizcaya","zip":"48013","country":"Spain","geoPoint":{"lat":43.26271,"lon":-2.92528}},{"city":"Zaragoza","state":"Zaragoza","zip":"50009","country":"Spain","geoPoint":{"lat":41.65606,"lon":-0.87734}}]}},"resultsSection":{"participantFlowModule":{"preAssignmentDetails":"Three cohorts were established in participants with advanced non-small cell lung cancer (NSCLC) based on previous chemotherapy treatment received: first line of treatment (where conventional chemotherapy is not indicated), second line of treatment, and third and subsequent lines of treatment. Inclusion was competitive.","groups":[{"id":"FG000","title":"Erlotinib 150 Milligrams Per Day (mg/Day)","description":"Participants received erlotinib 150 milligrams/day (mg/day), orally, until progressive disease or unacceptable toxicity."}],"periods":[{"title":"Overall Study","milestones":[{"type":"STARTED","achievements":[{"groupId":"FG000","numSubjects":"1805"}]},{"type":"COMPLETED","achievements":[{"groupId":"FG000","numSubjects":"0"}]},{"type":"NOT COMPLETED","achievements":[{"groupId":"FG000","numSubjects":"1805"}]}],"dropWithdraws":[{"type":"Adverse Event","reasons":[{"groupId":"FG000","numSubjects":"117"}]},{"type":"Lack of Efficacy","reasons":[{"groupId":"FG000","numSubjects":"1245"}]},{"type":"Death","reasons":[{"groupId":"FG000","numSubjects":"264"}]},{"type":"Protocol Violation","reasons":[{"groupId":"FG000","numSubjects":"9"}]},{"type":"Withdrawal by Subject","reasons":[{"groupId":"FG000","numSubjects":"71"}]},{"type":"Other","reasons":[{"groupId":"FG000","numSubjects":"20"}]},{"type":"Clinical Deterioration","reasons":[{"groupId":"FG000","numSubjects":"28"}]},{"type":"Physician Decision","reasons":[{"groupId":"FG000","numSubjects":"17"}]},{"type":"Lost to Follow-up","reasons":[{"groupId":"FG000","numSubjects":"34"}]}]}]},"baselineCharacteristicsModule":{"populationDescription":"Intent-to-treat (ITT) population defined as all participants included to each of three cohorts based on prior chemotherapy treatment received: first-line monotherapy (for whom conventional chemotherapy was not indicated), second-line monotherapy, and third or subsequent lines of treatment.","groups":[{"id":"BG000","title":"Erlotinib 150 mg/Day","description":"Participants received erlotinib 150 mg/day, orally, until progressive disease or unacceptable toxicity."}],"denoms":[{"units":"Participants","counts":[{"groupId":"BG000","value":"1805"}]}],"measures":[{"title":"Age, Continuous","paramType":"MEAN","dispersionType":"STANDARD_DEVIATION","unitOfMeasure":"years","classes":[{"categories":[{"measurements":[{"groupId":"BG000","value":"63.55","spread":"11.75"}]}]}]},{"title":"Sex: Female, Male","paramType":"COUNT_OF_PARTICIPANTS","unitOfMeasure":"Participants","classes":[{"categories":[{"title":"Female","measurements":[{"groupId":"BG000","value":"520"}]},{"title":"Male","measurements":[{"groupId":"BG000","value":"1285"}]}]}]}]},"outcomeMeasuresModule":{"outcomeMeasures":[{"type":"PRIMARY","title":"Time to Disease Progression or Death by Line of Treatment","description":"Time to progression or death was defined as the time from inclusion to the date of disease progression or death, whichever occurred first.","populationDescription":"ITT Population; data were analyzed in 6 cohorts, with erlotinib treatment as: 1) first line; 2) maintenance after first line; 3) second line; 4) maintenance after second line; 5) third or subsequent line; or 6) maintenance after third line","reportingStatus":"POSTED","paramType":"MEDIAN","dispersionType":"95% Confidence Interval","unitOfMeasure":"months","timeFrame":"Baseline, every 6-8 weeks up to 3 years until disease progression or death","groups":[{"id":"OG000","title":"Erlotinib 150 mg/Day","description":"Participants received erlotinib 150 mg/day, orally, until progressive disease or unacceptable toxicity."}],"denoms":[{"units":"Participants","counts":[{"groupId":"OG000","value":"1805"}]}],"classes":[{"title":"1st Line","categories":[{"measurements":[{"groupId":"OG000","value":"3.4","lowerLimit":"2.9","upperLimit":"4.1"}]}]},{"title":"Maintenance after 1st Line","categories":[{"measurements":[{"groupId":"OG000","value":"4.7","lowerLimit":"3.0","upperLimit":"6.6"}]}]},{"title":"2nd Line","categories":[{"measurements":[{"groupId":"OG000","value":"2.7","lowerLimit":"2.5","upperLimit":"2.9"}]}]},{"title":"Maintenance after 2nd Line","categories":[{"measurements":[{"groupId":"OG000","value":"3.9","lowerLimit":"1.2","upperLimit":"6.8"}]}]},{"title":"3rd or Subsequent Line","categories":[{"measurements":[{"groupId":"OG000","value":"2.4","lowerLimit":"2.2","upperLimit":"2.7"}]}]},{"title":"Maintenance after 3rd Line","categories":[{"measurements":[{"groupId":"OG000","value":"2.8","lowerLimit":"1.8","upperLimit":"5.0"}]}]}]},{"type":"SECONDARY","title":"Percentage of Participants Achieving Clinical Benefit by Line of Treatment","description":"Efficacy was analyzed in terms of clinical benefit, defined as the sum of the number of participants achieving complete response \\[CR\\], partial response \\[PR\\], or stable disease \\[SD\\]. Tumor response was evaluated according to Response Evaluation Criteria in Solid Tumors (RECIST) criteria version 1.0. CR was defined as disappearance of all target and non-target lesions. PR was defined as greater than or equal to (≥)30 percent (%) decrease in sum of longest diameters of target lesions taking as reference baseline sum longest diameters associated to non-progressive disease response for non target lesions. SD was defined as neither sufficient shrinkage to qualify for PR nor sufficient increase to qualify for progressive disease taking as reference smallest sum of longest dimensions since treatment started associated to non-progressive disease response for non target lesions.","populationDescription":"Response evaluable population: participants with measurable disease and with matching criteria to have a response assessment; data were analyzed in 6 cohorts, with erlotinib treatment as: 1) first line; 2) maintenance after first line; 3) second line; 4) maintenance after second line; 5) third or subsequent line; or 6) maintenance after third line","reportingStatus":"POSTED","paramType":"NUMBER","dispersionType":"95% Confidence Interval","unitOfMeasure":"percentage of participants","timeFrame":"Baseline, every 6-8 weeks up to 3 years or until death","groups":[{"id":"OG000","title":"Erlotinib 150 mg/Day","description":"Participants received erlotinib 150 mg/day, orally, until progressive disease or unacceptable toxicity."}],"denoms":[{"units":"Participants","counts":[{"groupId":"OG000","value":"1261"}]}],"classes":[{"title":"1st line","categories":[{"measurements":[{"groupId":"OG000","value":"70.32","lowerLimit":"65.21","upperLimit":"75.08"}]}]},{"title":"Maintenance treatment after 1st line","categories":[{"measurements":[{"groupId":"OG000","value":"70.00","lowerLimit":"53.47","upperLimit":"83.44"}]}]},{"title":"2nd line","categories":[{"measurements":[{"groupId":"OG000","value":"58.04","lowerLimit":"53.39","upperLimit":"62.60"}]}]},{"title":"Maintenance treatment after 2nd line","categories":[{"measurements":[{"groupId":"OG000","value":"73.68","lowerLimit":"48.80","upperLimit":"90.85"}]}]},{"title":"3rd or subsequent line","categories":[{"measurements":[{"groupId":"OG000","value":"52.71","lowerLimit":"47.61","upperLimit":"57.78"}]}]},{"title":"Maintenance treatment after 3rd line","categories":[{"measurements":[{"groupId":"OG000","value":"50.00","lowerLimit":"15.70","upperLimit":"84.30"}]}]}]},{"type":"SECONDARY","title":"Overall Survival (OS) by Line of Treatment","description":"Time in months from the start of study treatment to date of death due to any cause. OS was calculated as (the death date or last known alive date \\[if death date was unavailable\\] minus the date of first dose of study medication plus 1 divided by 30.44).","populationDescription":"ITT Population; data were analyzed in 6 cohorts, with erlotinib treatment as: 1) first line; 2) maintenance after first line; 3) second line; 4) maintenance after second line; 5) third or subsequent line; or 6) maintenance after third line","reportingStatus":"POSTED","paramType":"MEDIAN","dispersionType":"95% Confidence Interval","unitOfMeasure":"months","timeFrame":"Baseline, every 6-8 weeks up to 3 years, or until death","groups":[{"id":"OG000","title":"Erlotinib 150 mg/Day","description":"Participants received erlotinib 150 mg/day, orally, until progressive disease or unacceptable toxicity."}],"denoms":[{"units":"Participants","counts":[{"groupId":"OG000","value":"1805"}]}],"classes":[{"title":"1st Line","categories":[{"measurements":[{"groupId":"OG000","value":"6.4","lowerLimit":"5.8","upperLimit":"7.4"}]}]},{"title":"Sequential treatment after 1st line","categories":[{"measurements":[{"groupId":"OG000","value":"12.1","lowerLimit":"6.2","upperLimit":"19.3"}]}]},{"title":"2nd Line","categories":[{"measurements":[{"groupId":"OG000","value":"5.9","lowerLimit":"5.2","upperLimit":"6.4"}]}]},{"title":"Sequential treatment after 2nd line","categories":[{"measurements":[{"groupId":"OG000","value":"7.1","lowerLimit":"2.2","upperLimit":"15.8"}]}]},{"title":"3rd Line or subsequent","categories":[{"measurements":[{"groupId":"OG000","value":"5.2","lowerLimit":"4.3","upperLimit":"6.1"}]}]},{"title":"Sequential treatment after 3rd line","categories":[{"measurements":[{"groupId":"OG000","value":"3.9","lowerLimit":"2.0","upperLimit":"8.6"}]}]}]}]},"adverseEventsModule":{"frequencyThreshold":"0","timeFrame":"From the administration of first dose of study medication to the end of study or until death.","description":"Nonserious adverse events presented in this record include all adverse events reported during the study, not just nonserious events.","eventGroups":[{"id":"EG000","title":"Erlotinib 150 mg/Day","description":"Participants received erlotinib 150 mg/day, orally, until progressive disease or unacceptable toxicity.","seriousNumAffected":566,"seriousNumAtRisk":1805,"otherNumAffected":1695,"otherNumAtRisk":1797}],"seriousEvents":[{"term":"Hemoglobbin","organSystem":"Blood and lymphatic system disorders","sourceVocabulary":"NCI v3.0","assessmentType":"SYSTEMATIC_ASSESSMENT","stats":[{"groupId":"EG000","numAffected":3,"numAtRisk":1805}]},{"term":"Neutrophils","organSystem":"Investigations","sourceVocabulary":"NCI v3.0","assessmentType":"NON_SYSTEMATIC_ASSESSMENT","stats":[{"groupId":"EG000","numAffected":2,"numAtRisk":1805}]},{"term":"Platelets","organSystem":"Investigations","sourceVocabulary":"NCI v3.0","assessmentType":"NON_SYSTEMATIC_ASSESSMENT","stats":[{"groupId":"EG000","numAffected":1,"numAtRisk":1805}]},{"term":"Cardiac arrhythmia","organSystem":"Cardiac disorders","sourceVocabulary":"NCI v3.0","assessmentType":"NON_SYSTEMATIC_ASSESSMENT","stats":[{"groupId":"EG000","numAffected":4,"numAtRisk":1805}]},{"term":"Cardiac ischemia","organSystem":"Cardiac disorders","sourceVocabulary":"NCI v3.0","assessmentType":"NON_SYSTEMATIC_ASSESSMENT","stats":[{"groupId":"EG000","numAffected":6,"numAtRisk":1805}]},{"term":"Cardiopulmonary arrest","organSystem":"Cardiac disorders","sourceVocabulary":"NCI v3.0","assessmentType":"NON_SYSTEMATIC_ASSESSMENT","stats":[{"groupId":"EG000","numAffected":6,"numAtRisk":1805}]},{"term":"Hypotension","organSystem":"Vascular disorders","sourceVocabulary":"NCI v3.0","assessmentType":"NON_SYSTEMATIC_ASSESSMENT","stats":[{"groupId":"EG000","numAffected":1,"numAtRisk":1805}]},{"term":"Left ventricular systolic dysfunction","organSystem":"Cardiac disorders","sourceVocabulary":"NCI v3.0","assessmentType":"NON_SYSTEMATIC_ASSESSMENT","stats":[{"groupId":"EG000","numAffected":4,"numAtRisk":1805}]},{"term":"Pericardial effusion","organSystem":"Cardiac disorders","sourceVocabulary":"NCI v3.0","assessmentType":"NON_SYSTEMATIC_ASSESSMENT","stats":[{"groupId":"EG000","numAffected":7,"numAtRisk":1805}]},{"term":"Pericarditis","organSystem":"Cardiac disorders","sourceVocabulary":"NCI v3.0","assessmentType":"NON_SYSTEMATIC_ASSESSMENT","stats":[{"groupId":"EG000","numAffected":1,"numAtRisk":1805}]},{"term":"Right ventricular dysfunction","organSystem":"Cardiac disorders","sourceVocabulary":"NCI v3.0","assessmentType":"NON_SYSTEMATIC_ASSESSMENT","stats":[{"groupId":"EG000","numAffected":1,"numAtRisk":1805}]},{"term":"Alcohol Poisoning","organSystem":"Injury, poisoning and procedural complications","sourceVocabulary":"NCI v3.0","assessmentType":"NON_SYSTEMATIC_ASSESSMENT","stats":[{"groupId":"EG000","numAffected":1,"numAtRisk":1805}]},{"term":"Asthenia","organSystem":"General disorders","sourceVocabulary":"NCI v3.0","assessmentType":"NON_SYSTEMATIC_ASSESSMENT","stats":[{"groupId":"EG000","numAffected":17,"numAtRisk":1805}]},{"term":"Constitutional symptoms/other","organSystem":"General disorders","sourceVocabulary":"NCI v3.0","assessmentType":"NON_SYSTEMATIC_ASSESSMENT","stats":[{"groupId":"EG000","numAffected":14,"numAtRisk":1805}]},{"term":"Drug abuser","organSystem":"Social circumstances","sourceVocabulary":"NCI v3.0","assessmentType":"NON_SYSTEMATIC_ASSESSMENT","stats":[{"groupId":"EG000","numAffected":1,"numAtRisk":1805}]},{"term":"Fever","organSystem":"General disorders","sourceVocabulary":"NCI v3.0","assessmentType":"NON_SYSTEMATIC_ASSESSMENT","stats":[{"groupId":"EG000","numAffected":17,"numAtRisk":1805}]},{"term":"Opioid abuse","organSystem":"Social circumstances","sourceVocabulary":"NCI v3.0","assessmentType":"NON_SYSTEMATIC_ASSESSMENT","stats":[{"groupId":"EG000","numAffected":2,"numAtRisk":1805}]},{"term":"Sweating","organSystem":"Skin and subcutaneous tissue disorders","sourceVocabulary":"NCI v3.0","assessmentType":"NON_SYSTEMATIC_ASSESSMENT","stats":[{"groupId":"EG000","numAffected":1,"numAtRisk":1805}]},{"term":"Weight loss","organSystem":"Investigations","sourceVocabulary":"NCI v3.0","assessmentType":"NON_SYSTEMATIC_ASSESSMENT","stats":[{"groupId":"EG000","numAffected":1,"numAtRisk":1805}]},{"term":"Dermatology/skin - other","organSystem":"Skin and subcutaneous tissue disorders","sourceVocabulary":"NCI v3.0","assessmentType":"NON_SYSTEMATIC_ASSESSMENT","stats":[{"groupId":"EG000","numAffected":4,"numAtRisk":1805}]},{"term":"Rash","organSystem":"Skin and subcutaneous tissue disorders","sourceVocabulary":"NCI v3.0","assessmentType":"NON_SYSTEMATIC_ASSESSMENT","stats":[{"groupId":"EG000","numAffected":5,"numAtRisk":1805}]},{"term":"Anorexia","organSystem":"Metabolism and nutrition disorders","sourceVocabulary":"NCI v3.0","assessmentType":"NON_SYSTEMATIC_ASSESSMENT","stats":[{"groupId":"EG000","numAffected":6,"numAtRisk":1805}]},{"term":"Constipation","organSystem":"Gastrointestinal disorders","sourceVocabulary":"NCI v3.0","assessmentType":"NON_SYSTEMATIC_ASSESSMENT","stats":[{"groupId":"EG000","numAffected":1,"numAtRisk":1805}]},{"term":"Diarrhea","organSystem":"Gastrointestinal disorders","sourceVocabulary":"NCI v3.0","assessmentType":"NON_SYSTEMATIC_ASSESSMENT","stats":[{"groupId":"EG000","numAffected":28,"numAtRisk":1805}]},{"term":"Dyspepsia/heartburn","organSystem":"Gastrointestinal disorders","sourceVocabulary":"NCI v3.0","assessmentType":"NON_SYSTEMATIC_ASSESSMENT","stats":[{"groupId":"EG000","numAffected":1,"numAtRisk":1805}]},{"term":"Dysphagia","organSystem":"Gastrointestinal disorders","sourceVocabulary":"NCI v3.0","assessmentType":"NON_SYSTEMATIC_ASSESSMENT","stats":[{"groupId":"EG000","numAffected":6,"numAtRisk":1805}]},{"term":"Esophagitis","organSystem":"Gastrointestinal disorders","sourceVocabulary":"NCI v3.0","assessmentType":"NON_SYSTEMATIC_ASSESSMENT","stats":[{"groupId":"EG000","numAffected":1,"numAtRisk":1805}]},{"term":"Gastrointestinal/other","organSystem":"Gastrointestinal disorders","sourceVocabulary":"NCI v3.0","assessmentType":"NON_SYSTEMATIC_ASSESSMENT","stats":[{"groupId":"EG000","numAffected":1,"numAtRisk":1805}]},{"term":"Ileus GI","organSystem":"Gastrointestinal disorders","sourceVocabulary":"NCI v3.0","assessmentType":"NON_SYSTEMATIC_ASSESSMENT","stats":[{"groupId":"EG000","numAffected":4,"numAtRisk":1805}]},{"term":"Intestinal perforation","organSystem":"Gastrointestinal disorders","sourceVocabulary":"NCI v3.0","assessmentType":"NON_SYSTEMATIC_ASSESSMENT","stats":[{"groupId":"EG000","numAffected":2,"numAtRisk":1805}]},{"term":"Mucositis","organSystem":"Gastrointestinal disorders","sourceVocabulary":"NCI v3.0","assessmentType":"NON_SYSTEMATIC_ASSESSMENT","stats":[{"groupId":"EG000","numAffected":5,"numAtRisk":1805}]},{"term":"Nausea","organSystem":"Gastrointestinal disorders","sourceVocabulary":"NCI v3.0","assessmentType":"NON_SYSTEMATIC_ASSESSMENT","stats":[{"groupId":"EG000","numAffected":6,"numAtRisk":1805}]},{"term":"Obstruction/GU","organSystem":"Gastrointestinal disorders","sourceVocabulary":"NCI v3.0","assessmentType":"NON_SYSTEMATIC_ASSESSMENT","stats":[{"groupId":"EG000","numAffected":1,"numAtRisk":1805}]},{"term":"Vomiting","organSystem":"Gastrointestinal disorders","sourceVocabulary":"NCI v3.0","assessmentType":"NON_SYSTEMATIC_ASSESSMENT","stats":[{"groupId":"EG000","numAffected":7,"numAtRisk":1805}]},{"term":"Bronchopulmonary hemorrhage","organSystem":"Respiratory, thoracic and mediastinal disorders","sourceVocabulary":"NCI v3.0","assessmentType":"NON_SYSTEMATIC_ASSESSMENT","stats":[{"groupId":"EG000","numAffected":21,"numAtRisk":1805}]},{"term":"Hemorrhage","organSystem":"Blood and lymphatic system disorders","sourceVocabulary":"NCI v3.0","assessmentType":"NON_SYSTEMATIC_ASSESSMENT","stats":[{"groupId":"EG000","numAffected":17,"numAtRisk":1805}]},{"term":"Hepatic cyst","organSystem":"Hepatobiliary disorders","sourceVocabulary":"NCI v3.0","assessmentType":"NON_SYSTEMATIC_ASSESSMENT","stats":[{"groupId":"EG000","numAffected":1,"numAtRisk":1805}]},{"term":"Liver dysfunction","organSystem":"Hepatobiliary disorders","sourceVocabulary":"NCI v3.0","assessmentType":"NON_SYSTEMATIC_ASSESSMENT","stats":[{"groupId":"EG000","numAffected":4,"numAtRisk":1805}]},{"term":"Febrile neutropenia","organSystem":"Infections and infestations","sourceVocabulary":"NCI v3.0","assessmentType":"NON_SYSTEMATIC_ASSESSMENT","stats":[{"groupId":"EG000","numAffected":2,"numAtRisk":1805}]},{"term":"Gallbladder infection","organSystem":"Infections and infestations","sourceVocabulary":"NCI v3.0","assessmentType":"NON_SYSTEMATIC_ASSESSMENT","stats":[{"groupId":"EG000","numAffected":1,"numAtRisk":1805}]},{"term":"Infection NOS","organSystem":"Infections and infestations","sourceVocabulary":"NCI v3.0","assessmentType":"SYSTEMATIC_ASSESSMENT","stats":[{"groupId":"EG000","numAffected":67,"numAtRisk":1805}]},{"term":"Infection - anal/perianal","organSystem":"Infections and infestations","sourceVocabulary":"NCI v3.0","assessmentType":"NON_SYSTEMATIC_ASSESSMENT","stats":[{"groupId":"EG000","numAffected":1,"numAtRisk":1805}]},{"term":"Infection - appendix","organSystem":"Infections and infestations","sourceVocabulary":"NCI v3.0","assessmentType":"NON_SYSTEMATIC_ASSESSMENT","stats":[{"groupId":"EG000","numAffected":1,"numAtRisk":1805}]},{"term":"Infection - blood","organSystem":"Infections and infestations","sourceVocabulary":"NCI v3.0","assessmentType":"NON_SYSTEMATIC_ASSESSMENT","stats":[{"groupId":"EG000","numAffected":6,"numAtRisk":1805}]},{"term":"Infection - brain (encephalitis, infectious)","organSystem":"Infections and infestations","sourceVocabulary":"NCI v3.0","assessmentType":"NON_SYSTEMATIC_ASSESSMENT","stats":[{"groupId":"EG000","numAffected":1,"numAtRisk":1805}]},{"term":"Infection - bronchus","organSystem":"Infections and infestations","sourceVocabulary":"NCI v3.0","assessmentType":"NON_SYSTEMATIC_ASSESSMENT","stats":[{"groupId":"EG000","numAffected":5,"numAtRisk":1805}]},{"term":"Infection - catheter - related","organSystem":"Infections and infestations","sourceVocabulary":"NCI v3.0","assessmentType":"NON_SYSTEMATIC_ASSESSMENT","stats":[{"groupId":"EG000","numAffected":1,"numAtRisk":1805}]},{"term":"Infection - kidney","organSystem":"Infections and infestations","sourceVocabulary":"NCI v3.0","assessmentType":"NON_SYSTEMATIC_ASSESSMENT","stats":[{"groupId":"EG000","numAffected":1,"numAtRisk":1805}]},{"term":"Infection - liver","organSystem":"Infections and infestations","sourceVocabulary":"NCI v3.0","assessmentType":"NON_SYSTEMATIC_ASSESSMENT","stats":[{"groupId":"EG000","numAffected":1,"numAtRisk":1805}]},{"term":"Infection - lung (pneumonia)","organSystem":"Infections and infestations","sourceVocabulary":"NCI v3.0","assessmentType":"NON_SYSTEMATIC_ASSESSMENT","stats":[{"groupId":"EG000","numAffected":44,"numAtRisk":1805}]},{"term":"Infection - skin (cellulitis)","organSystem":"Infections and infestations","sourceVocabulary":"NCI v3.0","assessmentType":"NON_SYSTEMATIC_ASSESSMENT","stats":[{"groupId":"EG000","numAffected":2,"numAtRisk":1805}]},{"term":"Infection - soft tissue NOS","organSystem":"Infections and infestations","sourceVocabulary":"NCI v3.0","assessmentType":"NON_SYSTEMATIC_ASSESSMENT","stats":[{"groupId":"EG000","numAffected":3,"numAtRisk":1805}]},{"term":"Infection - upper aerodigestive NOS","organSystem":"Infections and infestations","sourceVocabulary":"NCI v3.0","assessmentType":"NON_SYSTEMATIC_ASSESSMENT","stats":[{"groupId":"EG000","numAffected":1,"numAtRisk":1805}]},{"term":"Infection - urinary tract NOS","organSystem":"Infections and infestations","sourceVocabulary":"NCI v3.0","assessmentType":"NON_SYSTEMATIC_ASSESSMENT","stats":[{"groupId":"EG000","numAffected":6,"numAtRisk":1805}]},{"term":"Infection - wound","organSystem":"Infections and infestations","sourceVocabulary":"NCI v3.0","assessmentType":"NON_SYSTEMATIC_ASSESSMENT","stats":[{"groupId":"EG000","numAffected":1,"numAtRisk":1805}]},{"term":"Edema Limb","organSystem":"General disorders","sourceVocabulary":"NCI v3.0","assessmentType":"NON_SYSTEMATIC_ASSESSMENT","stats":[{"groupId":"EG000","numAffected":2,"numAtRisk":1805}]},{"term":"Acidosis","organSystem":"Metabolism and nutrition disorders","sourceVocabulary":"NCI v3.0","assessmentType":"NON_SYSTEMATIC_ASSESSMENT","stats":[{"groupId":"EG000","numAffected":1,"numAtRisk":1805}]},{"term":"Bilirubin","organSystem":"Investigations","sourceVocabulary":"NCI v3.0","assessmentType":"NON_SYSTEMATIC_ASSESSMENT","stats":[{"groupId":"EG000","numAffected":2,"numAtRisk":1805}]},{"term":"Hypercalcemia","organSystem":"Metabolism and nutrition disorders","sourceVocabulary":"NCI v3.0","assessmentType":"NON_SYSTEMATIC_ASSESSMENT","stats":[{"groupId":"EG000","numAffected":4,"numAtRisk":1805}]},{"term":"Hyperglycemia","organSystem":"Metabolism and nutrition disorders","sourceVocabulary":"NCI v3.0","assessmentType":"NON_SYSTEMATIC_ASSESSMENT","stats":[{"groupId":"EG000","numAffected":3,"numAtRisk":1805}]},{"term":"Hyponatremia","organSystem":"Metabolism and nutrition disorders","sourceVocabulary":"NCI v3.0","assessmentType":"NON_SYSTEMATIC_ASSESSMENT","stats":[{"groupId":"EG000","numAffected":1,"numAtRisk":1805}]},{"term":"Ascites","organSystem":"Gastrointestinal disorders","sourceVocabulary":"NCI v3.0","assessmentType":"NON_SYSTEMATIC_ASSESSMENT","stats":[{"groupId":"EG000","numAffected":2,"numAtRisk":1805}]},{"term":"Fracture","organSystem":"Injury, poisoning and procedural complications","sourceVocabulary":"NCI v3.0","assessmentType":"NON_SYSTEMATIC_ASSESSMENT","stats":[{"groupId":"EG000","numAffected":4,"numAtRisk":1805}]},{"term":"Muscle weakness","organSystem":"Musculoskeletal and connective tissue disorders","sourceVocabulary":"NCI v3.0","assessmentType":"NON_SYSTEMATIC_ASSESSMENT","stats":[{"groupId":"EG000","numAffected":1,"numAtRisk":1805}]},{"term":"Musculoskeletal/other","organSystem":"Musculoskeletal and connective tissue disorders","sourceVocabulary":"NCI v3.0","assessmentType":"NON_SYSTEMATIC_ASSESSMENT","stats":[{"groupId":"EG000","numAffected":1,"numAtRisk":1805}]},{"term":"Trismus","organSystem":"Musculoskeletal and connective tissue disorders","sourceVocabulary":"NCI v3.0","assessmentType":"NON_SYSTEMATIC_ASSESSMENT","stats":[{"groupId":"EG000","numAffected":1,"numAtRisk":1805}]},{"term":"Ataxia","organSystem":"Nervous system disorders","sourceVocabulary":"NCI v3.0","assessmentType":"NON_SYSTEMATIC_ASSESSMENT","stats":[{"groupId":"EG000","numAffected":2,"numAtRisk":1805}]},{"term":"CNS ischemia","organSystem":"Nervous system disorders","sourceVocabulary":"NCI v3.0","assessmentType":"NON_SYSTEMATIC_ASSESSMENT","stats":[{"groupId":"EG000","numAffected":14,"numAtRisk":1805}]},{"term":"Cognitive disturbance","organSystem":"Nervous system disorders","sourceVocabulary":"NCI v3.0","assessmentType":"NON_SYSTEMATIC_ASSESSMENT","stats":[{"groupId":"EG000","numAffected":2,"numAtRisk":1805}]},{"term":"Confusion","organSystem":"Psychiatric disorders","sourceVocabulary":"NCI v3.0","assessmentType":"NON_SYSTEMATIC_ASSESSMENT","stats":[{"groupId":"EG000","numAffected":11,"numAtRisk":1805}]},{"term":"Dizziness","organSystem":"Nervous system disorders","sourceVocabulary":"NCI v3.0","assessmentType":"NON_SYSTEMATIC_ASSESSMENT","stats":[{"groupId":"EG000","numAffected":3,"numAtRisk":1805}]},{"term":"Encephalopathy","organSystem":"Nervous system disorders","sourceVocabulary":"NCI v3.0","assessmentType":"NON_SYSTEMATIC_ASSESSMENT","stats":[{"groupId":"EG000","numAffected":1,"numAtRisk":1805}]},{"term":"Involuntary movement","organSystem":"Nervous system disorders","sourceVocabulary":"NCI v3.0","assessmentType":"NON_SYSTEMATIC_ASSESSMENT","stats":[{"groupId":"EG000","numAffected":1,"numAtRisk":1805}]},{"term":"Mood alteration - agitation","organSystem":"Psychiatric disorders","sourceVocabulary":"NCI v3.0","assessmentType":"NON_SYSTEMATIC_ASSESSMENT","stats":[{"groupId":"EG000","numAffected":2,"numAtRisk":1805}]},{"term":"Mood alteration - anxiety","organSystem":"Psychiatric disorders","sourceVocabulary":"NCI v3.0","assessmentType":"NON_SYSTEMATIC_ASSESSMENT","stats":[{"groupId":"EG000","numAffected":2,"numAtRisk":1805}]},{"term":"Neurology/other","organSystem":"Psychiatric disorders","sourceVocabulary":"NCI v3.0","assessmentType":"NON_SYSTEMATIC_ASSESSMENT","stats":[{"groupId":"EG000","numAffected":15,"numAtRisk":1805}]},{"term":"Neuropathy/motor","organSystem":"Nervous system disorders","sourceVocabulary":"NCI v3.0","assessmentType":"NON_SYSTEMATIC_ASSESSMENT","stats":[{"groupId":"EG000","numAffected":7,"numAtRisk":1805}]},{"term":"Neuropathy/sensory","organSystem":"Nervous system disorders","sourceVocabulary":"NCI v3.0","assessmentType":"NON_SYSTEMATIC_ASSESSMENT","stats":[{"groupId":"EG000","numAffected":2,"numAtRisk":1805}]},{"term":"Psychosis","organSystem":"Psychiatric disorders","sourceVocabulary":"NCI v3.0","assessmentType":"NON_SYSTEMATIC_ASSESSMENT","stats":[{"groupId":"EG000","numAffected":1,"numAtRisk":1805}]},{"term":"Seizures","organSystem":"Nervous system disorders","sourceVocabulary":"NCI v3.0","assessmentType":"NON_SYSTEMATIC_ASSESSMENT","stats":[{"groupId":"EG000","numAffected":2,"numAtRisk":1805}]},{"term":"Somnolence","organSystem":"Nervous system disorders","sourceVocabulary":"NCI v3.0","assessmentType":"SYSTEMATIC_ASSESSMENT","stats":[{"groupId":"EG000","numAffected":2,"numAtRisk":1805}]},{"term":"Speech impairment","organSystem":"Nervous system disorders","sourceVocabulary":"NCI v3.0","assessmentType":"NON_SYSTEMATIC_ASSESSMENT","stats":[{"groupId":"EG000","numAffected":2,"numAtRisk":1805}]},{"term":"Syncope","organSystem":"Nervous system disorders","sourceVocabulary":"NCI v3.0","assessmentType":"NON_SYSTEMATIC_ASSESSMENT","stats":[{"groupId":"EG000","numAffected":4,"numAtRisk":1805}]},{"term":"Diplopia","organSystem":"Eye disorders","sourceVocabulary":"NCI v3.0","assessmentType":"NON_SYSTEMATIC_ASSESSMENT","stats":[{"groupId":"EG000","numAffected":1,"numAtRisk":1805}]},{"term":"Keratitis","organSystem":"Eye disorders","sourceVocabulary":"NCI v3.0","assessmentType":"NON_SYSTEMATIC_ASSESSMENT","stats":[{"groupId":"EG000","numAffected":1,"numAtRisk":1805}]},{"term":"Pain NOS","organSystem":"General disorders","sourceVocabulary":"NCI v3.0","assessmentType":"NON_SYSTEMATIC_ASSESSMENT","stats":[{"groupId":"EG000","numAffected":22,"numAtRisk":1805}]},{"term":"Pain - abdominal NOS","organSystem":"Gastrointestinal disorders","sourceVocabulary":"NCI v3.0","assessmentType":"NON_SYSTEMATIC_ASSESSMENT","stats":[{"groupId":"EG000","numAffected":7,"numAtRisk":1805}]},{"term":"Pain - bone","organSystem":"Musculoskeletal and connective tissue disorders","sourceVocabulary":"NCI v3.0","assessmentType":"NON_SYSTEMATIC_ASSESSMENT","stats":[{"groupId":"EG000","numAffected":3,"numAtRisk":1805}]},{"term":"Pain - chest wall","organSystem":"Musculoskeletal and connective tissue disorders","sourceVocabulary":"NCI v3.0","assessmentType":"NON_SYSTEMATIC_ASSESSMENT","stats":[{"groupId":"EG000","numAffected":7,"numAtRisk":1805}]},{"term":"Pain - headache","organSystem":"Nervous system disorders","sourceVocabulary":"NCI v3.0","assessmentType":"NON_SYSTEMATIC_ASSESSMENT","stats":[{"groupId":"EG000","numAffected":5,"numAtRisk":1805}]},{"term":"Pain - joint","organSystem":"Musculoskeletal and connective tissue disorders","sourceVocabulary":"NCI v3.0","assessmentType":"NON_SYSTEMATIC_ASSESSMENT","stats":[{"groupId":"EG000","numAffected":1,"numAtRisk":1805}]},{"term":"Pain - limb","organSystem":"Musculoskeletal and connective tissue disorders","sourceVocabulary":"NCI v3.0","assessmentType":"NON_SYSTEMATIC_ASSESSMENT","stats":[{"groupId":"EG000","numAffected":3,"numAtRisk":1805}]},{"term":"Pain - liver","organSystem":"Gastrointestinal disorders","sourceVocabulary":"NCI v3.0","assessmentType":"NON_SYSTEMATIC_ASSESSMENT","stats":[{"groupId":"EG000","numAffected":1,"numAtRisk":1805}]},{"term":"Pain - muscle","organSystem":"Musculoskeletal and connective tissue disorders","sourceVocabulary":"NCI v3.0","assessmentType":"NON_SYSTEMATIC_ASSESSMENT","stats":[{"groupId":"EG000","numAffected":15,"numAtRisk":1805}]},{"term":"Pain - neuralgia/peripheral nerve","organSystem":"Nervous system disorders","sourceVocabulary":"NCI v3.0","assessmentType":"NON_SYSTEMATIC_ASSESSMENT","stats":[{"groupId":"EG000","numAffected":1,"numAtRisk":1805}]},{"term":"Pain - pleura","organSystem":"Respiratory, thoracic and mediastinal disorders","sourceVocabulary":"NCI v3.0","assessmentType":"NON_SYSTEMATIC_ASSESSMENT","stats":[{"groupId":"EG000","numAffected":1,"numAtRisk":1805}]},{"term":"Adult respiratory distress syndrome","organSystem":"Respiratory, thoracic and mediastinal disorders","sourceVocabulary":"NCI v3.0","assessmentType":"NON_SYSTEMATIC_ASSESSMENT","stats":[{"groupId":"EG000","numAffected":3,"numAtRisk":1805}]},{"term":"Airway obstruction/upper respiratory","organSystem":"Respiratory, thoracic and mediastinal disorders","sourceVocabulary":"NCI v3.0","assessmentType":"NON_SYSTEMATIC_ASSESSMENT","stats":[{"groupId":"EG000","numAffected":1,"numAtRisk":1805}]},{"term":"Bronchospasm","organSystem":"Respiratory, thoracic and mediastinal disorders","sourceVocabulary":"NCI v3.0","assessmentType":"NON_SYSTEMATIC_ASSESSMENT","stats":[{"groupId":"EG000","numAffected":3,"numAtRisk":1805}]},{"term":"Cough","organSystem":"Respiratory, thoracic and mediastinal disorders","sourceVocabulary":"NCI v3.0","assessmentType":"NON_SYSTEMATIC_ASSESSMENT","stats":[{"groupId":"EG000","numAffected":4,"numAtRisk":1805}]},{"term":"Dyspnea","organSystem":"Respiratory, thoracic and mediastinal disorders","sourceVocabulary":"NCI v3.0","assessmentType":"NON_SYSTEMATIC_ASSESSMENT","stats":[{"groupId":"EG000","numAffected":188,"numAtRisk":1805}]},{"term":"Hypoxia","organSystem":"Respiratory, thoracic and mediastinal disorders","sourceVocabulary":"NCI v3.0","assessmentType":"NON_SYSTEMATIC_ASSESSMENT","stats":[{"groupId":"EG000","numAffected":2,"numAtRisk":1805}]},{"term":"Pleural effusion","organSystem":"Respiratory, thoracic and mediastinal disorders","sourceVocabulary":"NCI v3.0","assessmentType":"NON_SYSTEMATIC_ASSESSMENT","stats":[{"groupId":"EG000","numAffected":9,"numAtRisk":1805}]},{"term":"Pneumonitis","organSystem":"Respiratory, thoracic and mediastinal disorders","sourceVocabulary":"NCI v3.0","assessmentType":"NON_SYSTEMATIC_ASSESSMENT","stats":[{"groupId":"EG000","numAffected":3,"numAtRisk":1805}]},{"term":"Pneumothorax","organSystem":"Respiratory, thoracic and mediastinal disorders","sourceVocabulary":"NCI v3.0","assessmentType":"NON_SYSTEMATIC_ASSESSMENT","stats":[{"groupId":"EG000","numAffected":4,"numAtRisk":1805}]},{"term":"Pulmonary/obstruction/stenosis of airway (bronchus)","organSystem":"Respiratory, thoracic and mediastinal disorders","sourceVocabulary":"NCI v3.0","assessmentType":"NON_SYSTEMATIC_ASSESSMENT","stats":[{"groupId":"EG000","numAffected":1,"numAtRisk":1805}]},{"term":"Pulmonary/others","organSystem":"Respiratory, thoracic and mediastinal disorders","sourceVocabulary":"NCI v3.0","assessmentType":"NON_SYSTEMATIC_ASSESSMENT","stats":[{"groupId":"EG000","numAffected":6,"numAtRisk":1805}]},{"term":"Tracheal fistula","organSystem":"Respiratory, thoracic and mediastinal disorders","sourceVocabulary":"NCI v3.0","assessmentType":"NON_SYSTEMATIC_ASSESSMENT","stats":[{"groupId":"EG000","numAffected":1,"numAtRisk":1805}]},{"term":"Obstruction/GI","organSystem":"Gastrointestinal disorders","sourceVocabulary":"NCI v3.0","assessmentType":"NON_SYSTEMATIC_ASSESSMENT","stats":[{"groupId":"EG000","numAffected":4,"numAtRisk":1805}]},{"term":"Renal failure","organSystem":"Renal and urinary disorders","sourceVocabulary":"NCI v3.0","assessmentType":"NON_SYSTEMATIC_ASSESSMENT","stats":[{"groupId":"EG000","numAffected":10,"numAtRisk":1805}]},{"term":"Secondary Malignancy","organSystem":"Neoplasms benign, malignant and unspecified (incl cysts and polyps)","sourceVocabulary":"NCI v3.0","assessmentType":"NON_SYSTEMATIC_ASSESSMENT","stats":[{"groupId":"EG000","numAffected":1,"numAtRisk":1805}]},{"term":"Intraoperative complications","organSystem":"Surgical and medical procedures","sourceVocabulary":"NCI v3.0","assessmentType":"NON_SYSTEMATIC_ASSESSMENT","stats":[{"groupId":"EG000","numAffected":1,"numAtRisk":1805}]},{"term":"Antiphospholipid syndrome","organSystem":"Immune system disorders","sourceVocabulary":"NCI v3.0","assessmentType":"NON_SYSTEMATIC_ASSESSMENT","stats":[{"groupId":"EG000","numAffected":1,"numAtRisk":1805}]},{"term":"Flu-like syndrome","organSystem":"General disorders","sourceVocabulary":"NCI v3.0","assessmentType":"NON_SYSTEMATIC_ASSESSMENT","stats":[{"groupId":"EG000","numAffected":1,"numAtRisk":1805}]},{"term":"Ill-defined disorder","organSystem":"General disorders","sourceVocabulary":"NCI v3.0","assessmentType":"NON_SYSTEMATIC_ASSESSMENT","stats":[{"groupId":"EG000","numAffected":1,"numAtRisk":1805}]},{"term":"Syndromes/other-superior cava vein","organSystem":"Injury, poisoning and procedural complications","sourceVocabulary":"NCI v3.0","assessmentType":"NON_SYSTEMATIC_ASSESSMENT","stats":[{"groupId":"EG000","numAffected":9,"numAtRisk":1805}]},{"term":"Uncoded","organSystem":"General disorders","sourceVocabulary":"NCI v3.0","assessmentType":"NON_SYSTEMATIC_ASSESSMENT","stats":[{"groupId":"EG000","numAffected":2,"numAtRisk":1805}]},{"term":"Phlebitis","organSystem":"Vascular disorders","sourceVocabulary":"NCI v3.0","assessmentType":"NON_SYSTEMATIC_ASSESSMENT","stats":[{"groupId":"EG000","numAffected":2,"numAtRisk":1805}]},{"term":"Thrombosis/embolism","organSystem":"Vascular disorders","sourceVocabulary":"NCI v3.0","assessmentType":"NON_SYSTEMATIC_ASSESSMENT","stats":[{"groupId":"EG000","numAffected":25,"numAtRisk":1805}]},{"term":"Vascular/other","organSystem":"Vascular disorders","sourceVocabulary":"NCI v3.0","assessmentType":"NON_SYSTEMATIC_ASSESSMENT","stats":[{"groupId":"EG000","numAffected":2,"numAtRisk":1805}]}],"otherEvents":[{"term":"Rhinitis","organSystem":"Infections and infestations","sourceVocabulary":"NCI v3.0","assessmentType":"NON_SYSTEMATIC_ASSESSMENT","stats":[{"groupId":"EG000","numAffected":14,"numAtRisk":1797}]},{"term":"Allergic reaction","organSystem":"Immune system disorders","sourceVocabulary":"NCI v3.0","assessmentType":"NON_SYSTEMATIC_ASSESSMENT","stats":[{"groupId":"EG000","numAffected":3,"numAtRisk":1797}]},{"term":"Vasculitis","organSystem":"Vascular disorders","sourceVocabulary":"NCI v3.0","assessmentType":"NON_SYSTEMATIC_ASSESSMENT","stats":[{"groupId":"EG000","numAffected":3,"numAtRisk":1797}]},{"term":"Hearing","organSystem":"Ear and labyrinth disorders","sourceVocabulary":"NCI v3.0","assessmentType":"NON_SYSTEMATIC_ASSESSMENT","stats":[{"groupId":"EG000","numAffected":5,"numAtRisk":1797}]},{"term":"Tinnitus","organSystem":"Ear and labyrinth disorders","sourceVocabulary":"NCI v3.0","assessmentType":"NON_SYSTEMATIC_ASSESSMENT","stats":[{"groupId":"EG000","numAffected":3,"numAtRisk":1797}]},{"term":"Hemoglobin","organSystem":"Blood and lymphatic system disorders","sourceVocabulary":"NCI v3.0","assessmentType":"NON_SYSTEMATIC_ASSESSMENT","stats":[{"groupId":"EG000","numAffected":89,"numAtRisk":1797}]},{"term":"Platelets","organSystem":"Investigations","sourceVocabulary":"NCI v3.0","assessmentType":"NON_SYSTEMATIC_ASSESSMENT","stats":[{"groupId":"EG000","numAffected":8,"numAtRisk":1797}]},{"term":"Neutrophils","organSystem":"Investigations","sourceVocabulary":"NCI v3.0","assessmentType":"NON_SYSTEMATIC_ASSESSMENT","stats":[{"groupId":"EG000","numAffected":7,"numAtRisk":1797}]},{"term":"Leucocytes","organSystem":"Investigations","sourceVocabulary":"NCI v3.0","assessmentType":"NON_SYSTEMATIC_ASSESSMENT","stats":[{"groupId":"EG000","numAffected":4,"numAtRisk":1797}]},{"term":"Lymphopenia","organSystem":"Investigations","sourceVocabulary":"NCI v3.0","assessmentType":"NON_SYSTEMATIC_ASSESSMENT","stats":[{"groupId":"EG000","numAffected":1,"numAtRisk":1797}]},{"term":"Band neutrophil percentage increased","organSystem":"Investigations","sourceVocabulary":"NCI v3.0","assessmentType":"NON_SYSTEMATIC_ASSESSMENT","stats":[{"groupId":"EG000","numAffected":1,"numAtRisk":1797}]},{"term":"Cardiac arrhythmia","organSystem":"Cardiac disorders","sourceVocabulary":"NCI v3.0","assessmentType":"NON_SYSTEMATIC_ASSESSMENT","stats":[{"groupId":"EG000","numAffected":27,"numAtRisk":1797}]},{"term":"Vasovagal episodes","organSystem":"Nervous system disorders","sourceVocabulary":"NCI v3.0","assessmentType":"NON_SYSTEMATIC_ASSESSMENT","stats":[{"groupId":"EG000","numAffected":3,"numAtRisk":1797}]},{"term":"Palpitations","organSystem":"Cardiac disorders","sourceVocabulary":"NCI v3.0","assessmentType":"NON_SYSTEMATIC_ASSESSMENT","stats":[{"groupId":"EG000","numAffected":1,"numAtRisk":1797}]},{"term":"Pericardial effusion","organSystem":"Cardiac disorders","sourceVocabulary":"NCI v3.0","assessmentType":"NON_SYSTEMATIC_ASSESSMENT","stats":[{"groupId":"EG000","numAffected":8,"numAtRisk":1797}]},{"term":"Cardiac ischemia","organSystem":"Cardiac disorders","sourceVocabulary":"NCI v3.0","assessmentType":"NON_SYSTEMATIC_ASSESSMENT","stats":[{"groupId":"EG000","numAffected":7,"numAtRisk":1797}]},{"term":"Hypotension","organSystem":"Vascular disorders","sourceVocabulary":"NCI v3.0","assessmentType":"NON_SYSTEMATIC_ASSESSMENT","stats":[{"groupId":"EG000","numAffected":7,"numAtRisk":1797}]},{"term":"Cardiopulmonary arrest","organSystem":"Cardiac disorders","sourceVocabulary":"NCI v3.0","assessmentType":"NON_SYSTEMATIC_ASSESSMENT","stats":[{"groupId":"EG000","numAffected":6,"numAtRisk":1797}]},{"term":"Hypertension","organSystem":"Vascular disorders","sourceVocabulary":"NCI v3.0","assessmentType":"NON_SYSTEMATIC_ASSESSMENT","stats":[{"groupId":"EG000","numAffected":5,"numAtRisk":1797}]},{"term":"Left ventricular systolic dysfunction","organSystem":"Cardiac disorders","sourceVocabulary":"NCI v3.0","assessmentType":"NON_SYSTEMATIC_ASSESSMENT","stats":[{"groupId":"EG000","numAffected":5,"numAtRisk":1797}]},{"term":"Right ventricular dysfunction","organSystem":"Cardiac disorders","sourceVocabulary":"NCI v3.0","assessmentType":"NON_SYSTEMATIC_ASSESSMENT","stats":[{"groupId":"EG000","numAffected":2,"numAtRisk":1797}]},{"term":"Valvular heart disease","organSystem":"Cardiac disorders","sourceVocabulary":"NCI v3.0","assessmentType":"NON_SYSTEMATIC_ASSESSMENT","stats":[{"groupId":"EG000","numAffected":2,"numAtRisk":1797}]},{"term":"Pulmonary hypertension","organSystem":"Respiratory, thoracic and mediastinal disorders","sourceVocabulary":"NCI v3.0","assessmentType":"NON_SYSTEMATIC_ASSESSMENT","stats":[{"groupId":"EG000","numAffected":1,"numAtRisk":1797}]},{"term":"Pericarditis","organSystem":"Cardiac disorders","sourceVocabulary":"NCI v3.0","assessmentType":"NON_SYSTEMATIC_ASSESSMENT","stats":[{"groupId":"EG000","numAffected":1,"numAtRisk":1797}]},{"term":"Asthenia","organSystem":"General disorders","sourceVocabulary":"NCI v3.0","assessmentType":"NON_SYSTEMATIC_ASSESSMENT","stats":[{"groupId":"EG000","numAffected":650,"numAtRisk":1797}]},{"term":"Fever","organSystem":"General disorders","sourceVocabulary":"NCI v3.0","assessmentType":"NON_SYSTEMATIC_ASSESSMENT","stats":[{"groupId":"EG000","numAffected":210,"numAtRisk":1797}]},{"term":"Weight loss","organSystem":"Investigations","sourceVocabulary":"NCI v3.0","assessmentType":"NON_SYSTEMATIC_ASSESSMENT","stats":[{"groupId":"EG000","numAffected":91,"numAtRisk":1797}]},{"term":"Insomnia","organSystem":"Psychiatric disorders","sourceVocabulary":"NCI v3.0","assessmentType":"NON_SYSTEMATIC_ASSESSMENT","stats":[{"groupId":"EG000","numAffected":67,"numAtRisk":1797}]},{"term":"Constitutional symptoms/other","organSystem":"General disorders","sourceVocabulary":"NCI v3.0","assessmentType":"NON_SYSTEMATIC_ASSESSMENT","stats":[{"groupId":"EG000","numAffected":42,"numAtRisk":1797}]},{"term":"Sweating","organSystem":"Skin and subcutaneous tissue disorders","sourceVocabulary":"NCI v3.0","assessmentType":"NON_SYSTEMATIC_ASSESSMENT","stats":[{"groupId":"EG000","numAffected":10,"numAtRisk":1797}]},{"term":"Mucosal dryness","organSystem":"Gastrointestinal disorders","sourceVocabulary":"NCI v3.0","assessmentType":"NON_SYSTEMATIC_ASSESSMENT","stats":[{"groupId":"EG000","numAffected":6,"numAtRisk":1797}]},{"term":"Pallor","organSystem":"Vascular disorders","sourceVocabulary":"NCI v3.0","assessmentType":"NON_SYSTEMATIC_ASSESSMENT","stats":[{"groupId":"EG000","numAffected":6,"numAtRisk":1797}]},{"term":"Inflammation","organSystem":"General disorders","sourceVocabulary":"NCI v3.0","assessmentType":"NON_SYSTEMATIC_ASSESSMENT","stats":[{"groupId":"EG000","numAffected":5,"numAtRisk":1797}]},{"term":"Opioid abuse","organSystem":"Social circumstances","sourceVocabulary":"NCI v3.0","assessmentType":"NON_SYSTEMATIC_ASSESSMENT","stats":[{"groupId":"EG000","numAffected":3,"numAtRisk":1797}]},{"term":"Rigors/chills","organSystem":"General disorders","sourceVocabulary":"NCI v3.0","assessmentType":"NON_SYSTEMATIC_ASSESSMENT","stats":[{"groupId":"EG000","numAffected":3,"numAtRisk":1797}]},{"term":"Drug abuser","organSystem":"Social circumstances","sourceVocabulary":"NCI v3.0","assessmentType":"NON_SYSTEMATIC_ASSESSMENT","stats":[{"groupId":"EG000","numAffected":1,"numAtRisk":1797}]},{"term":"Hypothermia","organSystem":"General disorders","sourceVocabulary":"NCI v3.0","assessmentType":"NON_SYSTEMATIC_ASSESSMENT","stats":[{"groupId":"EG000","numAffected":1,"numAtRisk":1797}]},{"term":"Weight gain","organSystem":"Investigations","sourceVocabulary":"NCI v3.0","assessmentType":"NON_SYSTEMATIC_ASSESSMENT","stats":[{"groupId":"EG000","numAffected":1,"numAtRisk":1797}]},{"term":"Alcohol poisoning","organSystem":"Injury, poisoning and procedural complications","sourceVocabulary":"NCI v3.0","assessmentType":"NON_SYSTEMATIC_ASSESSMENT","stats":[{"groupId":"EG000","numAffected":1,"numAtRisk":1797}]},{"term":"Rash","organSystem":"Skin and subcutaneous tissue disorders","sourceVocabulary":"NCI v3.0","assessmentType":"NON_SYSTEMATIC_ASSESSMENT","stats":[{"groupId":"EG000","numAffected":897,"numAtRisk":1797}]},{"term":"Dermatology/skin-other","organSystem":"Skin and subcutaneous tissue disorders","sourceVocabulary":"NCI v3.0","assessmentType":"NON_SYSTEMATIC_ASSESSMENT","stats":[{"groupId":"EG000","numAffected":307,"numAtRisk":1797}]},{"term":"Acne","organSystem":"Skin and subcutaneous tissue disorders","sourceVocabulary":"NCI v3.0","assessmentType":"NON_SYSTEMATIC_ASSESSMENT","stats":[{"groupId":"EG000","numAffected":152,"numAtRisk":1797}]},{"term":"Dry skin","organSystem":"Skin and subcutaneous tissue disorders","sourceVocabulary":"NCI v3.0","assessmentType":"NON_SYSTEMATIC_ASSESSMENT","stats":[{"groupId":"EG000","numAffected":137,"numAtRisk":1797}]},{"term":"Pruritus","organSystem":"Skin and subcutaneous tissue disorders","sourceVocabulary":"NCI v3.0","assessmentType":"NON_SYSTEMATIC_ASSESSMENT","stats":[{"groupId":"EG000","numAffected":95,"numAtRisk":1797}]},{"term":"Alopecia","organSystem":"Skin and subcutaneous tissue disorders","sourceVocabulary":"NCI v3.0","assessmentType":"NON_SYSTEMATIC_ASSESSMENT","stats":[{"groupId":"EG000","numAffected":92,"numAtRisk":1797}]},{"term":"Nail changes","organSystem":"Skin and subcutaneous tissue disorders","sourceVocabulary":"NCI v3.0","assessmentType":"NON_SYSTEMATIC_ASSESSMENT","stats":[{"groupId":"EG000","numAffected":71,"numAtRisk":1797}]},{"term":"Ulceration","organSystem":"Skin and subcutaneous tissue disorders","sourceVocabulary":"NCI v3.0","assessmentType":"NON_SYSTEMATIC_ASSESSMENT","stats":[{"groupId":"EG000","numAffected":15,"numAtRisk":1797}]},{"term":"Hand foot skin reaction","organSystem":"Skin and subcutaneous tissue disorders","sourceVocabulary":"NCI v3.0","assessmentType":"NON_SYSTEMATIC_ASSESSMENT","stats":[{"groupId":"EG000","numAffected":9,"numAtRisk":1797}]},{"term":"Decubitus ulcer","organSystem":"Skin and subcutaneous tissue disorders","sourceVocabulary":"NCI v3.0","assessmentType":"NON_SYSTEMATIC_ASSESSMENT","stats":[{"groupId":"EG000","numAffected":6,"numAtRisk":1797}]},{"term":"Hyperpigmentation","organSystem":"Skin and subcutaneous tissue disorders","sourceVocabulary":"NCI v3.0","assessmentType":"NON_SYSTEMATIC_ASSESSMENT","stats":[{"groupId":"EG000","numAffected":4,"numAtRisk":1797}]},{"term":"Flushing","organSystem":"Vascular disorders","sourceVocabulary":"NCI v3.0","assessmentType":"NON_SYSTEMATIC_ASSESSMENT","stats":[{"groupId":"EG000","numAffected":3,"numAtRisk":1797}]},{"term":"Burn","organSystem":"Injury, poisoning and procedural complications","sourceVocabulary":"NCI v3.0","assessmentType":"NON_SYSTEMATIC_ASSESSMENT","stats":[{"groupId":"EG000","numAffected":1,"numAtRisk":1797}]},{"term":"Telangiectasia","organSystem":"Skin and subcutaneous tissue disorders","sourceVocabulary":"NCI v3.0","assessmentType":"NON_SYSTEMATIC_ASSESSMENT","stats":[{"groupId":"EG000","numAffected":1,"numAtRisk":1797}]},{"term":"Cushingoid","organSystem":"Endocrine disorders","sourceVocabulary":"NCI v3.0","assessmentType":"NON_SYSTEMATIC_ASSESSMENT","stats":[{"groupId":"EG000","numAffected":6,"numAtRisk":1797}]},{"term":"ADH","organSystem":"Investigations","sourceVocabulary":"NCI v3.0","assessmentType":"NON_SYSTEMATIC_ASSESSMENT","stats":[{"groupId":"EG000","numAffected":1,"numAtRisk":1797}]},{"term":"Glucose intolerance","organSystem":"Metabolism and nutrition disorders","sourceVocabulary":"NCI v3.0","assessmentType":"NON_SYSTEMATIC_ASSESSMENT","stats":[{"groupId":"EG000","numAffected":1,"numAtRisk":1797}]},{"term":"Diarrhea","organSystem":"Gastrointestinal disorders","sourceVocabulary":"NCI v3.0","assessmentType":"NON_SYSTEMATIC_ASSESSMENT","stats":[{"groupId":"EG000","numAffected":631,"numAtRisk":1797}]},{"term":"Anorexia","organSystem":"Metabolism and nutrition disorders","sourceVocabulary":"NCI v3.0","assessmentType":"NON_SYSTEMATIC_ASSESSMENT","stats":[{"groupId":"EG000","numAffected":462,"numAtRisk":1797}]},{"term":"Vomiting","organSystem":"Gastrointestinal disorders","sourceVocabulary":"NCI v3.0","assessmentType":"NON_SYSTEMATIC_ASSESSMENT","stats":[{"groupId":"EG000","numAffected":204,"numAtRisk":1797}]},{"term":"Nausea","organSystem":"Gastrointestinal disorders","sourceVocabulary":"NCI v3.0","assessmentType":"NON_SYSTEMATIC_ASSESSMENT","stats":[{"groupId":"EG000","numAffected":196,"numAtRisk":1797}]},{"term":"Mucositis","organSystem":"Gastrointestinal disorders","sourceVocabulary":"NCI v3.0","assessmentType":"NON_SYSTEMATIC_ASSESSMENT","stats":[{"groupId":"EG000","numAffected":167,"numAtRisk":1797}]},{"term":"Constipation","organSystem":"Gastrointestinal disorders","sourceVocabulary":"NCI v3.0","assessmentType":"NON_SYSTEMATIC_ASSESSMENT","stats":[{"groupId":"EG000","numAffected":110,"numAtRisk":1797}]},{"term":"Dysphagia","organSystem":"Gastrointestinal disorders","sourceVocabulary":"NCI v3.0","assessmentType":"NON_SYSTEMATIC_ASSESSMENT","stats":[{"groupId":"EG000","numAffected":49,"numAtRisk":1797}]},{"term":"Dyspepsia/heartburn","organSystem":"Gastrointestinal disorders","sourceVocabulary":"NCI v3.0","assessmentType":"NON_SYSTEMATIC_ASSESSMENT","stats":[{"groupId":"EG000","numAffected":40,"numAtRisk":1797}]},{"term":"Xerostomia","organSystem":"Gastrointestinal disorders","sourceVocabulary":"NCI v3.0","assessmentType":"NON_SYSTEMATIC_ASSESSMENT","stats":[{"groupId":"EG000","numAffected":36,"numAtRisk":1797}]},{"term":"Gastrointestinal/other","organSystem":"Gastrointestinal disorders","sourceVocabulary":"NCI v3.0","assessmentType":"NON_SYSTEMATIC_ASSESSMENT","stats":[{"groupId":"EG000","numAffected":35,"numAtRisk":1797}]},{"term":"Dysgeusia","organSystem":"Nervous system disorders","sourceVocabulary":"NCI v3.0","assessmentType":"NON_SYSTEMATIC_ASSESSMENT","stats":[{"groupId":"EG000","numAffected":17,"numAtRisk":1797}]},{"term":"Hemorrhoids","organSystem":"Gastrointestinal disorders","sourceVocabulary":"NCI v3.0","assessmentType":"NON_SYSTEMATIC_ASSESSMENT","stats":[{"groupId":"EG000","numAffected":8,"numAtRisk":1797}]},{"term":"Incontinence, anal","organSystem":"Gastrointestinal disorders","sourceVocabulary":"NCI v3.0","assessmentType":"NON_SYSTEMATIC_ASSESSMENT","stats":[{"groupId":"EG000","numAffected":7,"numAtRisk":1797}]},{"term":"Distension","organSystem":"Gastrointestinal disorders","sourceVocabulary":"NCI v3.0","assessmentType":"NON_SYSTEMATIC_ASSESSMENT","stats":[{"groupId":"EG000","numAffected":6,"numAtRisk":1797}]},{"term":"Flatulence","organSystem":"Gastrointestinal disorders","sourceVocabulary":"NCI v3.0","assessmentType":"NON_SYSTEMATIC_ASSESSMENT","stats":[{"groupId":"EG000","numAffected":5,"numAtRisk":1797}]},{"term":"Ileus GI","organSystem":"Gastrointestinal disorders","sourceVocabulary":"NCI v3.0","assessmentType":"NON_SYSTEMATIC_ASSESSMENT","stats":[{"groupId":"EG000","numAffected":5,"numAtRisk":1797}]},{"term":"Dehydration","organSystem":"Metabolism and nutrition disorders","sourceVocabulary":"NCI v3.0","assessmentType":"NON_SYSTEMATIC_ASSESSMENT","stats":[{"groupId":"EG000","numAffected":4,"numAtRisk":1797}]},{"term":"Esophagitis","organSystem":"Gastrointestinal disorders","sourceVocabulary":"NCI v3.0","assessmentType":"NON_SYSTEMATIC_ASSESSMENT","stats":[{"groupId":"EG000","numAffected":4,"numAtRisk":1797}]},{"term":"Enteritis","organSystem":"Gastrointestinal disorders","sourceVocabulary":"NCI v3.0","assessmentType":"NON_SYSTEMATIC_ASSESSMENT","stats":[{"groupId":"EG000","numAffected":2,"numAtRisk":1797}]},{"term":"Intestinal perforation","organSystem":"Gastrointestinal disorders","sourceVocabulary":"NCI v3.0","assessmentType":"NON_SYSTEMATIC_ASSESSMENT","stats":[{"groupId":"EG000","numAffected":2,"numAtRisk":1797}]},{"term":"Taste Alteration (dysgeusia)","organSystem":"Nervous system disorders","sourceVocabulary":"NCI v3.0","assessmentType":"NON_SYSTEMATIC_ASSESSMENT","stats":[{"groupId":"EG000","numAffected":1,"numAtRisk":1797}]},{"term":"Anal fistula","organSystem":"Gastrointestinal disorders","sourceVocabulary":"NCI v3.0","assessmentType":"NON_SYSTEMATIC_ASSESSMENT","stats":[{"groupId":"EG000","numAffected":1,"numAtRisk":1797}]},{"term":"Obstruction/GU","organSystem":"Gastrointestinal disorders","sourceVocabulary":"NCI v3.0","assessmentType":"NON_SYSTEMATIC_ASSESSMENT","stats":[{"groupId":"EG000","numAffected":1,"numAtRisk":1797}]},{"term":"Tooth disorder","organSystem":"Gastrointestinal disorders","sourceVocabulary":"NCI v3.0","assessmentType":"NON_SYSTEMATIC_ASSESSMENT","stats":[{"groupId":"EG000","numAffected":1,"numAtRisk":1797}]},{"term":"Bronchopulmonary hemorrhage","organSystem":"Respiratory, thoracic and mediastinal disorders","sourceVocabulary":"NCI v3.0","assessmentType":"NON_SYSTEMATIC_ASSESSMENT","stats":[{"groupId":"EG000","numAffected":167,"numAtRisk":1797}]},{"term":"Hemorrhage/GI","organSystem":"Gastrointestinal disorders","sourceVocabulary":"NCI v3.0","assessmentType":"NON_SYSTEMATIC_ASSESSMENT","stats":[{"groupId":"EG000","numAffected":43,"numAtRisk":1797}]},{"term":"Hemorrhage/GU","organSystem":"Renal and urinary disorders","sourceVocabulary":"NCI v3.0","assessmentType":"NON_SYSTEMATIC_ASSESSMENT","stats":[{"groupId":"EG000","numAffected":14,"numAtRisk":1797}]},{"term":"Petechiae","organSystem":"Skin and subcutaneous tissue disorders","sourceVocabulary":"NCI v3.0","assessmentType":"NON_SYSTEMATIC_ASSESSMENT","stats":[{"groupId":"EG000","numAffected":6,"numAtRisk":1797}]},{"term":"Hemorrhage/other","organSystem":"General disorders","sourceVocabulary":"NCI v3.0","assessmentType":"NON_SYSTEMATIC_ASSESSMENT","stats":[{"groupId":"EG000","numAffected":3,"numAtRisk":1797}]},{"term":"Liver dysfunction","organSystem":"Hepatobiliary disorders","sourceVocabulary":"NCI v3.0","assessmentType":"NON_SYSTEMATIC_ASSESSMENT","stats":[{"groupId":"EG000","numAffected":10,"numAtRisk":1797}]},{"term":"Hepatobiliary/other","organSystem":"Hepatobiliary disorders","sourceVocabulary":"NCI v3.0","assessmentType":"NON_SYSTEMATIC_ASSESSMENT","stats":[{"groupId":"EG000","numAffected":6,"numAtRisk":1797}]},{"term":"Cholecystitis","organSystem":"Hepatobiliary disorders","sourceVocabulary":"NCI v3.0","assessmentType":"NON_SYSTEMATIC_ASSESSMENT","stats":[{"groupId":"EG000","numAffected":1,"numAtRisk":1797}]},{"term":"Hepatic cysts","organSystem":"Hepatobiliary disorders","sourceVocabulary":"NCI v3.0","assessmentType":"NON_SYSTEMATIC_ASSESSMENT","stats":[{"groupId":"EG000","numAffected":1,"numAtRisk":1797}]},{"term":"Infection NOS","organSystem":"Infections and infestations","sourceVocabulary":"NCI v3.0","assessmentType":"NON_SYSTEMATIC_ASSESSMENT","stats":[{"groupId":"EG000","numAffected":148,"numAtRisk":1797}]},{"term":"Infection - conjunctiva","organSystem":"Infections and infestations","sourceVocabulary":"NCI v3.0","assessmentType":"NON_SYSTEMATIC_ASSESSMENT","stats":[{"groupId":"EG000","numAffected":108,"numAtRisk":1797}]},{"term":"Infection - lung (pneumonia)","organSystem":"Infections and infestations","sourceVocabulary":"NCI v3.0","assessmentType":"NON_SYSTEMATIC_ASSESSMENT","stats":[{"groupId":"EG000","numAffected":51,"numAtRisk":1797}]},{"term":"Infection - ungual (nail)","organSystem":"Infections and infestations","sourceVocabulary":"NCI v3.0","assessmentType":"NON_SYSTEMATIC_ASSESSMENT","stats":[{"groupId":"EG000","numAffected":51,"numAtRisk":1797}]},{"term":"Infection - urinary tract nos","organSystem":"Infections and infestations","sourceVocabulary":"NCI v3.0","assessmentType":"NON_SYSTEMATIC_ASSESSMENT","stats":[{"groupId":"EG000","numAffected":31,"numAtRisk":1797}]},{"term":"Infection - skin (cellulitis)","organSystem":"Infections and infestations","sourceVocabulary":"NCI v3.0","assessmentType":"NON_SYSTEMATIC_ASSESSMENT","stats":[{"groupId":"EG000","numAffected":29,"numAtRisk":1797}]},{"term":"Infection - bronchus","organSystem":"Infections and infestations","sourceVocabulary":"NCI v3.0","assessmentType":"NON_SYSTEMATIC_ASSESSMENT","stats":[{"groupId":"EG000","numAffected":18,"numAtRisk":1797}]},{"term":"Infection - eye nos","organSystem":"Infections and infestations","sourceVocabulary":"NCI v3.0","assessmentType":"NON_SYSTEMATIC_ASSESSMENT","stats":[{"groupId":"EG000","numAffected":17,"numAtRisk":1797}]},{"term":"Infection - soft tissue nos","organSystem":"Infections and infestations","sourceVocabulary":"NCI v3.0","assessmentType":"NON_SYSTEMATIC_ASSESSMENT","stats":[{"groupId":"EG000","numAffected":13,"numAtRisk":1797}]},{"term":"Infection - upper aerodigestive nos","organSystem":"Infections and infestations","sourceVocabulary":"NCI v3.0","assessmentType":"NON_SYSTEMATIC_ASSESSMENT","stats":[{"groupId":"EG000","numAffected":13,"numAtRisk":1797}]},{"term":"Infection - pharynx","organSystem":"Infections and infestations","sourceVocabulary":"NCI v3.0","assessmentType":"NON_SYSTEMATIC_ASSESSMENT","stats":[{"groupId":"EG000","numAffected":9,"numAtRisk":1797}]},{"term":"Infection - blood","organSystem":"Infections and infestations","sourceVocabulary":"NCI v3.0","assessmentType":"NON_SYSTEMATIC_ASSESSMENT","stats":[{"groupId":"EG000","numAffected":8,"numAtRisk":1797}]},{"term":"Infection - lip/perioral","organSystem":"Infections and infestations","sourceVocabulary":"NCI v3.0","assessmentType":"NON_SYSTEMATIC_ASSESSMENT","stats":[{"groupId":"EG000","numAffected":7,"numAtRisk":1797}]},{"term":"Infection - anal/perianal","organSystem":"Infections and infestations","sourceVocabulary":"NCI v3.0","assessmentType":"NON_SYSTEMATIC_ASSESSMENT","stats":[{"groupId":"EG000","numAffected":5,"numAtRisk":1797}]},{"term":"Infection - upper airway nos","organSystem":"Infections and infestations","sourceVocabulary":"NCI v3.0","assessmentType":"NON_SYSTEMATIC_ASSESSMENT","stats":[{"groupId":"EG000","numAffected":4,"numAtRisk":1797}]},{"term":"Tooth infection","organSystem":"Infections and infestations","sourceVocabulary":"NCI v3.0","assessmentType":"NON_SYSTEMATIC_ASSESSMENT","stats":[{"groupId":"EG000","numAffected":4,"numAtRisk":1797}]},{"term":"Infection - vagina","organSystem":"Infections and infestations","sourceVocabulary":"NCI v3.0","assessmentType":"NON_SYSTEMATIC_ASSESSMENT","stats":[{"groupId":"EG000","numAffected":3,"numAtRisk":1797}]},{"term":"Infection - auditory ear","organSystem":"Infections and infestations","sourceVocabulary":"NCI v3.0","assessmentType":"NON_SYSTEMATIC_ASSESSMENT","stats":[{"groupId":"EG000","numAffected":3,"numAtRisk":1797}]},{"term":"Febrile neutropenia","organSystem":"Blood and lymphatic system disorders","sourceVocabulary":"NCI v3.0","assessmentType":"NON_SYSTEMATIC_ASSESSMENT","stats":[{"groupId":"EG000","numAffected":2,"numAtRisk":1797}]},{"term":"Gallbladder infection","organSystem":"Infections and infestations","sourceVocabulary":"NCI v3.0","assessmentType":"NON_SYSTEMATIC_ASSESSMENT","stats":[{"groupId":"EG000","numAffected":2,"numAtRisk":1797}]},{"term":"Infection - brain (encephalitis, infectious)","organSystem":"Infections and infestations","sourceVocabulary":"NCI v3.0","assessmentType":"NON_SYSTEMATIC_ASSESSMENT","stats":[{"groupId":"EG000","numAffected":2,"numAtRisk":1797}]},{"term":"Infection - sinus","organSystem":"Infections and infestations","sourceVocabulary":"NCI v3.0","assessmentType":"NON_SYSTEMATIC_ASSESSMENT","stats":[{"groupId":"EG000","numAffected":2,"numAtRisk":1797}]},{"term":"Infection - bone (osteomyelitis)","organSystem":"Infections and infestations","sourceVocabulary":"NCI v3.0","assessmentType":"NON_SYSTEMATIC_ASSESSMENT","stats":[{"groupId":"EG000","numAffected":1,"numAtRisk":1797}]},{"term":"Infection - kidney","organSystem":"Infections and infestations","sourceVocabulary":"NCI v3.0","assessmentType":"NON_SYSTEMATIC_ASSESSMENT","stats":[{"groupId":"EG000","numAffected":1,"numAtRisk":1797}]},{"term":"Infection - liver","organSystem":"Infections and infestations","sourceVocabulary":"NCI v3.0","assessmentType":"NON_SYSTEMATIC_ASSESSMENT","stats":[{"groupId":"EG000","numAffected":1,"numAtRisk":1797}]},{"term":"Infection - salivary gland","organSystem":"Infections and infestations","sourceVocabulary":"NCI v3.0","assessmentType":"NON_SYSTEMATIC_ASSESSMENT","stats":[{"groupId":"EG000","numAffected":1,"numAtRisk":1797}]},{"term":"Infection - dental-tooth","organSystem":"Infections and infestations","sourceVocabulary":"NCI v3.0","assessmentType":"NON_SYSTEMATIC_ASSESSMENT","stats":[{"groupId":"EG000","numAffected":1,"numAtRisk":1797}]},{"term":"Infection - peritoneal cavity","organSystem":"Infections and infestations","sourceVocabulary":"NCI v3.0","assessmentType":"NON_SYSTEMATIC_ASSESSMENT","stats":[{"groupId":"EG000","numAffected":1,"numAtRisk":1797}]},{"term":"Infection - wound","organSystem":"Infections and infestations","sourceVocabulary":"NCI v3.0","assessmentType":"NON_SYSTEMATIC_ASSESSMENT","stats":[{"groupId":"EG000","numAffected":1,"numAtRisk":1797}]},{"term":"Infection - appendix","organSystem":"Infections and infestations","sourceVocabulary":"NCI v3.0","assessmentType":"NON_SYSTEMATIC_ASSESSMENT","stats":[{"groupId":"EG000","numAffected":1,"numAtRisk":1797}]},{"term":"Infection - catheter-related","organSystem":"Infections and infestations","sourceVocabulary":"NCI v3.0","assessmentType":"NON_SYSTEMATIC_ASSESSMENT","stats":[{"groupId":"EG000","numAffected":1,"numAtRisk":1797}]},{"term":"Infection - colon","organSystem":"Infections and infestations","sourceVocabulary":"NCI v3.0","assessmentType":"NON_SYSTEMATIC_ASSESSMENT","stats":[{"groupId":"EG000","numAffected":1,"numAtRisk":1797}]},{"term":"Infection - vulva","organSystem":"Infections and infestations","sourceVocabulary":"NCI v3.0","assessmentType":"NON_SYSTEMATIC_ASSESSMENT","stats":[{"groupId":"EG000","numAffected":1,"numAtRisk":1797}]},{"term":"Edema limb","organSystem":"General disorders","sourceVocabulary":"NCI v3.0","assessmentType":"NON_SYSTEMATIC_ASSESSMENT","stats":[{"groupId":"EG000","numAffected":80,"numAtRisk":1797}]},{"term":"Edema","organSystem":"General disorders","sourceVocabulary":"NCI v3.0","assessmentType":"NON_SYSTEMATIC_ASSESSMENT","stats":[{"groupId":"EG000","numAffected":33,"numAtRisk":1797}]},{"term":"Edema head and neck","organSystem":"General disorders","sourceVocabulary":"NCI v3.0","assessmentType":"NON_SYSTEMATIC_ASSESSMENT","stats":[{"groupId":"EG000","numAffected":12,"numAtRisk":1797}]},{"term":"Lymphatic/other","organSystem":"General disorders","sourceVocabulary":"NCI v3.0","assessmentType":"NON_SYSTEMATIC_ASSESSMENT","stats":[{"groupId":"EG000","numAffected":2,"numAtRisk":1797}]},{"term":"Bilirubin","organSystem":"Investigations","sourceVocabulary":"NCI v3.0","assessmentType":"NON_SYSTEMATIC_ASSESSMENT","stats":[{"groupId":"EG000","numAffected":23,"numAtRisk":1797}]},{"term":"Hyperglycemia","organSystem":"Metabolism and nutrition disorders","sourceVocabulary":"NCI v3.0","assessmentType":"NON_SYSTEMATIC_ASSESSMENT","stats":[{"groupId":"EG000","numAffected":17,"numAtRisk":1797}]},{"term":"ALT","organSystem":"Investigations","sourceVocabulary":"NCI v3.0","assessmentType":"NON_SYSTEMATIC_ASSESSMENT","stats":[{"groupId":"EG000","numAffected":14,"numAtRisk":1797}]},{"term":"AST","organSystem":"Investigations","sourceVocabulary":"NCI v3.0","assessmentType":"NON_SYSTEMATIC_ASSESSMENT","stats":[{"groupId":"EG000","numAffected":14,"numAtRisk":1797}]},{"term":"Alkaline phosphatase","organSystem":"Investigations","sourceVocabulary":"NCI v3.0","assessmentType":"NON_SYSTEMATIC_ASSESSMENT","stats":[{"groupId":"EG000","numAffected":11,"numAtRisk":1797}]},{"term":"Hypercalcemia","organSystem":"Metabolism and nutrition disorders","sourceVocabulary":"NCI v3.0","assessmentType":"NON_SYSTEMATIC_ASSESSMENT","stats":[{"groupId":"EG000","numAffected":11,"numAtRisk":1797}]},{"term":"GGT","organSystem":"Investigations","sourceVocabulary":"NCI v3.0","assessmentType":"NON_SYSTEMATIC_ASSESSMENT","stats":[{"groupId":"EG000","numAffected":10,"numAtRisk":1797}]},{"term":"Hyperkalemia","organSystem":"Metabolism and nutrition disorders","sourceVocabulary":"NCI v3.0","assessmentType":"NON_SYSTEMATIC_ASSESSMENT","stats":[{"groupId":"EG000","numAffected":9,"numAtRisk":1797}]},{"term":"Hypocalcemia","organSystem":"Metabolism and nutrition disorders","sourceVocabulary":"NCI v3.0","assessmentType":"NON_SYSTEMATIC_ASSESSMENT","stats":[{"groupId":"EG000","numAffected":8,"numAtRisk":1797}]},{"term":"Hyponatremia","organSystem":"Metabolism and nutrition disorders","sourceVocabulary":"NCI v3.0","assessmentType":"NON_SYSTEMATIC_ASSESSMENT","stats":[{"groupId":"EG000","numAffected":7,"numAtRisk":1797}]},{"term":"Metabolic lab/other","organSystem":"Metabolism and nutrition disorders","sourceVocabulary":"NCI v3.0","assessmentType":"NON_SYSTEMATIC_ASSESSMENT","stats":[{"groupId":"EG000","numAffected":6,"numAtRisk":1797}]},{"term":"Hyperuricemia","organSystem":"Metabolism and nutrition disorders","sourceVocabulary":"NCI v3.0","assessmentType":"NON_SYSTEMATIC_ASSESSMENT","stats":[{"groupId":"EG000","numAffected":5,"numAtRisk":1797}]},{"term":"Hypercholesterolemia","organSystem":"Investigations","sourceVocabulary":"NCI v3.0","assessmentType":"NON_SYSTEMATIC_ASSESSMENT","stats":[{"groupId":"EG000","numAffected":4,"numAtRisk":1797}]},{"term":"Hypoalbuminemia","organSystem":"Metabolism and nutrition disorders","sourceVocabulary":"NCI v3.0","assessmentType":"NON_SYSTEMATIC_ASSESSMENT","stats":[{"groupId":"EG000","numAffected":4,"numAtRisk":1797}]},{"term":"Hypokalemia","organSystem":"Metabolism and nutrition disorders","sourceVocabulary":"NCI v3.0","assessmentType":"NON_SYSTEMATIC_ASSESSMENT","stats":[{"groupId":"EG000","numAffected":3,"numAtRisk":1797}]},{"term":"Hypoglycemia","organSystem":"Metabolism and nutrition disorders","sourceVocabulary":"NCI v3.0","assessmentType":"NON_SYSTEMATIC_ASSESSMENT","stats":[{"groupId":"EG000","numAffected":2,"numAtRisk":1797}]},{"term":"Acidosis","organSystem":"Metabolism and nutrition disorders","sourceVocabulary":"NCI v3.0","assessmentType":"NON_SYSTEMATIC_ASSESSMENT","stats":[{"groupId":"EG000","numAffected":1,"numAtRisk":1797}]},{"term":"Amylase","organSystem":"Investigations","sourceVocabulary":"NCI v3.0","assessmentType":"NON_SYSTEMATIC_ASSESSMENT","stats":[{"groupId":"EG000","numAffected":1,"numAtRisk":1797}]},{"term":"Hypernatremia","organSystem":"Metabolism and nutrition disorders","sourceVocabulary":"NCI v3.0","assessmentType":"NON_SYSTEMATIC_ASSESSMENT","stats":[{"groupId":"EG000","numAffected":1,"numAtRisk":1797}]},{"term":"CPK","organSystem":"Investigations","sourceVocabulary":"NCI v3.0","assessmentType":"NON_SYSTEMATIC_ASSESSMENT","stats":[{"groupId":"EG000","numAffected":1,"numAtRisk":1797}]},{"term":"Hypomagnesemia","organSystem":"Metabolism and nutrition disorders","sourceVocabulary":"NCI v3.0","assessmentType":"NON_SYSTEMATIC_ASSESSMENT","stats":[{"groupId":"EG000","numAffected":1,"numAtRisk":1797}]},{"term":"Hypophosphatemia","organSystem":"Metabolism and nutrition disorders","sourceVocabulary":"NCI v3.0","assessmentType":"NON_SYSTEMATIC_ASSESSMENT","stats":[{"groupId":"EG000","numAffected":1,"numAtRisk":1797}]},{"term":"Alkalosis","organSystem":"Metabolism and nutrition disorders","sourceVocabulary":"NCI v3.0","assessmentType":"NON_SYSTEMATIC_ASSESSMENT","stats":[{"groupId":"EG000","numAffected":1,"numAtRisk":1797}]},{"term":"Hypertriglyceridemia","organSystem":"Metabolism and nutrition disorders","sourceVocabulary":"NCI v3.0","assessmentType":"NON_SYSTEMATIC_ASSESSMENT","stats":[{"groupId":"EG000","numAffected":1,"numAtRisk":1797}]},{"term":"Musculoskeletal/other","organSystem":"Musculoskeletal and connective tissue disorders","sourceVocabulary":"NCI v3.0","assessmentType":"NON_SYSTEMATIC_ASSESSMENT","stats":[{"groupId":"EG000","numAffected":77,"numAtRisk":1797}]},{"term":"Muscle weakness","organSystem":"Musculoskeletal and connective tissue disorders","sourceVocabulary":"NCI v3.0","assessmentType":"NON_SYSTEMATIC_ASSESSMENT","stats":[{"groupId":"EG000","numAffected":24,"numAtRisk":1797}]},{"term":"Fracture","organSystem":"Injury, poisoning and procedural complications","sourceVocabulary":"NCI v3.0","assessmentType":"NON_SYSTEMATIC_ASSESSMENT","stats":[{"groupId":"EG000","numAffected":12,"numAtRisk":1797}]},{"term":"Ascites","organSystem":"Gastrointestinal disorders","sourceVocabulary":"NCI v3.0","assessmentType":"NON_SYSTEMATIC_ASSESSMENT","stats":[{"groupId":"EG000","numAffected":10,"numAtRisk":1797}]},{"term":"Gait","organSystem":"General disorders","sourceVocabulary":"NCI v3.0","assessmentType":"NON_SYSTEMATIC_ASSESSMENT","stats":[{"groupId":"EG000","numAffected":8,"numAtRisk":1797}]},{"term":"Arthritis","organSystem":"Musculoskeletal and connective tissue disorders","sourceVocabulary":"NCI v3.0","assessmentType":"NON_SYSTEMATIC_ASSESSMENT","stats":[{"groupId":"EG000","numAffected":6,"numAtRisk":1797}]},{"term":"Osteonecrosis","organSystem":"Musculoskeletal and connective tissue disorders","sourceVocabulary":"NCI v3.0","assessmentType":"NON_SYSTEMATIC_ASSESSMENT","stats":[{"groupId":"EG000","numAffected":1,"numAtRisk":1797}]},{"term":"Myositis","organSystem":"Musculoskeletal and connective tissue disorders","sourceVocabulary":"NCI v3.0","assessmentType":"NON_SYSTEMATIC_ASSESSMENT","stats":[{"groupId":"EG000","numAffected":1,"numAtRisk":1797}]},{"term":"Trismus","organSystem":"Musculoskeletal and connective tissue disorders","sourceVocabulary":"NCI v3.0","assessmentType":"NON_SYSTEMATIC_ASSESSMENT","stats":[{"groupId":"EG000","numAffected":1,"numAtRisk":1797}]},{"term":"Dizziness","organSystem":"Nervous system disorders","sourceVocabulary":"NCI v3.0","assessmentType":"NON_SYSTEMATIC_ASSESSMENT","stats":[{"groupId":"EG000","numAffected":94,"numAtRisk":1797}]},{"term":"Neuropathy/sensory","organSystem":"Nervous system disorders","sourceVocabulary":"NCI v3.0","assessmentType":"NON_SYSTEMATIC_ASSESSMENT","stats":[{"groupId":"EG000","numAffected":74,"numAtRisk":1797}]},{"term":"Ataxia","organSystem":"Nervous system disorders","sourceVocabulary":"NCI v3.0","assessmentType":"NON_SYSTEMATIC_ASSESSMENT","stats":[{"groupId":"EG000","numAffected":57,"numAtRisk":1797}]},{"term":"Confusion","organSystem":"Psychiatric disorders","sourceVocabulary":"NCI v3.0","assessmentType":"NON_SYSTEMATIC_ASSESSMENT","stats":[{"groupId":"EG000","numAffected":55,"numAtRisk":1797}]},{"term":"Neurology/other","organSystem":"Nervous system disorders","sourceVocabulary":"NCI v3.0","assessmentType":"NON_SYSTEMATIC_ASSESSMENT","stats":[{"groupId":"EG000","numAffected":53,"numAtRisk":1797}]},{"term":"Mood alteration-anxiety","organSystem":"Psychiatric disorders","sourceVocabulary":"NCI v3.0","assessmentType":"NON_SYSTEMATIC_ASSESSMENT","stats":[{"groupId":"EG000","numAffected":51,"numAtRisk":1797}]},{"term":"Mood alteration-depression","organSystem":"Psychiatric disorders","sourceVocabulary":"NCI v3.0","assessmentType":"NON_SYSTEMATIC_ASSESSMENT","stats":[{"groupId":"EG000","numAffected":45,"numAtRisk":1797}]},{"term":"Neuropathy/motor","organSystem":"Nervous system disorders","sourceVocabulary":"NCI v3.0","assessmentType":"NON_SYSTEMATIC_ASSESSMENT","stats":[{"groupId":"EG000","numAffected":38,"numAtRisk":1797}]},{"term":"Somnolence","organSystem":"Nervous system disorders","sourceVocabulary":"NCI v3.0","assessmentType":"NON_SYSTEMATIC_ASSESSMENT","stats":[{"groupId":"EG000","numAffected":38,"numAtRisk":1797}]},{"term":"Cognitive disturbance","organSystem":"Nervous system disorders","sourceVocabulary":"NCI v3.0","assessmentType":"NON_SYSTEMATIC_ASSESSMENT","stats":[{"groupId":"EG000","numAffected":28,"numAtRisk":1797}]},{"term":"Speech impairment","organSystem":"Nervous system disorders","sourceVocabulary":"NCI v3.0","assessmentType":"NON_SYSTEMATIC_ASSESSMENT","stats":[{"groupId":"EG000","numAffected":27,"numAtRisk":1797}]},{"term":"Mood alteration-agitation","organSystem":"Psychiatric disorders","sourceVocabulary":"NCI v3.0","assessmentType":"NON_SYSTEMATIC_ASSESSMENT","stats":[{"groupId":"EG000","numAffected":23,"numAtRisk":1797}]},{"term":"CNS ischemia","organSystem":"Nervous system disorders","sourceVocabulary":"NCI v3.0","assessmentType":"NON_SYSTEMATIC_ASSESSMENT","stats":[{"groupId":"EG000","numAffected":16,"numAtRisk":1797}]},{"term":"Tremor","organSystem":"Nervous system disorders","sourceVocabulary":"NCI v3.0","assessmentType":"NON_SYSTEMATIC_ASSESSMENT","stats":[{"groupId":"EG000","numAffected":16,"numAtRisk":1797}]},{"term":"Syncope","organSystem":"Nervous system disorders","sourceVocabulary":"NCI v3.0","assessmentType":"NON_SYSTEMATIC_ASSESSMENT","stats":[{"groupId":"EG000","numAffected":15,"numAtRisk":1797}]},{"term":"Seizures","organSystem":"Nervous system disorders","sourceVocabulary":"NCI v3.0","assessmentType":"NON_SYSTEMATIC_ASSESSMENT","stats":[{"groupId":"EG000","numAffected":15,"numAtRisk":1797}]},{"term":"Mood alteration","organSystem":"Psychiatric disorders","sourceVocabulary":"NCI v3.0","assessmentType":"NON_SYSTEMATIC_ASSESSMENT","stats":[{"groupId":"EG000","numAffected":14,"numAtRisk":1797}]},{"term":"Memory impairment","organSystem":"Nervous system disorders","sourceVocabulary":"NCI v3.0","assessmentType":"NON_SYSTEMATIC_ASSESSMENT","stats":[{"groupId":"EG000","numAffected":11,"numAtRisk":1797}]},{"term":"Psychosis","organSystem":"Psychiatric disorders","sourceVocabulary":"NCI v3.0","assessmentType":"NON_SYSTEMATIC_ASSESSMENT","stats":[{"groupId":"EG000","numAffected":7,"numAtRisk":1797}]},{"term":"Involuntary movement","organSystem":"Nervous system disorders","sourceVocabulary":"NCI v3.0","assessmentType":"NON_SYSTEMATIC_ASSESSMENT","stats":[{"groupId":"EG000","numAffected":6,"numAtRisk":1797}]},{"term":"Encephalopathy","organSystem":"Nervous system disorders","sourceVocabulary":"NCI v3.0","assessmentType":"NON_SYSTEMATIC_ASSESSMENT","stats":[{"groupId":"EG000","numAffected":5,"numAtRisk":1797}]},{"term":"Neuropathy cranial","organSystem":"Nervous system disorders","sourceVocabulary":"NCI v3.0","assessmentType":"NON_SYSTEMATIC_ASSESSMENT","stats":[{"groupId":"EG000","numAffected":5,"numAtRisk":1797}]},{"term":"Mood alteration-depression-anxiety","organSystem":"Psychiatric disorders","sourceVocabulary":"NCI v3.0","assessmentType":"NON_SYSTEMATIC_ASSESSMENT","stats":[{"groupId":"EG000","numAffected":4,"numAtRisk":1797}]},{"term":"Blurred vision","organSystem":"Eye disorders","sourceVocabulary":"NCI v3.0","assessmentType":"NON_SYSTEMATIC_ASSESSMENT","stats":[{"groupId":"EG000","numAffected":3,"numAtRisk":1797}]},{"term":"Extrapyramidal disorder","organSystem":"Nervous system disorders","sourceVocabulary":"NCI v3.0","assessmentType":"NON_SYSTEMATIC_ASSESSMENT","stats":[{"groupId":"EG000","numAffected":1,"numAtRisk":1797}]},{"term":"Seizure","organSystem":"Nervous system disorders","sourceVocabulary":"NCI v3.0","assessmentType":"NON_SYSTEMATIC_ASSESSMENT","stats":[{"groupId":"EG000","numAffected":1,"numAtRisk":1797}]},{"term":"Eye disorder","organSystem":"Eye disorders","sourceVocabulary":"NCI v3.0","assessmentType":"NON_SYSTEMATIC_ASSESSMENT","stats":[{"groupId":"EG000","numAffected":48,"numAtRisk":1797}]},{"term":"Watery eye","organSystem":"Eye disorders","sourceVocabulary":"NCI v3.0","assessmentType":"NON_SYSTEMATIC_ASSESSMENT","stats":[{"groupId":"EG000","numAffected":7,"numAtRisk":1797}]},{"term":"Dry eye","organSystem":"Eye disorders","sourceVocabulary":"NCI v3.0","assessmentType":"NON_SYSTEMATIC_ASSESSMENT","stats":[{"groupId":"EG000","numAffected":6,"numAtRisk":1797}]},{"term":"Diplopia","organSystem":"Eye disorders","sourceVocabulary":"NCI v3.0","assessmentType":"NON_SYSTEMATIC_ASSESSMENT","stats":[{"groupId":"EG000","numAffected":5,"numAtRisk":1797}]},{"term":"Keratitis","organSystem":"Eye disorders","sourceVocabulary":"NCI v3.0","assessmentType":"NON_SYSTEMATIC_ASSESSMENT","stats":[{"groupId":"EG000","numAffected":3,"numAtRisk":1797}]},{"term":"Cataract","organSystem":"Eye disorders","sourceVocabulary":"NCI v3.0","assessmentType":"NON_SYSTEMATIC_ASSESSMENT","stats":[{"groupId":"EG000","numAffected":2,"numAtRisk":1797}]},{"term":"Vision-flashing lights/floaters","organSystem":"Eye disorders","sourceVocabulary":"NCI v3.0","assessmentType":"NON_SYSTEMATIC_ASSESSMENT","stats":[{"groupId":"EG000","numAffected":1,"numAtRisk":1797}]},{"term":"Pain nos","organSystem":"General disorders","sourceVocabulary":"NCI v3.0","assessmentType":"NON_SYSTEMATIC_ASSESSMENT","stats":[{"groupId":"EG000","numAffected":229,"numAtRisk":1797}]},{"term":"Pain - chest wall","organSystem":"Musculoskeletal and connective tissue disorders","sourceVocabulary":"NCI v3.0","assessmentType":"NON_SYSTEMATIC_ASSESSMENT","stats":[{"groupId":"EG000","numAffected":211,"numAtRisk":1797}]},{"term":"Pain - muscle","organSystem":"Musculoskeletal and connective tissue disorders","sourceVocabulary":"NCI v3.0","assessmentType":"NON_SYSTEMATIC_ASSESSMENT","stats":[{"groupId":"EG000","numAffected":139,"numAtRisk":1797}]},{"term":"Pain - abdomen nos","organSystem":"Gastrointestinal disorders","sourceVocabulary":"NCI v3.0","assessmentType":"NON_SYSTEMATIC_ASSESSMENT","stats":[{"groupId":"EG000","numAffected":108,"numAtRisk":1797}]},{"term":"Pain - headache","organSystem":"Nervous system disorders","sourceVocabulary":"NCI v3.0","assessmentType":"NON_SYSTEMATIC_ASSESSMENT","stats":[{"groupId":"EG000","numAffected":97,"numAtRisk":1797}]},{"term":"Pain - joint","organSystem":"Musculoskeletal and connective tissue disorders","sourceVocabulary":"NCI v3.0","assessmentType":"NON_SYSTEMATIC_ASSESSMENT","stats":[{"groupId":"EG000","numAffected":95,"numAtRisk":1797}]},{"term":"Pain - bone","organSystem":"Musculoskeletal and connective tissue disorders","sourceVocabulary":"NCI v3.0","assessmentType":"NON_SYSTEMATIC_ASSESSMENT","stats":[{"groupId":"EG000","numAffected":78,"numAtRisk":1797}]},{"term":"Pain - limb","organSystem":"Musculoskeletal and connective tissue disorders","sourceVocabulary":"NCI v3.0","assessmentType":"NON_SYSTEMATIC_ASSESSMENT","stats":[{"groupId":"EG000","numAffected":51,"numAtRisk":1797}]},{"term":"Pain - pleura","organSystem":"Respiratory, thoracic and mediastinal disorders","sourceVocabulary":"NCI v3.0","assessmentType":"NON_SYSTEMATIC_ASSESSMENT","stats":[{"groupId":"EG000","numAffected":25,"numAtRisk":1797}]},{"term":"Pain - neck","organSystem":"Musculoskeletal and connective tissue disorders","sourceVocabulary":"NCI v3.0","assessmentType":"NON_SYSTEMATIC_ASSESSMENT","stats":[{"groupId":"EG000","numAffected":21,"numAtRisk":1797}]},{"term":"Pain - neuralgia/peripheral nerve","organSystem":"Nervous system disorders","sourceVocabulary":"NCI v3.0","assessmentType":"NON_SYSTEMATIC_ASSESSMENT","stats":[{"groupId":"EG000","numAffected":18,"numAtRisk":1797}]},{"term":"Pain - liver","organSystem":"Hepatobiliary disorders","sourceVocabulary":"NCI v3.0","assessmentType":"NON_SYSTEMATIC_ASSESSMENT","stats":[{"groupId":"EG000","numAffected":8,"numAtRisk":1797}]},{"term":"Pain - eye","organSystem":"Eye disorders","sourceVocabulary":"NCI v3.0","assessmentType":"NON_SYSTEMATIC_ASSESSMENT","stats":[{"groupId":"EG000","numAffected":5,"numAtRisk":1797}]},{"term":"Pain - throat/pharynx/larynx","organSystem":"Respiratory, thoracic and mediastinal disorders","sourceVocabulary":"NCI v3.0","assessmentType":"NON_SYSTEMATIC_ASSESSMENT","stats":[{"groupId":"EG000","numAffected":5,"numAtRisk":1797}]},{"term":"Pain - tumor","organSystem":"Neoplasms benign, malignant and unspecified (incl cysts and polyps)","sourceVocabulary":"NCI v3.0","assessmentType":"NON_SYSTEMATIC_ASSESSMENT","stats":[{"groupId":"EG000","numAffected":3,"numAtRisk":1797}]},{"term":"Pain - face","organSystem":"General disorders","sourceVocabulary":"NCI v3.0","assessmentType":"NON_SYSTEMATIC_ASSESSMENT","stats":[{"groupId":"EG000","numAffected":2,"numAtRisk":1797}]},{"term":"Pain - Kidney","organSystem":"Renal and urinary disorders","sourceVocabulary":"NCI v3.0","assessmentType":"NON_SYSTEMATIC_ASSESSMENT","stats":[{"groupId":"EG000","numAffected":2,"numAtRisk":1797}]},{"term":"Pain - foot","organSystem":"Musculoskeletal and connective tissue disorders","sourceVocabulary":"NCI v3.0","assessmentType":"NON_SYSTEMATIC_ASSESSMENT","stats":[{"groupId":"EG000","numAffected":2,"numAtRisk":1797}]},{"term":"Pain - dental/teeth/peridontal","organSystem":"Gastrointestinal disorders","sourceVocabulary":"NCI v3.0","assessmentType":"NON_SYSTEMATIC_ASSESSMENT","stats":[{"groupId":"EG000","numAffected":1,"numAtRisk":1797}]},{"term":"Pain - ear","organSystem":"Ear and labyrinth disorders","sourceVocabulary":"NCI v3.0","assessmentType":"NON_SYSTEMATIC_ASSESSMENT","stats":[{"groupId":"EG000","numAffected":1,"numAtRisk":1797}]},{"term":"Pain - rectum","organSystem":"Gastrointestinal disorders","sourceVocabulary":"NCI v3.0","assessmentType":"NON_SYSTEMATIC_ASSESSMENT","stats":[{"groupId":"EG000","numAffected":1,"numAtRisk":1797}]},{"term":"Pain - scalp","organSystem":"Skin and subcutaneous tissue disorders","sourceVocabulary":"NCI v3.0","assessmentType":"NON_SYSTEMATIC_ASSESSMENT","stats":[{"groupId":"EG000","numAffected":1,"numAtRisk":1797}]},{"term":"Dyspnea","organSystem":"Respiratory, thoracic and mediastinal disorders","sourceVocabulary":"NCI v3.0","assessmentType":"NON_SYSTEMATIC_ASSESSMENT","stats":[{"groupId":"EG000","numAffected":691,"numAtRisk":1797}]},{"term":"Cough","organSystem":"Respiratory, thoracic and mediastinal disorders","sourceVocabulary":"NCI v3.0","assessmentType":"NON_SYSTEMATIC_ASSESSMENT","stats":[{"groupId":"EG000","numAffected":436,"numAtRisk":1797}]},{"term":"Pulmonary/other","organSystem":"Respiratory, thoracic and mediastinal disorders","sourceVocabulary":"NCI v3.0","assessmentType":"NON_SYSTEMATIC_ASSESSMENT","stats":[{"groupId":"EG000","numAffected":138,"numAtRisk":1797}]},{"term":"Voice changes","organSystem":"Respiratory, thoracic and mediastinal disorders","sourceVocabulary":"NCI v3.0","assessmentType":"NON_SYSTEMATIC_ASSESSMENT","stats":[{"groupId":"EG000","numAffected":87,"numAtRisk":1797}]},{"term":"Bronchospasm","organSystem":"Respiratory, thoracic and mediastinal disorders","sourceVocabulary":"NCI v3.0","assessmentType":"NON_SYSTEMATIC_ASSESSMENT","stats":[{"groupId":"EG000","numAffected":18,"numAtRisk":1797}]},{"term":"Pleural effusion","organSystem":"Respiratory, thoracic and mediastinal disorders","sourceVocabulary":"NCI v3.0","assessmentType":"NON_SYSTEMATIC_ASSESSMENT","stats":[{"groupId":"EG000","numAffected":12,"numAtRisk":1797}]},{"term":"Hypoxia","organSystem":"Respiratory, thoracic and mediastinal disorders","sourceVocabulary":"NCI v3.0","assessmentType":"NON_SYSTEMATIC_ASSESSMENT","stats":[{"groupId":"EG000","numAffected":8,"numAtRisk":1797}]},{"term":"Hiccoughs","organSystem":"Respiratory, thoracic and mediastinal disorders","sourceVocabulary":"NCI v3.0","assessmentType":"NON_SYSTEMATIC_ASSESSMENT","stats":[{"groupId":"EG000","numAffected":7,"numAtRisk":1797}]},{"term":"Pulmonary/obstruction/stenosis of airway (bronchus)","organSystem":"Respiratory, thoracic and mediastinal disorders","sourceVocabulary":"NCI v3.0","assessmentType":"NON_SYSTEMATIC_ASSESSMENT","stats":[{"groupId":"EG000","numAffected":6,"numAtRisk":1797}]},{"term":"Pneumonitis","organSystem":"Respiratory, thoracic and mediastinal disorders","sourceVocabulary":"NCI v3.0","assessmentType":"NON_SYSTEMATIC_ASSESSMENT","stats":[{"groupId":"EG000","numAffected":4,"numAtRisk":1797}]},{"term":"Pneumothorax","organSystem":"Respiratory, thoracic and mediastinal disorders","sourceVocabulary":"NCI v3.0","assessmentType":"NON_SYSTEMATIC_ASSESSMENT","stats":[{"groupId":"EG000","numAffected":4,"numAtRisk":1797}]},{"term":"Atelectasis","organSystem":"Respiratory, thoracic and mediastinal disorders","sourceVocabulary":"NCI v3.0","assessmentType":"NON_SYSTEMATIC_ASSESSMENT","stats":[{"groupId":"EG000","numAffected":3,"numAtRisk":1797}]},{"term":"Adult respiratory distress syndrome","organSystem":"Respiratory, thoracic and mediastinal disorders","sourceVocabulary":"NCI v3.0","assessmentType":"NON_SYSTEMATIC_ASSESSMENT","stats":[{"groupId":"EG000","numAffected":3,"numAtRisk":1797}]},{"term":"Chest tube drainage or leak","organSystem":"Respiratory, thoracic and mediastinal disorders","sourceVocabulary":"NCI v3.0","assessmentType":"NON_SYSTEMATIC_ASSESSMENT","stats":[{"groupId":"EG000","numAffected":1,"numAtRisk":1797}]},{"term":"Trachael fistula","organSystem":"Respiratory, thoracic and mediastinal disorders","sourceVocabulary":"NCI v3.0","assessmentType":"NON_SYSTEMATIC_ASSESSMENT","stats":[{"groupId":"EG000","numAffected":1,"numAtRisk":1797}]},{"term":"Airway obstruction/upper respiratory","organSystem":"Respiratory, thoracic and mediastinal disorders","sourceVocabulary":"NCI v3.0","assessmentType":"NON_SYSTEMATIC_ASSESSMENT","stats":[{"groupId":"EG000","numAffected":1,"numAtRisk":1797}]},{"term":"Renal failure","organSystem":"Renal and urinary disorders","sourceVocabulary":"NCI v3.0","assessmentType":"NON_SYSTEMATIC_ASSESSMENT","stats":[{"groupId":"EG000","numAffected":39,"numAtRisk":1797}]},{"term":"Cystitis","organSystem":"Renal and urinary disorders","sourceVocabulary":"NCI v3.0","assessmentType":"NON_SYSTEMATIC_ASSESSMENT","stats":[{"groupId":"EG000","numAffected":12,"numAtRisk":1797}]},{"term":"Urinary frequency","organSystem":"Renal and urinary disorders","sourceVocabulary":"NCI v3.0","assessmentType":"NON_SYSTEMATIC_ASSESSMENT","stats":[{"groupId":"EG000","numAffected":11,"numAtRisk":1797}]},{"term":"Renal/other","organSystem":"Renal and urinary disorders","sourceVocabulary":"NCI v3.0","assessmentType":"NON_SYSTEMATIC_ASSESSMENT","stats":[{"groupId":"EG000","numAffected":8,"numAtRisk":1797}]},{"term":"Obstruction/GI","organSystem":"Gastrointestinal disorders","sourceVocabulary":"NCI v3.0","assessmentType":"NON_SYSTEMATIC_ASSESSMENT","stats":[{"groupId":"EG000","numAffected":4,"numAtRisk":1797}]},{"term":"Incontinence, urinary","organSystem":"Renal and urinary disorders","sourceVocabulary":"NCI v3.0","assessmentType":"NON_SYSTEMATIC_ASSESSMENT","stats":[{"groupId":"EG000","numAffected":2,"numAtRisk":1797}]},{"term":"Urine colour change","organSystem":"Renal and urinary disorders","sourceVocabulary":"NCI v3.0","assessmentType":"NON_SYSTEMATIC_ASSESSMENT","stats":[{"groupId":"EG000","numAffected":2,"numAtRisk":1797}]},{"term":"Urinary retention","organSystem":"Renal and urinary disorders","sourceVocabulary":"NCI v3.0","assessmentType":"NON_SYSTEMATIC_ASSESSMENT","stats":[{"groupId":"EG000","numAffected":1,"numAtRisk":1797}]},{"term":"Urogenital disorder","organSystem":"Renal and urinary disorders","sourceVocabulary":"NCI v3.0","assessmentType":"NON_SYSTEMATIC_ASSESSMENT","stats":[{"groupId":"EG000","numAffected":1,"numAtRisk":1797}]},{"term":"Secondary malignancy","organSystem":"Neoplasms benign, malignant and unspecified (incl cysts and polyps)","sourceVocabulary":"NCI v3.0","assessmentType":"NON_SYSTEMATIC_ASSESSMENT","stats":[{"groupId":"EG000","numAffected":1,"numAtRisk":1797}]},{"term":"Sexual/reproductive function","organSystem":"Reproductive system and breast disorders","sourceVocabulary":"NCI v3.0","assessmentType":"NON_SYSTEMATIC_ASSESSMENT","stats":[{"groupId":"EG000","numAffected":3,"numAtRisk":1797}]},{"term":"Irregular menstruation","organSystem":"Reproductive system and breast disorders","sourceVocabulary":"NCI v3.0","assessmentType":"NON_SYSTEMATIC_ASSESSMENT","stats":[{"groupId":"EG000","numAffected":2,"numAtRisk":1797}]},{"term":"Vaginal dryness","organSystem":"Reproductive system and breast disorders","sourceVocabulary":"NCI v3.0","assessmentType":"NON_SYSTEMATIC_ASSESSMENT","stats":[{"groupId":"EG000","numAffected":1,"numAtRisk":1797}]},{"term":"Erectile dysfunction","organSystem":"Reproductive system and breast disorders","sourceVocabulary":"NCI v3.0","assessmentType":"NON_SYSTEMATIC_ASSESSMENT","stats":[{"groupId":"EG000","numAffected":1,"numAtRisk":1797}]},{"term":"Intraoperative complications","organSystem":"Surgical and medical procedures","sourceVocabulary":"NCI v3.0","assessmentType":"NON_SYSTEMATIC_ASSESSMENT","stats":[{"groupId":"EG000","numAffected":1,"numAtRisk":1797}]},{"term":"Flu-like syndrome","organSystem":"General disorders","sourceVocabulary":"NCI v3.0","assessmentType":"NON_SYSTEMATIC_ASSESSMENT","stats":[{"groupId":"EG000","numAffected":102,"numAtRisk":1797}]},{"term":"Syndromes/other-superior cava vein","organSystem":"Injury, poisoning and procedural complications","sourceVocabulary":"NCI v3.0","assessmentType":"NON_SYSTEMATIC_ASSESSMENT","stats":[{"groupId":"EG000","numAffected":15,"numAtRisk":1797}]},{"term":"Syndromes/other","organSystem":"General disorders","sourceVocabulary":"NCI v3.0","assessmentType":"NON_SYSTEMATIC_ASSESSMENT","stats":[{"groupId":"EG000","numAffected":3,"numAtRisk":1797}]},{"term":"Antiphospholipid syndrome","organSystem":"Immune system disorders","sourceVocabulary":"NCI v3.0","assessmentType":"NON_SYSTEMATIC_ASSESSMENT","stats":[{"groupId":"EG000","numAffected":1,"numAtRisk":1797}]},{"term":"Ill-defined disorder","organSystem":"General disorders","sourceVocabulary":"NCI v3.0","assessmentType":"NON_SYSTEMATIC_ASSESSMENT","stats":[{"groupId":"EG000","numAffected":1,"numAtRisk":1797}]},{"term":"Uncoded","organSystem":"General disorders","sourceVocabulary":"NCI v3.0","assessmentType":"NON_SYSTEMATIC_ASSESSMENT","stats":[{"groupId":"EG000","numAffected":11,"numAtRisk":1797}]},{"term":"Thrombosis/embolism","organSystem":"Injury, poisoning and procedural complications","sourceVocabulary":"NCI v3.0","assessmentType":"NON_SYSTEMATIC_ASSESSMENT","stats":[{"groupId":"EG000","numAffected":42,"numAtRisk":1797}]},{"term":"Vascular/other","organSystem":"Vascular disorders","sourceVocabulary":"NCI v3.0","assessmentType":"NON_SYSTEMATIC_ASSESSMENT","stats":[{"groupId":"EG000","numAffected":10,"numAtRisk":1797}]},{"term":"Phlebitis","organSystem":"Vascular disorders","sourceVocabulary":"NCI v3.0","assessmentType":"NON_SYSTEMATIC_ASSESSMENT","stats":[{"groupId":"EG000","numAffected":7,"numAtRisk":1797}]}]},"moreInfoModule":{"limitationsAndCaveats":{"description":"Nonserious adverse events presented in this record include all adverse events reported during the study, not just nonserious events."},"certainAgreement":{"piSponsorEmployee":false,"restrictionType":"OTHER","restrictiveAgreement":true,"otherDetails":"The study being conducted under this agreement is part of the overall study. Investigator is free to publish in reputable journals or to present at professional conferences the results of the study, but after the first publication or presentation that involves the overall study. Sponsor may request that confidential information be deleted and/or the publication be postponed in order to protect the Sponsor's intellectual property rights."},"pointOfContact":{"title":"Medical Communications","organization":"Hoffmann- LaRoche","email":"genentech@druginfo.com","phone":"800-821-8590"}}},"derivedSection":{"miscInfoModule":{"versionHolder":"2025-12-17"},"conditionBrowseModule":{"meshes":[{"id":"D002289","term":"Carcinoma, Non-Small-Cell Lung"}],"ancestors":[{"id":"D002283","term":"Carcinoma, Bronchogenic"},{"id":"D001984","term":"Bronchial Neoplasms"},{"id":"D008175","term":"Lung Neoplasms"},{"id":"D012142","term":"Respiratory Tract Neoplasms"},{"id":"D013899","term":"Thoracic Neoplasms"},{"id":"D009371","term":"Neoplasms by Site"},{"id":"D009369","term":"Neoplasms"},{"id":"D008171","term":"Lung Diseases"},{"id":"D012140","term":"Respiratory Tract Diseases"}]},"interventionBrowseModule":{"meshes":[{"id":"D000069347","term":"Erlotinib Hydrochloride"}],"ancestors":[{"id":"D011799","term":"Quinazolines"},{"id":"D006574","term":"Heterocyclic Compounds, 2-Ring"},{"id":"D000072471","term":"Heterocyclic Compounds, Fused-Ring"},{"id":"D006571","term":"Heterocyclic Compounds"}]}},"hasResults":true}